lon,lat,name,address,pname,cityname,business_area,type,typecode,id,type1,type2,type3,type4
116.04388249516474,39.97483450147377,北京农商银行(妙峰山分理处),妙峰山镇政府对面,北京市,北京市,,金融保险服务;银行;北京农商银行,160149,B0FFF4QB3O,金融保险服务,银行,北京农商银行,
116.04409502389025,39.97487506090554,北京农商银行24小时自助银行服务(妙峰山分理处),陇驾庄后街与陇驾庄西街交叉口北150米,北京市,北京市,,金融保险服务;自动提款机;农村商业银行ATM,160318,B0FFGCBJQ0,金融保险服务,自动提款机,农村商业银行ATM,
116.08818269493514,39.995735624321924,北京农商银行24小时自助银行(军庄分理处),G109(京拉线),北京市,北京市,军庄镇,金融保险服务;自动提款机;北京农商银行ATM,160346,B0FFL1AJ1F,金融保险服务,自动提款机,北京农商银行ATM,
116.0881827026659,39.9956756268525,北京农商银行(军庄分理处),军庄镇军庄村口南100米,北京市,北京市,军庄镇,金融保险服务;银行;北京农商银行,160149,B000A7VRVH,金融保险服务,银行,北京农商银行,
116.08309397290589,39.94331218586689,中国建设银行,门头沟北路,北京市,北京市,龙泉,金融保险服务;银行;中国建设银行,160106,B0FFLNM15G,金融保险服务,银行,中国建设银行,
116.0740720037928,39.94187370287868,中国邮政储蓄银行(龙泉营业所),和平南街与和平街交汇处东150米,北京市,北京市,东辛房村,金融保险服务;银行;中国邮政储蓄银行,160139,B0FFGJVC6Y,金融保险服务,银行,中国邮政储蓄银行,
116.08928550188949,39.93735779013848,北京银行(惠民家园支行),黑山大街28号惠民家园2区29号楼底商,北京市,北京市,门头沟,金融保险服务;银行;北京银行,160119,B0FFL34WBV,金融保险服务,银行,北京银行,
116.08842707697939,39.93882285629219,中国建设银行,黑山大街与增产路交叉口东南方向70米,北京市,北京市,门头沟,金融保险服务;银行;中国建设银行,160106,B0FFM7LMES,金融保险服务,银行,中国建设银行,
116.07408899567581,39.9418606896603,中国邮政储蓄银行24小时自助银行(龙泉营业所),和平南街与和平街交叉口东150米,北京市,北京市,东辛房村,金融保险服务;自动提款机;中国邮政储蓄银行ATM,160336,B0FFGJVC6E,金融保险服务,自动提款机,中国邮政储蓄银行ATM,
116.08823403028902,39.93881688896257,中国建设银行24小时自助银行,惠民家园二区29号楼底商,北京市,北京市,门头沟,金融保险服务;自动提款机;中国建设银行ATM,160303,B0FFLJTQWC,金融保险服务,自动提款机,中国建设银行ATM,
116.08300019872175,39.94159729141739,北京农商银行(城龙支行),门头沟路38号,北京市,北京市,门头沟,金融保险服务;银行;北京农商银行,160149,B000A8XDX6,金融保险服务,银行,北京农商银行,
116.0892474815286,39.93742779217321,北京银行24小时自助银行(惠民家园支行),黑山大街22附近,北京市,北京市,龙泉,金融保险服务;自动提款机;北京银行ATM,160316,B0FFL5WD0K,金融保险服务,自动提款机,北京银行ATM,
116.08255202446259,39.94320641446767,北京农商银行24小时自助银行(门头沟北路),增产路与门头沟北路交叉口东北100米,北京市,北京市,龙泉,金融保险服务;自动提款机;北京农商银行ATM,160346,B0FFHDSC1R,金融保险服务,自动提款机,北京农商银行ATM,
116.08291820921511,39.94155532652672,北京农商银行24小时自助银行(城龙支行),门头沟路38号,北京市,北京市,门头沟,金融保险服务;自动提款机;北京农商银行ATM,160346,B000A8XD9U,金融保险服务,自动提款机,北京农商银行ATM,
116.13330319144296,40.13662817741499,北京农商银行(阳坊支行),阳坊镇南阳路大都饭店北侧,北京市,北京市,阳坊,金融保险服务;银行;北京农商银行,160149,B000A7Q2T0,金融保险服务,银行,北京农商银行,
116.1356854818549,40.139502455221596,中国农业银行(北京阳坊支行),阳坊村西大街59号,北京市,北京市,阳坊,金融保险服务;银行;中国农业银行,160107,B000A7RC6P,金融保险服务,银行,中国农业银行,
116.13301751623304,40.13669075336001,北京农商银行24小时自助银行(阳坊支行),南阳路大都饭店北侧,北京市,北京市,,金融保险服务;自动提款机;北京农商银行ATM,160346,B000A7Q2T1,金融保险服务,自动提款机,北京农商银行ATM,
116.1365024690811,40.13943871293286,中国邮政储蓄银行(阳坊支行),阳坊镇阳坊村,北京市,北京市,阳坊,金融保险服务;银行;中国邮政储蓄银行,160139,B000A8XRI0,金融保险服务,银行,中国邮政储蓄银行,
116.13584285939511,40.13951969339468,中国农业银行24小时自助银行(阳坊分理处),阳坊镇西大街59号阳坊分理处,北京市,北京市,阳坊村,金融保险服务;自动提款机;中国农业银行ATM,160304,B000A8XQD5,金融保险服务,自动提款机,中国农业银行ATM,
116.13662274942446,40.13953688865621,中国邮政储蓄银行24小时自助银行(阳坊支行),阳坊村西大街1号附近,北京市,北京市,阳坊村,金融保险服务;自动提款机;中国邮政储蓄银行ATM,160336,B000A8XR71,金融保险服务,自动提款机,中国邮政储蓄银行ATM,
116.13884645230739,40.09884492672908,北京银行(苏家坨支行),苏家坨前沙涧凤仪佳苑七里八号楼,北京市,北京市,,金融保险服务;银行;北京银行,160119,B0FFGF8NOT,金融保险服务,银行,北京银行,
116.11146591066438,40.105405812262795,北京农商银行(凤凰岭分理处),苏家坨镇聂各庄路18号,北京市,北京市,,金融保险服务;银行;北京农商银行,160149,B000A7Q2K2,金融保险服务,银行,北京农商银行,
116.14016460974246,40.107854334858516,北京农商银行(前沙涧分理处),苏家坨镇中心区A地块经济适用房A5地块配套公建2-层,北京市,北京市,,金融保险服务;银行;北京农商银行,160149,B000A24814,金融保险服务,银行,北京农商银行,
116.14014134422531,40.109468166219955,中国邮政储蓄银行(苏家坨营业所),苏家坨苏三路2号,北京市,北京市,,金融保险服务;银行;中国邮政储蓄银行,160139,B0FFFEINHH,金融保险服务,银行,中国邮政储蓄银行,
116.13875923736674,40.098824789612756,北京银行24小时自助银行(苏家坨支行),聂各庄东路,北京市,北京市,,金融保险服务;自动提款机;北京银行ATM,160316,B0FFGF8NOU,金融保险服务,自动提款机,北京银行ATM,
116.1401473533972,40.10951517209679,中国邮政储蓄银行24小时自助银行,后沙涧路与苏三路交叉口东南50米,北京市,北京市,,金融保险服务;自动提款机;中国邮政储蓄银行ATM,160336,B0FFFSCOLH,金融保险服务,自动提款机,中国邮政储蓄银行ATM,
116.14016561458824,40.10783633793653,北京农商银行24小时自助银行(前沙涧分理处),苏一路北京妙医堂大药房南侧旁边,北京市,北京市,,金融保险服务;自动提款机;北京农商银行ATM,160346,B0FFFACQ1J,金融保险服务,自动提款机,北京农商银行ATM,
116.11694278813006,40.05792990732387,北京农商银行(北安河支行),苏家坨镇北安河路5号,北京市,北京市,,金融保险服务;银行;北京农商银行,160149,B000A7Q2I5,金融保险服务,银行,北京农商银行,
116.1168125634335,40.057935779218425,北京农商银行24小时自助银行(北安河支行),苏家坨镇北安河路5号,北京市,北京市,,金融保险服务;自动提款机;北京农商银行ATM,160346,B000A8XOU1,金融保险服务,自动提款机,北京农商银行ATM,
116.10562678843016,39.9605045627906,中国工商银行(三家店支行),三家店东街47号宏远宾馆大厦,北京市,北京市,,金融保险服务;银行;中国工商银行,160105,B000A24C78,金融保险服务,银行,中国工商银行,
116.09895630676758,40.00510387960973,中国邮政储蓄银行(军庄营业所),军庄路惠通新苑小区,北京市,北京市,军庄镇,金融保险服务;银行;中国邮政储蓄银行,160139,B0FFGK9GQU,金融保险服务,银行,中国邮政储蓄银行,
116.09895930889223,40.00510688035509,中国邮政储蓄银行24小时自助银行(军庄营业所),杨坨路口西北200米,北京市,北京市,军庄镇,金融保险服务;自动提款机;中国邮政储蓄银行ATM,160336,B0FFGK9GR8,金融保险服务,自动提款机,中国邮政储蓄银行ATM,
116.09742372862493,39.961254274251935,中国工商银行24小时自助银行(水闸北路),水闸北路21号(龙泉宾馆大堂内),北京市,北京市,,金融保险服务;自动提款机;中国工商银行ATM,160302,B0FFF5RPIE,金融保险服务,自动提款机,中国工商银行ATM,
116.1050304952121,39.93397027635002,北京农商银行(门头沟支行),滨河路115号滨河大厦1层,北京市,北京市,大峪村,金融保险服务;银行;北京农商银行,160149,B000A87ECQ,金融保险服务,银行,北京农商银行,
116.12167087234049,39.93722530339156,北京农商银行(融玉分理处),双峪路10-5号,北京市,北京市,广宁,金融保险服务;银行;北京农商银行,160149,B000A85THU,金融保险服务,银行,北京农商银行,
116.10408020330996,39.93568071325322,中国农业发展银行(门头沟区支行),新桥南大街10号,北京市,北京市,门头沟,金融保险服务;银行;银行,160100,B000A7RC00,金融保险服务,银行,银行,
116.12170693385384,39.93728534211149,北京农商银行24小时自助银行(融玉分理处),双峪路10-5号,北京市,北京市,广宁,金融保险服务;自动提款机;北京农商银行ATM,160346,B000A85THV,金融保险服务,自动提款机,北京农商银行ATM,
116.10973191143484,39.930517385393806,中国邮政储蓄银行(承泽苑支行),滨河居住区承泽苑2号楼底商,北京市,北京市,门头沟,金融保险服务;银行;中国邮政储蓄银行,160139,B000A85W70,金融保险服务,银行,中国邮政储蓄银行,
116.10716185492944,39.92782376316814,中国工商银行(北京滨河支行),滨河路157-6号,北京市,北京市,龙泉,金融保险服务;银行;中国工商银行,160105,B000A47470,金融保险服务,银行,中国工商银行,
116.10472003538703,39.93478407824973,中国建设银行(北京门头沟支行),双峪路22号,北京市,北京市,门头沟,金融保险服务;银行;中国建设银行,160106,B000A7RBIY,金融保险服务,银行,中国建设银行,
116.10498944446711,39.933997253145336,中国民生银行(北京门头沟支行),滨河路115号滨河大厦(滨河路)15A层,北京市,北京市,门头沟,金融保险服务;银行;中国民生银行,160112,B0FFH2PHKZ,金融保险服务,银行,中国民生银行,
116.09969950271166,39.9462944859576,中国银行(北京门头沟支行),滨河路蓝龙家园6号楼1层,北京市,北京市,门头沟,金融保险服务;银行;中国银行,160104,B000A8X8WO,金融保险服务,银行,中国银行,
116.10028096245878,39.93116127975186,中国农业银行(北京门头沟支行),新桥南大街10号,北京市,北京市,门头沟,金融保险服务;银行;中国农业银行,160107,B000A7XLUS,金融保险服务,银行,中国农业银行,
116.10201925059995,39.93401583086674,北京银行(门头沟支行),双峪路5号奥新天地商城1层,北京市,北京市,门头沟,金融保险服务;银行;北京银行,160119,B000A879Q3,金融保险服务,银行,北京银行,
116.13323061826846,39.93654345821075,中国工商银行(北京高井支行),高井路8号,北京市,北京市,广宁,金融保险服务;银行;中国工商银行,160105,B000A7C7V4,金融保险服务,银行,中国工商银行,
116.12155854732596,39.95373252820075,北京农商银行(阜石路分理处),石门路318号,北京市,北京市,,金融保险服务;银行;北京农商银行,160149,B000A7Q2K6,金融保险服务,银行,北京农商银行,
116.11124434919023,39.928282610882924,中国建设银行(承泽苑支行),滨河居住区3,北京市,北京市,永定,金融保险服务;银行;中国建设银行,160106,B0FFFAD8ZS,金融保险服务,银行,中国建设银行,
116.10568742041517,39.93274668839644,北京门头沟珠江村镇银行(滨河路支行),滨河西区皓月园5号楼门头沟,北京市,北京市,门头沟,金融保险服务;银行;银行,160100,B0FFFPZK14,金融保险服务,银行,银行,
116.0946697577454,39.93872069476044,华夏银行(门头沟支行),新桥大街国泰百货一层,北京市,北京市,龙泉,金融保险服务;银行;华夏银行,160110,B0FFHKH7SK,金融保险服务,银行,华夏银行,
116.10432566131975,39.934234895172814,中国邮政储蓄银行(滨河路支行),滨河皓月园6号楼,北京市,北京市,门头沟,金融保险服务;银行;中国邮政储蓄银行,160139,B000A879AT,金融保险服务,银行,中国邮政储蓄银行,
116.10114850845558,39.94098020608155,中国工商银行(北京绿岛水岸支行),绿岛家园36号楼1层03-1,北京市,北京市,门头沟,金融保险服务;银行;中国工商银行,160105,B0FFILWUTI,金融保险服务,银行,中国工商银行,
116.09957592879046,39.93434391841199,中国工商银行(新桥大街储蓄所),新桥大街98号,北京市,北京市,门头沟,金融保险服务;银行;中国工商银行,160105,B000A7RB58,金融保险服务,银行,中国工商银行,
116.10510958796593,39.93395931961336,北京农商银行24小时自助银行(门头沟支行),滨河路115号滨河大厦,北京市,北京市,门头沟,金融保险服务;自动提款机;北京农商银行ATM,160346,B000A879AQ,金融保险服务,自动提款机,北京农商银行ATM,
116.1108527938781,39.92818731249642,中国建设银行24小时自助银行(承泽苑支行),滨河居住宅3,北京市,北京市,门头沟,金融保险服务;自动提款机;中国建设银行ATM,160303,B0FFFAD8ZU,金融保险服务,自动提款机,中国建设银行ATM,
116.10018083432908,39.931455233458614,中国建设银行(北京新桥支行),新桥南大街8号,北京市,北京市,门头沟,金融保险服务;银行;中国建设银行,160106,B000A82Z7Z,金融保险服务,银行,中国建设银行,
116.1050004562451,39.93400425879593,中国民生银行24小时自助银行(北京门头沟支行),滨河路117号-201室西90米,北京市,北京市,大峪村,金融保险服务;自动提款机;中国民生银行ATM,160309,B0FFHCO752,金融保险服务,自动提款机,中国民生银行ATM,
116.09956728116303,39.9315390277068,中国邮政储蓄银行(西下庄支行),新桥南大街13号院1东-1,北京市,北京市,门头沟,金融保险服务;银行;中国邮政储蓄银行,160139,B0FFL6D9EJ,金融保险服务,银行,中国邮政储蓄银行,
116.1002539374896,39.93116527023529,中国农业银行24小时自助银行(北京门头沟支行),新桥南大街10号大峪分理处,北京市,北京市,门头沟,金融保险服务;自动提款机;中国农业银行ATM,160304,B000A7XLUT,金融保险服务,自动提款机,中国农业银行ATM,
116.13318352193936,39.9364383934362,中国工商银行24小时自助银行(高井支行),高井路8号,北京市,北京市,广宁,金融保险服务;自动提款机;中国工商银行ATM,160302,B000A889UB,金融保险服务,自动提款机,中国工商银行ATM,
116.10417543436371,39.93470080019621,中国建设银行24小时自助银行(北京门头沟支行),双峪路22号,北京市,北京市,门头沟,金融保险服务;自动提款机;中国建设银行ATM,160303,B000A7RBIZ,金融保险服务,自动提款机,中国建设银行ATM,
116.09413220630017,39.94055856952944,中国工商银行(门头沟支行),新桥大街16号(门头沟影剧院旁),北京市,北京市,门头沟,金融保险服务;银行;中国工商银行,160105,B0FFFZCE63,金融保险服务,银行,中国工商银行,
116.10974793134295,39.93053539625018,中国邮政储蓄银行24小时自助银行(承泽苑营业所),承泽苑5号,北京市,北京市,永定,金融保险服务;自动提款机;中国邮政储蓄银行ATM,160336,B0FFG8UK9K,金融保险服务,自动提款机,中国邮政储蓄银行ATM,
116.0986942701409,39.93367368147368,中国邮政储蓄银行(双峪营业所),大峪南路33号,北京市,北京市,门头沟,金融保险服务;银行;中国邮政储蓄银行,160139,B000A85FKX,金融保险服务,银行,中国邮政储蓄银行,
116.09546049077751,39.936850868807646,北京农商银行(新桥分理处),新桥大街69号,北京市,北京市,门头沟,金融保险服务;银行;北京农商银行,160149,B000A87BFV,金融保险服务,银行,北京农商银行,
116.10720393669494,39.9275997984913,中国工商银行24小时自助银行(滨河支行),滨河路157-7号,北京市,北京市,门头沟,金融保险服务;自动提款机;中国工商银行ATM,160302,B000A7RAZZ,金融保险服务,自动提款机,中国工商银行ATM,
116.10663832943838,39.91121412781631,中国工商银行(北京定京支行),永兴嘉园13号楼12-5,北京市,北京市,门头沟,金融保险服务;银行;中国工商银行,160105,B000A342D7,金融保险服务,银行,中国工商银行,
116.09554777434984,39.950655337998654,北京农商银行(龙泉支行),滨河路47号2幢一层,北京市,北京市,门头沟,金融保险服务;银行;北京农商银行,160149,B000AA1FCS,金融保险服务,银行,北京农商银行,
116.11283419815656,39.955846808757535,中国邮政储蓄银行,[],北京市,北京市,,金融保险服务;银行;中国邮政储蓄银行,160139,B0G0LHFFGK,金融保险服务,银行,中国邮政储蓄银行,
116.10049321244833,39.93072037196989,交通银行ATM(物美超市新隆店),新桥南大街18号物美大卖场内,北京市,北京市,门头沟,金融保险服务;自动提款机;交通银行ATM,160305,B000A9V4N9,金融保险服务,自动提款机,交通银行ATM,
116.09956191945598,39.93432191484513,中国工商银行ATM(新桥大储蓄所),新桥大街98号,北京市,北京市,门头沟,金融保险服务;自动提款机;中国工商银行ATM,160302,B000A7RB59,金融保险服务,自动提款机,中国工商银行ATM,
116.10732712432186,39.92735188584123,中国邮政储蓄银行24小时自助银行,石担路与德露苑路交叉路口北侧(倚山嘉园),北京市,北京市,门头沟,金融保险服务;自动提款机;中国邮政储蓄银行ATM,160336,B0FFG658E0,金融保险服务,自动提款机,中国邮政储蓄银行ATM,
116.10435869965806,39.934223912539906,中国邮政储蓄银行24小时自助银行(滨河路支行),滨河西区皓月园6号楼底商11-3,北京市,北京市,门头沟,金融保险服务;自动提款机;中国邮政储蓄银行ATM,160336,B000A879AS,金融保险服务,自动提款机,中国邮政储蓄银行ATM,
116.10186710047977,39.934007768002935,北京银行24小时自助银行(门头沟支行),双峪路5号,北京市,北京市,门头沟,金融保险服务;自动提款机;北京银行ATM,160316,B000A879Q2,金融保险服务,自动提款机,北京银行ATM,
116.09798437381647,39.93622239143325,中国建设银行24小时自助银行(新桥大街支行),新桥大街86号,北京市,北京市,门头沟,金融保险服务;自动提款机;中国建设银行ATM,160303,B0FFFADZQH,金融保险服务,自动提款机,中国建设银行ATM,
116.10112349595765,39.94089219999338,中国工商银行24小时自助银行(绿岛水岸支行),绿岛家园36号楼1层03-1,北京市,北京市,门头沟,金融保险服务;自动提款机;中国工商银行ATM,160302,B0FFFZCDKK,金融保险服务,自动提款机,中国工商银行ATM,
116.09791432476983,39.93617837572236,中国建设银行(门头沟新桥大街支行),新桥大街86号,北京市,北京市,门头沟,金融保险服务;银行;中国建设银行,160106,B000AA1EQ5,金融保险服务,银行,中国建设银行,
116.0937947449411,39.94267245952903,中国邮政储蓄银行(大峪邮局营业部)(装修中),龙泉河滩路2号,北京市,北京市,门头沟,金融保险服务;银行;中国邮政储蓄银行,160139,B000A7XL54,金融保险服务,银行,中国邮政储蓄银行,
116.09871728866634,39.93367668782344,中国邮政储蓄银行24小时自助银行(双峪营业所),大峪南路33号,北京市,北京市,门头沟,金融保险服务;自动提款机;中国邮政储蓄银行ATM,160336,B000A7VIIX,金融保险服务,自动提款机,中国邮政储蓄银行ATM,
116.09465774397296,39.93877169143092,华夏银行24小时自助银行(门头沟支行),新桥大街57号附近,北京市,北京市,大峪村,金融保险服务;自动提款机;华夏银行ATM,160307,B0FFKZLKAX,金融保险服务,自动提款机,华夏银行ATM,
116.09409595197756,39.942377494683946,中国建设银行(北京门头沟贸易大楼支行),新桥大街2号贸易大楼一层北侧,北京市,北京市,门头沟,金融保险服务;银行;中国建设银行,160106,B0FFHCO73F,金融保险服务,银行,中国建设银行,
116.10677843195056,39.91176718929623,北京农商银行(永定支行),永兴小区15号楼底商,北京市,北京市,门头沟,金融保险服务;银行;北京农商银行,160149,B0FFGCBJG0,金融保险服务,银行,北京农商银行,
116.09548451772032,39.93676187579687,北京农商银行24小时自助银行(新桥分理处),新桥大街69号,北京市,北京市,门头沟,金融保险服务;自动提款机;农村商业银行ATM,160318,B000A87BFU,金融保险服务,自动提款机,农村商业银行ATM,
116.0996804868529,39.94628848006482,中国银行24小时自助银行(北京门头沟支行),滨河路蓝龙家园6号楼1层,北京市,北京市,门头沟,金融保险服务;自动提款机;中国银行ATM,160301,B000A8X69T,金融保险服务,自动提款机,中国银行ATM,
116.09414197736724,39.94238449834943,中国建设银行24小时自助银行(贸易大楼支行),新桥大街与河滩路交叉口东50米,北京市,北京市,门头沟,金融保险服务;自动提款机;中国建设银行ATM,160303,B0FFHCO7BN,金融保险服务,自动提款机,中国建设银行ATM,
116.12157757505098,39.953800547157265,北京农商银行ATM(石景山支行),石门路318号,北京市,北京市,,金融保险服务;自动提款机;北京农商银行ATM,160346,B000A85TI1,金融保险服务,自动提款机,北京农商银行ATM,
116.09426931823927,39.94030159190372,中国工商银行24小时自助银行(龙泉支行),新桥大街22号,北京市,北京市,门头沟,金融保险服务;自动提款机;中国工商银行ATM,160302,B000A7RB30,金融保险服务,自动提款机,中国工商银行ATM,
116.09565784534364,39.95066235418187,北京农商银行24小时自助银行(龙泉支行),滨河路47号,北京市,北京市,门头沟,金融保险服务;自动提款机;北京农商银行ATM,160346,B000AA1FCQ,金融保险服务,自动提款机,北京农商银行ATM,
116.11281014230647,39.95599478283534,中国邮政储蓄银行24小时自助银行,[],北京市,北京市,,金融保险服务;自动提款机;中国邮政储蓄银行ATM,160336,B0G0LHFFGJ,金融保险服务,自动提款机,中国邮政储蓄银行ATM,
116.09375971069397,39.942788452477465,中国邮政储蓄银行24小时自助银行(门头沟区支行),河滩路2号,北京市,北京市,门头沟,金融保险服务;自动提款机;中国邮政储蓄银行ATM,160336,B0FFG658EN,金融保险服务,自动提款机,中国邮政储蓄银行ATM,
116.10667035591068,39.91131614283288,中国工商银行24小时自助银行(定京支行),永兴小区13号楼1层12-5(永兴小区高层临街),北京市,北京市,门头沟,金融保险服务;自动提款机;中国工商银行ATM,160302,B000A85U3B,金融保险服务,自动提款机,中国工商银行ATM,
116.12957359764069,39.95780543898466,北京农商银行24小时自助银行,炮厂路西50米,北京市,北京市,,金融保险服务;自动提款机;北京农商银行ATM,160346,B0FFKV36D9,金融保险服务,自动提款机,北京农商银行ATM,
116.09931252375087,39.95909886291874,中国邮政储蓄银行24小时自助银行(三家店营业所),水闸路11号,北京市,北京市,,金融保险服务;自动提款机;中国邮政储蓄银行ATM,160336,B0FFKUWM0U,金融保险服务,自动提款机,中国邮政储蓄银行ATM,
116.10679946163472,39.911739203291155,北京农商银行24小时自助银行(永定支行),永兴小区15号楼1层,北京市,北京市,门头沟,金融保险服务;自动提款机;北京农商银行ATM,160346,B000A85U3D,金融保险服务,自动提款机,北京农商银行ATM,
116.11809459532577,39.90343283186508,招商银行门头沟支行,新城东街17号院3号楼(长安天街商场东侧),北京市,北京市,永定,金融保险服务;银行;招商银行,160109,B0HBACO8ZJ,金融保险服务,银行,招商银行,
116.10435361302076,39.90363717840694,北京银行(西长安街支行),骏洋大厦首层,北京市,北京市,永定,金融保险服务;银行;北京银行,160119,B0FFKULB7D,金融保险服务,银行,北京银行,
116.10591998365665,39.90709488056867,中国邮政储蓄银行(石龙支行),石龙北路62号,北京市,北京市,永定,金融保险服务;银行;中国邮政储蓄银行,160139,B000A7QCIC,金融保险服务,银行,中国邮政储蓄银行,
116.1207634916095,39.89537903523057,北京银行(石龙经济开发区支行),石龙经济开发区永安路20号3号楼一层,北京市,北京市,永定,金融保险服务;银行;北京银行,160119,B0FFG15CV0,金融保险服务,银行,北京银行,
116.11056277186279,39.90166620470681,中国工商银行24小时自助银行,华园路与泰安路交叉路口往北约100米(利德衡大厦),北京市,北京市,永定,金融保险服务;自动提款机;中国工商银行ATM,160302,B0FFM6RQQV,金融保险服务,自动提款机,中国工商银行ATM,
116.10529579484344,39.90280871546937,北京门头沟珠江村镇银行(雅安路),永定镇石龙南路8号,北京市,北京市,永定,金融保险服务;银行;银行,160100,B000A8XKT0,金融保险服务,银行,银行,
116.10518475302257,39.90212668452359,中国农业银行(北京石龙支行),三石南路14号,北京市,北京市,永定,金融保险服务;银行;中国农业银行,160107,B000A8XL3V,金融保险服务,银行,中国农业银行,
116.10514478525438,39.90932335113635,中国建设银行(北京永定支行),永定镇冯村永定B2032-2034号1-2层,北京市,北京市,门头沟,金融保险服务;银行;中国建设银行,160106,B000A8XLN1,金融保险服务,银行,中国建设银行,
116.10519376629644,39.90210469041182,中国农业银行24小时自助银行(石龙支行),石龙南路14号石龙分理处,北京市,北京市,永定,金融保险服务;自动提款机;中国农业银行ATM,160304,B000A8XL5Q,金融保险服务,自动提款机,中国农业银行ATM,
116.1207364423179,39.89536700576364,北京银行24小时自助银行(石龙经济开发区支行),永安路20号(石龙高科大厦),北京市,北京市,永定,金融保险服务;自动提款机;北京银行ATM,160316,B0FFFACXUW,金融保险服务,自动提款机,北京银行ATM,
116.11056677321893,39.90170020622693,中国工商银行(石龙开发区支行),雅安路6号院1(利德衡大厦),北京市,北京市,永定,金融保险服务;银行;中国工商银行,160105,B0FFJV8Q5I,金融保险服务,银行,中国工商银行,
116.10420544965218,39.903624103445566,北京银行24小时自助银行服务,石龙南路1号,北京市,北京市,永定,金融保险服务;自动提款机;北京银行ATM,160316,B0FFLC60IZ,金融保险服务,自动提款机,北京银行ATM,
116.13726124049187,39.89728718872371,中国邮政储蓄银行(龙兴南二路),永定镇龙兴南二路梧桐苑8号院1层底商,北京市,北京市,永定,金融保险服务;银行;中国邮政储蓄银行,160139,B0FFJH5RE7,金融保险服务,银行,中国邮政储蓄银行,
116.13643518001423,39.897677892570556,北京门头沟珠江村镇银行(白庄子路),永定镇龙兴南二路7号院7号楼,北京市,北京市,永定,金融保险服务;银行;银行,160100,B0HBOMIU97,金融保险服务,银行,银行,
116.10420337346726,39.90420107723155,中信银行(北京门头沟支行),石龙南路1号,北京市,北京市,永定,金融保险服务;银行;中信银行,160111,B0FFHNETLB,金融保险服务,银行,中信银行,
116.13640826304461,39.896510903450604,北京农商银行(梧桐苑分理处),龙兴南二路8号院4号楼1层101号、102号,北京市,北京市,永定,金融保险服务;银行;北京农商银行,160149,B0FFHB92SW,金融保险服务,银行,北京农商银行,
116.10519084287553,39.909290377657825,中国建设银行24小时自助银行(北京永定支行),永定镇冯村永定B2032、2034号,北京市,北京市,永定,金融保险服务;自动提款机;中国建设银行ATM,160303,B000A8XLOI,金融保险服务,自动提款机,中国建设银行ATM,
116.0943461904032,39.887078860715825,中国邮政储蓄银行(石门营营业所),京昆路与石园南路交汇处东50米,北京市,北京市,永定,金融保险服务;银行;中国邮政储蓄银行,160139,B0FFG8UQWI,金融保险服务,银行,中国邮政储蓄银行,
116.1372542248605,39.89727517833915,中国邮政储蓄银行24小时自助银行(梧桐苑营业所),龙兴南二路8号院2号,北京市,北京市,永定,金融保险服务;自动提款机;中国邮政储蓄银行ATM,160336,B0FFL2V7PL,金融保险服务,自动提款机,中国邮政储蓄银行ATM,
116.10590792889924,39.90740986008606,中国邮政储蓄银行24小时自助银行(石龙支行),石龙北路62号,北京市,北京市,永定,金融保险服务;自动提款机;中国邮政储蓄银行ATM,160336,B0FFHC4RZT,金融保险服务,自动提款机,中国邮政储蓄银行ATM,
116.13643934175596,39.89648395247872,北京农商银行24小时自助银行(梧桐苑分理处),白庄子路与规划三路交叉口东南150米,北京市,北京市,永定,金融保险服务;自动提款机;北京农商银行ATM,160346,B0FFHB90A4,金融保险服务,自动提款机,北京农商银行ATM,
116.17204434149528,40.123677382005155,北京农商银行(前章村分理处),上庄镇前章村357号,北京市,北京市,,金融保险服务;银行;北京农商银行,160149,B000A2645C,金融保险服务,银行,北京农商银行,
116.17204534112794,40.123702381615566,北京市农村商业银行ATM(前章村分理处),上庄镇前章村357号,北京市,北京市,,金融保险服务;银行;北京农商银行|金融保险服务;自动提款机;北京农商银行ATM,160149|160346,B000A8XQ0V,金融保险服务,银行,北京农商银行|金融保险服务,自动提款机
116.14501521810017,40.115102794226885,北京农商银行24小时自助银行(前沙涧分理处),温阳路附近,北京市,北京市,,金融保险服务;自动提款机;北京农商银行ATM,160346,B0FFGXSZ8D,金融保险服务,自动提款机,北京农商银行ATM,
116.17351019154087,40.07832560320453,中国人民银行清算总中心数据中心,翠湖北环路9号,北京市,北京市,,金融保险服务;银行相关;银行相关,160200,B0FFGLGDD5,金融保险服务,银行相关,银行相关,
116.17734867049926,40.07961554824134,中国农业银行北京数据中心,翠湖北环路5号院,北京市,北京市,,金融保险服务;银行相关;银行相关,160200,B000A8XRR2,金融保险服务,银行相关,银行相关,
116.1594479982558,40.06667216016744,北京农商银行(北分厂分理处),北清路3号,北京市,北京市,,金融保险服务;银行;北京农商银行,160149,B0FFH9AV2J,金融保险服务,银行,北京农商银行,
116.1524954072824,40.07603284043951,北京农商银行(苏家坨支行),苏家坨镇温阳路18号,北京市,北京市,,金融保险服务;银行;北京农商银行,160149,B000A7VRYR,金融保险服务,银行,北京农商银行,
116.17529272639865,40.08960210564813,北京农商银行ATM(稻香湖景酒店),苏家坨稻香湖路28号稻香·湖景酒店,北京市,北京市,,金融保险服务;自动提款机;北京农商银行ATM,160346,B0FFF2UOFJ,金融保险服务,自动提款机,北京农商银行ATM,
116.15329458170572,40.07628126682037,北京农商银行24小时自助银行(苏家坨支行),苏家坨镇温阳路18号,北京市,北京市,,金融保险服务;自动提款机;北京农商银行ATM,160346,B000A8XRP7,金融保险服务,自动提款机,北京农商银行ATM,
116.1593607526619,40.06667099852901,北京农商银行24小时自助银行(北分厂分理处),北清路3号,北京市,北京市,,金融保险服务;自动提款机;北京农商银行ATM,160346,B000A8XNGJ,金融保险服务,自动提款机,北京农商银行ATM,
116.18470762366626,40.03901101382706,北京农商银行(温泉支行),温泉镇温泉路59号,北京市,北京市,,金融保险服务;银行;北京农商银行,160149,B000A7Q2R4,金融保险服务,银行,北京农商银行,
116.17147236048838,40.047703672441415,中国工商银行(温泉新区支行),显龙山路19号1幢1层2座122,北京市,北京市,,金融保险服务;银行;中国工商银行,160105,B000ABBRYO,金融保险服务,银行,中国工商银行,
116.17967438671225,40.04511681391636,中国民生银行(北京尚峰尚水支行),温泉镇白家疃路尚水园c4底商,北京市,北京市,,金融保险服务;银行;中国民生银行,160112,B0FFFT3CSY,金融保险服务,银行,中国民生银行,
116.18453115788843,40.03902170758062,北京农商银行24小时自助银行(温泉支行),温泉镇温泉路59号,北京市,北京市,,金融保险服务;自动提款机;北京农商银行ATM,160346,B000A81AI7,金融保险服务,自动提款机,北京农商银行ATM,
116.15979807938106,40.0501787705643,中国邮政储蓄银行(温泉营业所),温泉路96号(老年医院旁),北京市,北京市,,金融保险服务;银行;中国邮政储蓄银行,160139,B000A8813X,金融保险服务,银行,中国邮政储蓄银行,
116.17490501168699,40.0472010388357,北京银行24小时自助银行(显龙山路),显龙山路与白家疃西路交叉口西北50米,北京市,北京市,,金融保险服务;自动提款机;北京银行ATM,160316,B0FFG8VRTV,金融保险服务,自动提款机,北京银行ATM,
116.17125173429103,40.04775725996054,中国工商银行24小时自助银行(温泉新区支行),显龙山路19号,北京市,北京市,,金融保险服务;自动提款机;中国工商银行ATM,160302,B000ABBRYP,金融保险服务,自动提款机,中国工商银行ATM,
116.15974793860848,40.05017467776686,中国邮政储蓄银行24小时自助银行(温泉营业所),温泉路96号,北京市,北京市,,金融保险服务;自动提款机;中国邮政储蓄银行ATM,160336,B000A8813Y,金融保险服务,自动提款机,中国邮政储蓄银行ATM,
116.1796663655485,40.045111799797155,中国民生银行24小时自助银行(尚峰尚水社区支行),杨家庄路与白家疃路交叉口西南150米,北京市,北京市,,金融保险服务;自动提款机;中国民生银行ATM,160309,B0FFG8VS4G,金融保险服务,自动提款机,中国民生银行ATM,
116.17340664474678,40.05664875186717,中国民生银行(环保园支行),地锦路5号院1号楼,北京市,北京市,,金融保险服务;银行;中国民生银行,160112,B000A8XN0L,金融保险服务,银行,中国民生银行,
116.18548462394425,39.935823744585306,北京银行(石景山园支行),实兴大街,北京市,北京市,石景山,金融保险服务;银行;北京银行,160119,B0FFG8S2TT,金融保险服务,银行,北京银行,
116.16005478720317,39.93183038847815,中国工商银行ATM,模式口大街16号附近,北京市,北京市,金顶街,金融保险服务;自动提款机;中国工商银行ATM,160302,B0FFI6AS5O,金融保险服务,自动提款机,中国工商银行ATM,
116.17793803227046,39.93085259168294,中国农业银行(苹果园分理处),苹果园北大街80-1号,北京市,北京市,石景山,金融保险服务;银行;中国农业银行,160107,B0FFFY2626,金融保险服务,银行,中国农业银行,
116.18429880316144,39.933514786460336,北京农商银行(苹果园分理处),实兴大街5号,北京市,北京市,石景山,金融保险服务;银行;北京农商银行,160149,B000A7X183,金融保险服务,银行,北京农商银行,
116.18539626067971,39.936880550651296,广发银行(石景山支行),实兴大街30号院15号楼1层102室,北京市,北京市,石景山,金融保险服务;银行;广发银行,160120,B0FFFAE8A2,金融保险服务,银行,广发银行,
116.16324249940457,39.92610755469732,中国工商银行(石景山金顶街支行),金顶北街68-1号(金顶街二区东门对面),北京市,北京市,石景山,金融保险服务;银行;中国工商银行,160105,B000A8778Q,金融保险服务,银行,中国工商银行,
116.1848312744865,39.93294573210836,中国工商银行(苹果园支行),实兴大街海特花园44号楼,北京市,北京市,石景山,金融保险服务;银行;中国工商银行,160105,B000A830ZE,金融保险服务,银行,中国工商银行,
116.19256545862318,39.92056712796594,北京农商银行(石景山支行),杨庄东路78号,北京市,北京市,石景山,金融保险服务;银行;北京农商银行,160149,B000A75D9E,金融保险服务,银行,北京农商银行,
116.16238390412451,39.927463898046675,中国邮政储蓄银行(金顶街支行),金项街二区甲2,北京市,北京市,金顶街,金融保险服务;银行;中国邮政储蓄银行,160139,B0FFHBBQF5,金融保险服务,银行,中国邮政储蓄银行,
116.16324552396247,39.92598056547819,中国工商银行24小时自助银行(金顶街支行),金顶北街68-1号,北京市,北京市,石景山,金融保险服务;自动提款机;中国工商银行ATM,160302,B000A8778R,金融保险服务,自动提款机,中国工商银行ATM,
116.16232373987599,39.92741978763988,中国邮政储蓄银行货币兑换国际汇款,金顶街金2区甲2栋1层,北京市,北京市,金顶街,金融保险服务;银行;中国邮政储蓄银行,160139,B000A878CP,金融保险服务,银行,中国邮政储蓄银行,
116.15423910056961,39.92733787132396,中国建设银行(北京模式口支行),金顶西街18号,北京市,北京市,金顶街,金融保险服务;银行;中国建设银行,160106,B000A85EEX,金融保险服务,银行,中国建设银行,
116.18552521803556,39.93192896943985,交通银行银行(苹果园支行),海特花园57号楼1层,北京市,北京市,石景山,金融保险服务;银行;交通银行,160108,B0FFLFXKTB,金融保险服务,银行,交通银行,
116.17546746539514,39.91306881817672,北京农商银行(古城分理处),古城西路甲8号,北京市,北京市,石景山,金融保险服务;银行;北京农商银行,160149,B000A862AM,金融保险服务,银行,北京农商银行,
116.18762647574279,39.92538481211181,中国农业银行(金鼎分理处),杨庄北区甲12号,北京市,北京市,石景山,金融保险服务;银行;中国农业银行,160107,B0FFFEI165,金融保险服务,银行,中国农业银行,
116.19113722823086,39.92626259334821,中国银行(北京杨庄东路支行),杨庄北区51-2、51-3、51-6,北京市,北京市,石景山,金融保险服务;银行;中国银行,160104,B000A87BR2,金融保险服务,银行,中国银行,
116.18770413192962,39.92173409185604,中国工商银行(北京北辛安支行),杨庄中路15号御景山小区,北京市,北京市,古城,金融保险服务;银行;中国工商银行,160105,B000A7RAXX,金融保险服务,银行,中国工商银行,
116.18544700520037,39.93199783215815,交通银行24小时自助银行(苹果园支行),海特花园57号楼1层超市发,北京市,北京市,石景山,金融保险服务;自动提款机;交通银行ATM,160305,B0FFFEJRKB,金融保险服务,自动提款机,交通银行ATM,
116.18938605337783,39.92459178659677,中国建设银行(北京杨庄东路支行),阜石路165号楼3号院165-15、165-16,北京市,北京市,石景山,金融保险服务;银行;中国建设银行,160106,B000A8X6H0,金融保险服务,银行,中国建设银行,
116.1783413682903,39.91306205009972,中国农业银行(北京古城支行),古城西路乙4号,北京市,北京市,石景山,金融保险服务;银行;中国农业银行,160107,B000A4DDFE,金融保险服务,银行,中国农业银行,
116.16237489003808,39.92737388486571,中国邮政储蓄银行24小时自助银行(金顶街支行),金顶街二区甲2号,北京市,北京市,金顶街,金融保险服务;自动提款机;中国邮政储蓄银行ATM,160336,B000A878CQ,金融保险服务,自动提款机,中国邮政储蓄银行ATM,
116.19227561709697,39.91362295253167,中国银行(石景山支行营业部),八角西街57号,北京市,北京市,石景山,金融保险服务;银行;中国银行,160104,B000A7FWR0,金融保险服务,银行,中国银行,
116.17792800922939,39.93081757492874,中国农业银行24小时自助银行(苹果园支行),苹果园北大街80-1,北京市,北京市,石景山,金融保险服务;自动提款机;中国农业银行ATM,160304,B000A30E01,金融保险服务,自动提款机,中国农业银行ATM,
116.17891705006642,39.92811047050899,中国邮政储蓄银行(北京石景山区苹果园营业所),苹果园大街118号,北京市,北京市,石景山,金融保险服务;银行;中国邮政储蓄银行|金融保险服务;自动提款机;中国邮政储蓄银行ATM,160139|160336,B000A843B4,金融保险服务,银行,中国邮政储蓄银行|金融保险服务,自动提款机
116.15999149530714,39.92481155328201,华夏银行24小时自助银行(首钢金顶街五区居民区北),金顶街五区,北京市,北京市,金顶街,金融保险服务;自动提款机;华夏银行ATM,160307,B0FFG65EON,金融保险服务,自动提款机,华夏银行ATM,
116.15573854479163,39.9251236961061,中国工商银行24小时自助银行(金顶街储蓄所),金顶西街与金顶路交叉口东100米,北京市,北京市,金顶街,金融保险服务;自动提款机;中国工商银行ATM,160302,B000A7RB2C,金融保险服务,自动提款机,中国工商银行ATM,
116.17891905540296,39.928111474081874,中国邮政储蓄银行24小时自助银行,苹果园路2号院1号楼通景大厦1层,北京市,北京市,石景山,金融保险服务;自动提款机;中国邮政储蓄银行ATM,160336,B0FFL45H98,金融保险服务,自动提款机,中国邮政储蓄银行ATM,
116.1801794936749,39.91203639881787,中国工商银行,古城大街33-1舶刺青,北京市,北京市,石景山,金融保险服务;银行;中国工商银行,160105,B0FFK8RLD5,金融保险服务,银行,中国工商银行,
116.18486638615322,39.932789799046795,中国工商银行24小时自助银行(苹果园支行),海特花园44号楼1层,北京市,北京市,石景山,金融保险服务;自动提款机;中国工商银行ATM,160302,B000A10382,金融保险服务,自动提款机,中国工商银行ATM,
116.18016345103648,39.91203037037707,中国工商银行24小时自助银行,古城大街29号,北京市,北京市,古城,金融保险服务;自动提款机;中国工商银行ATM,160302,B000A7BUTU,金融保险服务,自动提款机,中国工商银行ATM,
116.1874700675307,39.925438545900775,中国农业银行24小时自助银行(金鼎支行),杨庄北路甲12号,北京市,北京市,石景山,金融保险服务;自动提款机;中国农业银行ATM,160304,B000A7XLVJ,金融保险服务,自动提款机,中国农业银行ATM,
116.18530615867991,39.93581543770793,北京银行24小时自助银行(石景山园支行),实兴大街30号17号楼一层创新平台,北京市,北京市,石景山,金融保险服务;自动提款机;北京银行ATM,160316,B0FFGYBQ0T,金融保险服务,自动提款机,北京银行ATM,
116.14830844157493,39.930929130234354,中国邮政储蓄银行(模式口西里营业所),[],北京市,北京市,金顶街,金融保险服务;银行;中国邮政储蓄银行,160139,B000A830JY,金融保险服务,银行,中国邮政储蓄银行,
116.19233062067384,39.914672996662105,中国建设银行(北京八角北里支行),八角街道八角西街37号,北京市,北京市,石景山,金融保险服务;银行;中国建设银行,160106,B000A7364E,金融保险服务,银行,中国建设银行,
116.1922915928929,39.91412995685894,中国工商银行(北京八角北支行),八角西街55号,北京市,北京市,石景山,金融保险服务;银行;中国工商银行,160105,B000A6C856,金融保险服务,银行,中国工商银行,
116.1856689820777,39.92882434093734,中国工商银行24小时自助银行(实兴大街),苹果园一区7,北京市,北京市,石景山,金融保险服务;自动提款机;中国工商银行ATM,160302,B000A7C37P,金融保险服务,自动提款机,中国工商银行ATM,
116.18746959351691,39.92122771683493,北京银行24小时自助银行(杨庄中区社区支行),杨庄路21-12号附近,北京市,北京市,石景山,金融保险服务;自动提款机;北京银行ATM,160316,B0FFGZTII4,金融保险服务,自动提款机,北京银行ATM,
116.15426215848434,39.92738491134543,中国建设银行24小时自助银行(模式口支行),金顶西街18号,北京市,北京市,金顶街,金融保险服务;自动提款机;中国建设银行ATM,160303,B000A85RZ4,金融保险服务,自动提款机,中国建设银行ATM,
116.16551446693381,39.92174897630118,中国建设银行(北京金顶南路支行),阜石路300号喜隆多新国际购物中心F1层,北京市,北京市,石景山,金融保险服务;银行;中国建设银行,160106,B0FFFCVXW9,金融保险服务,银行,中国建设银行,
116.14869545097277,39.931185798750114,华夏银行24小时自助银行,模式口西里与石门路交叉路口西侧,北京市,北京市,金顶街,金融保险服务;自动提款机;华夏银行ATM,160307,B000A888X7,金融保险服务,自动提款机,华夏银行ATM,
116.17598312893335,39.91913350941466,华夏银行ATM(领秀大厦A座北),杨庄大街369号,北京市,北京市,古城,金融保险服务;自动提款机;华夏银行ATM,160307,B0FFF4T253,金融保险服务,自动提款机,华夏银行ATM,
116.18557227982407,39.91645068056985,华夏银行(社区支行),古城北路综合商业楼1号楼一层11号,北京市,北京市,古城,金融保险服务;银行;华夏银行,160110,B0FFH2PILX,金融保险服务,银行,华夏银行,
116.1911332133891,39.926301585243365,中国银行24小时自助银行(杨庄东路支行),晋元庄路与杨庄东街交叉口西南50米,北京市,北京市,石景山,金融保险服务;自动提款机;中国银行ATM,160301,B0FFHPD77R,金融保险服务,自动提款机,中国银行ATM,
116.17832131414315,39.91305701406045,中国农业银行24小时自助银行(北京古城支行),古城大街39号,北京市,北京市,古城,金融保险服务;自动提款机;中国农业银行ATM,160304,B000A7RC2F,金融保险服务,自动提款机,中国农业银行ATM,
116.18020454575225,39.91216143834372,中国邮政储蓄银行(古城大街支行),古城大街27-1号,北京市,北京市,古城,金融保险服务;银行;中国邮政储蓄银行,160139,B000A7P5WZ,金融保险服务,银行,中国邮政储蓄银行,
116.18320542313046,39.92145736558126,北京农商银行ATM,杨庄路110号院附近,北京市,北京市,石景山,金融保险服务;自动提款机;北京农商银行ATM,160346,B0FFG8SFIW,金融保险服务,自动提款机,北京农商银行ATM,
116.18945321109722,39.924685894021316,中国建设银行24小时自助银行(杨庄东路支行),阜石路165号楼3号院165-15、165-16,北京市,北京市,石景山,金融保险服务;自动提款机;中国建设银行ATM,160303,B000A8X6GV,金融保险服务,自动提款机,中国建设银行ATM,
116.17891805078378,39.92812647166782,中国邮政储蓄银行ATM(苹果园营业所),苹果园大街118号,北京市,北京市,石景山,金融保险服务;自动提款机;中国邮政储蓄银行ATM,160336,B000A867YL,金融保险服务,自动提款机,中国邮政储蓄银行ATM,
116.18388079413296,39.91680873762127,中国工商银行24小时自助银行(古城路储蓄所),古城北路23号楼,北京市,北京市,古城,金融保险服务;自动提款机;中国工商银行ATM,160302,B000A33371,金融保险服务,自动提款机,中国工商银行ATM,
116.1923016814917,39.91361899449639,中国银行24小时自助银行(北京石景山支行),八角西街57号,北京市,北京市,石景山,金融保险服务;自动提款机;中国银行ATM,160301,B000A867MP,金融保险服务,自动提款机,中国银行ATM,
116.1755356539923,39.91306894308889,北京农商银行24小时自助银行(古城分理处),古城西路甲8号,北京市,北京市,古城,金融保险服务;自动提款机;北京农商银行ATM,160346,B0FFFFQ638,金融保险服务,自动提款机,北京农商银行ATM,
116.18539627940444,39.93673155658445,广发银行24小时自助银行(石景山支行),实兴大街30号院15,北京市,北京市,西山,金融保险服务;自动提款机;广发银行ATM,160317,B0FFFAETH9,金融保险服务,自动提款机,广发银行ATM,
116.1656087341969,39.92174115280562,中国建设银行ATM(喜隆多新国际购物中心),阜石路300号喜隆多新国际购物中心F1层,北京市,北京市,石景山,金融保险服务;自动提款机;中国建设银行ATM,160303,B0FFHQ9SR5,金融保险服务,自动提款机,中国建设银行ATM,
116.18775928690796,39.92162518926047,中国工商银行24小时自助银行(北辛安支行),杨庄路5号附近,北京市,北京市,古城,金融保险服务;自动提款机;中国工商银行ATM,160302,B000A7RAXY,金融保险服务,自动提款机,中国工商银行ATM,
116.19230457283773,39.914544960269204,中国建设银行24小时自助银行(八角北里支行),八角西街37号,北京市,北京市,石景山,金融保险服务;自动提款机;中国建设银行ATM,160303,B000A7RBFA,金融保险服务,自动提款机,中国建设银行ATM,
116.19228358363273,39.91404694749853,中国工商银行24小时自助银行(八角北支行),八角西街55号,北京市,北京市,石景山,金融保险服务;自动提款机;中国工商银行ATM,160302,B000A7RAXN,金融保险服务,自动提款机,中国工商银行ATM,
116.18019853476329,39.91211942936719,中国邮政储蓄银行24小时自助银行(古城大街支行),,北京市,北京市,古城,金融保险服务;自动提款机;中国邮政储蓄银行ATM,160336,B0FFL3YL3P,金融保险服务,自动提款机,中国邮政储蓄银行ATM,
116.17977912338944,39.95414899284265,北京农商银行24小时自助银行(八大处路),八大处路3号八大处公园内,北京市,北京市,,金融保险服务;自动提款机;北京农商银行ATM,160346,B0FFFDLAMY,金融保险服务,自动提款机,北京农商银行ATM,
116.18563243720254,39.91644678410544,华夏银行24小时自助银行(古城北路社区支行),古城北路6号,北京市,北京市,古城,金融保险服务;自动提款机;华夏银行ATM,160307,B000A87DDO,金融保险服务,自动提款机,华夏银行ATM,
116.19252861770524,39.91857415126437,中国邮政储蓄银行24小时自助银行(杨庄东街营业所),时代花园南路23号院15号楼101室,北京市,北京市,石景山,金融保险服务;自动提款机;中国邮政储蓄银行ATM,160336,B0FFHGI9H3,金融保险服务,自动提款机,中国邮政储蓄银行ATM,
116.19219156561522,39.92038453654357,北京农商银行石景山支行征收服务大厅,杨庄东路80号,北京市,北京市,石景山,金融保险服务;银行相关;银行相关,160200,B0FFGWQ58S,金融保险服务,银行相关,银行相关,
116.19220557724454,39.920566551551445,北京农商银行24小时自助银行(石景山支行),杨庄东路78号,北京市,北京市,石景山,金融保险服务;自动提款机;北京农商银行ATM,160346,B000A1A66F,金融保险服务,自动提款机,北京农商银行ATM,
116.16664569443249,39.90560476839957,华夏银行(北京石景山支行),石景山路66号,北京市,北京市,石景山,金融保险服务;银行;华夏银行,160110,B000A64D83,金融保险服务,银行,华夏银行,
116.16915445059074,39.892212047906455,北京农商银行,[],北京市,北京市,,金融保险服务;银行;北京农商银行,160149,B0G2VSK10P,金融保险服务,银行,北京农商银行,
116.16660356811161,39.905663687131856,华夏银行ATM(北京石景山支行),石景山路66号,北京市,北京市,石景山,金融保险服务;自动提款机;华夏银行ATM,160307,B000A7PEAM,金融保险服务,自动提款机,华夏银行ATM,
116.18264681280702,39.90649301312513,中国建设银行(北京古城支行),石景山路49号,北京市,北京市,古城,金融保险服务;银行;中国建设银行,160106,B000A7RBFT,金融保险服务,银行,中国建设银行,
116.18665796430656,39.90954382864417,中国工商银行(古城东街支行),古城南路8号古城公园,北京市,北京市,古城,金融保险服务;银行;中国工商银行,160105,B000A7C4WX,金融保险服务,银行,中国工商银行,
116.16909829925481,39.8921589456476,北京农商银行24小时自助银行服务,燕堤南路与燕堤中街交叉路口西南侧,北京市,北京市,,金融保险服务;自动提款机;北京农商银行ATM,160346,B0FFLEDF10,金融保险服务,自动提款机,北京农商银行ATM,
116.17417880634694,39.90578776147607,中国工商银行24小时自助银行,石景山路60号,北京市,北京市,古城,金融保险服务;自动提款机;中国工商银行ATM,160302,B0FFF9PTW3,金融保险服务,自动提款机,中国工商银行ATM,
116.17872341262206,39.90507508094163,北京银行24小时自助银行,古融路,北京市,北京市,石景山,金融保险服务;自动提款机;北京银行ATM,160316,B0FFLHZSLU,金融保险服务,自动提款机,北京银行ATM,
116.17853489515751,39.90510173955297,北京银行(石景山支行),中荷人寿大厦1层,北京市,北京市,石景山,金融保险服务;银行;北京银行,160119,B0FFKRGSUX,金融保险服务,银行,北京银行,
116.18255456274741,39.906526849317224,中国建设银行24小时自助银行(古城支行),石景山路49号,北京市,北京市,石景山,金融保险服务;自动提款机;中国建设银行ATM,160303,B000A7RBFU,金融保险服务,自动提款机,中国建设银行ATM,
116.18120304612731,39.90571649369113,中国邮政储蓄银行24小时自助银行(新古城支行),石景山路52号,北京市,北京市,古城,金融保险服务;自动提款机;中国邮政储蓄银行ATM,160336,B000A7RDKS,金融保险服务,自动提款机,中国邮政储蓄银行ATM,
116.18114689528363,39.905715393940596,中国邮政储蓄银行(新古城支行),石景山路52号,北京市,北京市,古城,金融保险服务;银行;中国邮政储蓄银行,160139,B000A95CES,金融保险服务,银行,中国邮政储蓄银行,
116.18796537385275,39.90916405687909,中国邮政储蓄银行(古城东街营业所),古城东街123号,北京市,北京市,古城,金融保险服务;银行;中国邮政储蓄银行,160139,B0G3R5AUMI,金融保险服务,银行,中国邮政储蓄银行,
116.18367854104501,39.90657781764785,杭州银行(北京石景山文创支行),石景山路45号中铁大厦首层,北京市,北京市,古城,金融保险服务;银行;银行,160100,B0FFFAEPLK,金融保险服务,银行,银行,
116.18643739814107,39.90950645438537,中国工商银行24小时自助银行(北京古城东街支行),古城南路8号,北京市,北京市,古城,金融保险服务;自动提款机;中国工商银行ATM,160302,B000A45C0F,金融保险服务,自动提款机,中国工商银行ATM,
116.18796036166265,39.90915904866561,中国邮政储蓄银行24小时自助银行(古城东街营业所),古城东街123号,北京市,北京市,古城,金融保险服务;自动提款机;中国邮政储蓄银行ATM,160336,B000A7P5X3,金融保险服务,自动提款机,中国邮政储蓄银行ATM,
116.21059704057289,40.123665333239714,中国邮政储蓄银行(沙阳路支行),上庄镇馨瑞家园8号楼4单元沙阳路,北京市,北京市,,金融保险服务;银行;中国邮政储蓄银行,160139,B0FFHN0VO1,金融保险服务,银行,中国邮政储蓄银行,
116.20531431176738,40.127184546431856,北京农商银行24小时自助银行,上庄馨悦家园西区(上庄路东),北京市,北京市,,金融保险服务;自动提款机;北京农商银行ATM,160346,B0FFL5OI15,金融保险服务,自动提款机,北京农商银行ATM,
116.21058502103894,40.12364432132606,中国邮政储蓄银行24小时自助银行(沙阳路营业所),馨瑞嘉园7-1-111正南方向130米,北京市,北京市,,金融保险服务;自动提款机;中国邮政储蓄银行ATM,160336,B0FFJKISGX,金融保险服务,自动提款机,中国邮政储蓄银行ATM,
116.20072229776153,40.137050372047,北京农商银行24小时自助银行(白水洼分理处),上庄镇白水洼村344号,北京市,北京市,,金融保险服务;自动提款机;北京农商银行ATM,160346,B0FFJKII2S,金融保险服务,自动提款机,北京农商银行ATM,
116.20057797983256,40.137043168004645,北京农商银行(白水洼分理处),上庄镇白水洼村344号,北京市,北京市,,金融保险服务;银行;北京农商银行,160149,B000A7VRYC,金融保险服务,银行,北京农商银行,
116.24078367958397,40.12074399718619,光大银行离行自助电费代收点,三二四省道福田公司总部大厦,北京市,北京市,,金融保险服务;银行;银行,160100,B0FFH97XYG,金融保险服务,银行,银行,
116.22932912399637,40.07483491921261,中国工商银行(永丰支行),基地新材料创业大厦南楼1层106-107室,北京市,北京市,西北旺,金融保险服务;银行;中国工商银行,160105,B000A9UZI6,金融保险服务,银行,中国工商银行,
116.23198780583508,40.07343327167204,北京农商银行(海淀新区支行),丰秀中路3号院14号楼,北京市,北京市,西北旺,金融保险服务;银行;北京农商银行,160149,B000A483B6,金融保险服务,银行,北京农商银行,
116.22952631506558,40.074888018190045,中国工商银行24小时自助银行(永丰支行),丰慧中路7号新材料创业务大厦(永丰产业基地新材料创业大厦首层),北京市,北京市,西北旺,金融保险服务;自动提款机;中国工商银行ATM,160302,B000A9V4P9,金融保险服务,自动提款机,中国工商银行ATM,
116.23718703536022,40.0707571562312,中国农业银行(永丰路支行),[],北京市,北京市,西北旺,金融保险服务;银行;中国农业银行,160107,B0FFF3JT7N,金融保险服务,银行,中国农业银行,
116.24198922388094,40.07241173361234,交通银行(永丰支行),北清路,北京市,北京市,西北旺,金融保险服务;银行;交通银行,160108,B0G2M116A4,金融保险服务,银行,交通银行,
116.2371329901709,40.0708501377158,中国建设银行(北京永丰路支行),用友软件园北区17号楼,北京市,北京市,西北旺,金融保险服务;银行;中国建设银行,160106,B0FFFAOUXZ,金融保险服务,银行,中国建设银行,
116.23850837245156,40.07425720663076,中国光大银行,中关村壹号西区,北京市,北京市,西北旺,金融保险服务;银行相关;银行相关,160200,B0HGAH1LQG,金融保险服务,银行相关,银行相关,
116.21274030643531,40.096546952754046,北京农商银行24小时自助银行,上庄家园西路58号附近,北京市,北京市,,金融保险服务;自动提款机;北京农商银行ATM,160346,B0FFL3764T,金融保险服务,自动提款机,北京农商银行ATM,
116.20808528981254,40.09973834334743,北京农商银行(上庄支行),上庄镇上庄路72号,北京市,北京市,,金融保险服务;银行;北京农商银行,160149,B000A7VRYB,金融保险服务,银行,北京农商银行,
116.23720805337402,40.07071716364381,中国农业银行24小时自助银行(北京永丰路支行),用友软件园北区17号楼,北京市,北京市,西北旺,金融保险服务;自动提款机;中国农业银行ATM,160304,B0FFFZA4X5,金融保险服务,自动提款机,中国农业银行ATM,
116.23199481886991,40.073378278199144,北京农商银行24小时自助银行(海淀新区支行),丰秀中路3号院14,北京市,北京市,西北旺,金融保险服务;自动提款机;北京农商银行ATM,160346,B0FFG97SF6,金融保险服务,自动提款机,北京农商银行ATM,
116.23714899812467,40.07086614045339,中国建设银行24小时自助银行,用友软件园北区17号楼,北京市,北京市,西北旺,金融保险服务;自动提款机;中国建设银行ATM,160303,B0FFFZA5VQ,金融保险服务,自动提款机,中国建设银行ATM,
116.23928164207508,40.06740677087202,北京银行(北清路支行),西北旺镇永丰路9号院用友产业园东区21号楼,北京市,北京市,西北旺,金融保险服务;银行;北京银行,160119,B0FFIIH747,金融保险服务,银行,北京银行,
116.23947470179468,40.06771578070002,北京银行24小时自助银行(北清路支行),永丰路用友产业园21号楼1层正南方向60米,北京市,北京市,西北旺,金融保险服务;自动提款机;北京银行ATM,160316,B0FFL5WEOD,金融保险服务,自动提款机,北京银行ATM,
116.19549682979361,40.09341635969915,北京农商银行自动取款机,东马坊中路与东马坊路交叉口西150米,北京市,北京市,,金融保险服务;自动提款机;北京农商银行ATM,160346,B0FFK431IV,金融保险服务,自动提款机,北京农商银行ATM,
116.20199582437348,40.03564840215664,中国农业银行(北京太舟坞支行),太舟坞环山村621所院内,北京市,北京市,,金融保险服务;银行;中国农业银行,160107,B000A844M9,金融保险服务,银行,中国农业银行,
116.20326077538428,40.033698232964845,北京农商银行24小时自助银行,温泉镇环山村78号,北京市,北京市,,金融保险服务;自动提款机;北京农商银行ATM,160346,B000A7Q2LK,金融保险服务,自动提款机,北京农商银行ATM,
116.20310945983651,40.03365603004031,北京农商银行(环山分理处),温泉镇环山村78号,北京市,北京市,,金融保险服务;银行;北京农商银行,160149,B0FFG7MUNS,金融保险服务,银行,北京农商银行,
116.2020218777851,40.03567143707599,中国农业银行24小时自助银行(太舟坞支行),太州坞621所院内太舟坞支行,北京市,北京市,,金融保险服务;自动提款机;中国农业银行ATM,160304,B000A8XQKZ,金融保险服务,自动提款机,中国农业银行ATM,
116.20181337608324,40.03607412728196,中国邮政储蓄银行24小时自助银行(航材大道),温泉环山村11号,北京市,北京市,,金融保险服务;自动提款机;中国邮政储蓄银行ATM,160336,B0FFFPE4BZ,金融保险服务,自动提款机,中国邮政储蓄银行ATM,
116.2018374204136,40.03613615753984,中国邮政储蓄银行(冷泉营业所),温泉环山村11号,北京市,北京市,,金融保险服务;银行;中国邮政储蓄银行,160139,B000A95CU1,金融保险服务,银行,中国邮政储蓄银行,
116.19612196652407,40.04839017463342,北京农商银行(海淀新区环山分理处),向山路(中关村创客小镇),北京市,北京市,,金融保险服务;银行;北京农商银行,160149,B0FFLJTEWU,金融保险服务,银行,北京农商银行,
116.23334299957777,40.04904526883455,北京农商银行(颐和分理处),西北旺镇颐和山庄云锦园1号,北京市,北京市,西北旺,金融保险服务;银行;北京农商银行,160149,B0FFFO42YM,金融保险服务,银行,北京农商银行,
116.23411556162466,40.049442526372296,中国邮政储蓄银行(颐和山庄营业所),永丰中路99号颐和山庄内,北京市,北京市,西北旺,金融保险服务;银行;中国邮政储蓄银行,160139,B000AADT6P,金融保险服务,银行,中国邮政储蓄银行,
116.23334299932765,40.04904726872414,北京农商银行24小时自助银行(颐和分理处),西北旺镇颐和山庄云锦园1号,北京市,北京市,西北旺,金融保险服务;自动提款机;北京农商银行ATM,160346,B0G29HMVJC,金融保险服务,自动提款机,北京农商银行ATM,
116.19643369491403,40.048408647664694,北京农商银行24小时自助银行,向山路(中关村创客小镇),北京市,北京市,,金融保险服务;自动提款机;北京农商银行ATM,160346,B0FFLIM7CF,金融保险服务,自动提款机,北京农商银行ATM,
116.23333499295926,40.04904626576734,北京农商银行24小时自助银行,永丰中路与西北旺北路交叉口西150米,北京市,北京市,西北旺,金融保险服务;自动提款机;北京农商银行ATM,160346,B0FFGXM1FV,金融保险服务,自动提款机,北京农商银行ATM,
116.23429669700835,40.049472587031765,中国邮政储蓄银行24小时自助银行(颐和山庄支行),永丰中路99号颐和山庄,北京市,北京市,西北旺,金融保险服务;自动提款机;中国邮政储蓄银行ATM,160336,B000A9VF3J,金融保险服务,自动提款机,中国邮政储蓄银行ATM,
116.20902996281242,39.9731232502971,北京农商银行(京香分理处),京香花园216号,北京市,北京市,香山,金融保险服务;银行;北京农商银行,160149,B000A7VRYI,金融保险服务,银行,北京农商银行,
116.2190766079963,39.97644957975841,北京农商银行,闵庄路668号,北京市,北京市,香山,金融保险服务;银行;北京农商银行,160149,B0HGK6EY67,金融保险服务,银行,北京农商银行,
116.21781936192856,39.99524867590874,北京农商银行(四王府分理处),香山厢白旗乙15号,北京市,北京市,香山,金融保险服务;银行;北京农商银行,160149,B0FFFGNU7K,金融保险服务,银行,北京农商银行,
116.24019773292673,39.966100728848026,交通银行(北京闵庄路支行),闵庄南路9号(近旱河路),北京市,北京市,,金融保险服务;银行;交通银行,160108,B000A8VO7F,金融保险服务,银行,交通银行,
116.19684954384445,39.99357587517579,北京农商银行(香山分理处),香山北辛村甲51号,北京市,北京市,香山,金融保险服务;银行;北京农商银行,160149,B0FFHBBH8Z,金融保险服务,银行,北京农商银行,
116.20087238305584,39.97970032409367,中国邮政储蓄银行(红旗村邮政所),香山南路4号院,北京市,北京市,香山,金融保险服务;银行;中国邮政储蓄银行,160139,B000A833RS,金融保险服务,银行,中国邮政储蓄银行,
116.21915771696048,39.9765396474969,北京农商银行24小时自助银行(四季青支行),门头馨园路与门头馨东街交叉路口西北侧,北京市,北京市,香山,金融保险服务;自动提款机;北京农商银行ATM,160346,B0FFL54X14,金融保险服务,自动提款机,北京农商银行ATM,
116.24105021599343,39.965279849694426,中国建设银行(闵庄南路支行),四季青海定区闵庄南路9号,北京市,北京市,,金融保险服务;银行;中国建设银行,160106,B0FFFF4BUT,金融保险服务,银行,中国建设银行,
116.2008122459653,39.97973923745906,中国邮政储蓄银行ATM(红旗村营业所),香山南路4号院,北京市,北京市,香山,金融保险服务;自动提款机;中国邮政储蓄银行ATM,160336,B0FFFADWR0,金融保险服务,自动提款机,中国邮政储蓄银行ATM,
116.19715530638894,39.99315335294359,中国邮政储蓄银行(香山支行),四季青北辛庄55号,北京市,北京市,香山,金融保险服务;银行;中国邮政储蓄银行,160139,B000A8XL3L,金融保险服务,银行,中国邮政储蓄银行,
116.20187087833736,39.96916414294785,中国工商银行24小时自助银行,魏家村甲1号32号楼(香山南路东)附近,北京市,北京市,香山,金融保险服务;自动提款机;中国工商银行ATM,160302,B0FFFDXBOM,金融保险服务,自动提款机,中国工商银行ATM,
116.21773623706464,39.99522260022161,北京农商银行24小时自助银行(四王府分理处),香山厢白旗乙15号,北京市,北京市,香山,金融保险服务;自动提款机;北京农商银行ATM,160346,B0FFFWNIWX,金融保险服务,自动提款机,北京农商银行ATM,
116.20043885778333,39.99224019634666,北京农商银行24小时自助银行,一棵松路与卧佛寺西路交叉路口往东约50米,北京市,北京市,香山,金融保险服务;自动提款机;北京农商银行ATM,160346,B0H6XUVX87,金融保险服务,自动提款机,北京农商银行ATM,
116.19886222460565,39.99307688570805,北京农商银行24小时自助银行(香山路),卧佛寺西路与香山路交叉口西50米,北京市,北京市,香山,金融保险服务;自动提款机;北京农商银行ATM,160346,B0FFG8RYNZ,金融保险服务,自动提款机,北京农商银行ATM,
116.23316091549667,40.00046655006658,中国工商银行ATM(道公府路),解放军316医院,北京市,北京市,香山,金融保险服务;自动提款机;中国工商银行ATM,160302,B000A9VGFR,金融保险服务,自动提款机,中国工商银行ATM,
116.19687360203118,39.99355791220585,北京农商银行24小时自助银行(香山分理处),卧佛寺路,北京市,北京市,香山,金融保险服务;自动提款机;北京农商银行ATM,160346,B000A7Q2RY,金融保险服务,自动提款机,北京农商银行ATM,
116.19725855047251,39.99311250954058,中国邮政储蓄银行24小时自助银行(香山支行),四季青北辛庄55号,北京市,北京市,香山,金融保险服务;自动提款机;中国邮政储蓄银行ATM,160336,B000A8XLB5,金融保险服务,自动提款机,中国邮政储蓄银行ATM,
116.22644174646123,39.96485460435237,中国民生银行ATM(北京香山国际高尔夫俱乐部西北),闵庄路四季青镇祁家村108号北京香山国际高尔夫球会,北京市,北京市,,金融保险服务;自动提款机;中国民生银行ATM,160309,B000A9V4ME,金融保险服务,自动提款机,中国民生银行ATM,
116.24106222645068,39.965236852442324,中国建设银行24小时自助银行(闵庄南路支行),闵庄南路9号广盛园,北京市,北京市,,金融保险服务;自动提款机;中国建设银行ATM,160303,B0FFF586OZ,金融保险服务,自动提款机,中国建设银行ATM,
116.1977021677306,39.93240858532672,北京农商银行(西山支行),西黄新村西里4号楼1层3单元103,北京市,北京市,石景山,金融保险服务;银行;北京农商银行,160149,B0FFFADZI4,金融保险服务,银行,北京农商银行,
116.2226260682432,39.92443255646239,中国民生银行(锦绣大地小微支行)(装修中),巨山路与阜石路交叉口北京锦绣大地商务在线B座附近,北京市,北京市,,金融保险服务;银行;中国民生银行,160112,B0FFIYU91Y,金融保险服务,银行,中国民生银行,
116.2426593901817,39.928662392408896,交通银行(北京田村路支行),田村路122号,北京市,北京市,,金融保险服务;银行;交通银行,160108,B0FFG8SN9G,金融保险服务,银行,交通银行,
116.20363291980806,39.9268622197212,中国工商银行24小时自助银行(晋元庄路),晋元庄5号,北京市,北京市,石景山,金融保险服务;自动提款机;中国工商银行ATM,160302,B000A879UF,金融保险服务,自动提款机,中国工商银行ATM,
116.19883275471,39.93233625727655,中国建设银行(北京雍景支行),苹果园街道西黄新村西里2号楼1层,北京市,北京市,石景山,金融保险服务;银行;中国建设银行,160106,B0FFFAE7TZ,金融保险服务,银行,中国建设银行,
116.19434476373414,39.944573979360236,中国工商银行(北京八大处支行),八大处路13号,北京市,北京市,西山,金融保险服务;银行;中国工商银行,160105,B000A7VSKU,金融保险服务,银行,中国工商银行,
116.19488932401684,39.94250090849815,中国建设银行(西山枫林支行),香山南路168号院1号楼104室(近北京射击场),北京市,北京市,香山,金融保险服务;银行;中国建设银行,160106,B000A7Y93O,金融保险服务,银行,中国建设银行,
116.21851672848405,39.92862597179453,中国农业银行24小时自助银行(碧桐园东南),碧桐园1号,北京市,北京市,,金融保险服务;自动提款机;中国农业银行ATM,160304,B000AA3WYJ,金融保险服务,自动提款机,中国农业银行ATM,
116.22735208338067,39.95429857535594,北京农商银行(西山分理处),杏石路48号,北京市,北京市,西山,金融保险服务;银行;北京农商银行,160149,B000A7Q2RN,金融保险服务,银行,北京农商银行,
116.22937737716299,39.95300275726721,中国民生银行(北京杏石口支行),杏石口路80号益园文化创意产业基地a区1号楼,北京市,北京市,西山,金融保险服务;银行;中国民生银行,160112,B0FFG8SO2W,金融保险服务,银行,中国民生银行,
116.23678561402721,39.92774461979238,北京银行(田村支行),田村路畅茜园圣华里小区9号楼1层,北京市,北京市,,金融保险服务;银行;北京银行,160119,B000A9EJ9H,金融保险服务,银行,北京银行,
116.19392372583089,39.94478431149002,北京农商银行(八大处分理处),八大处路28-甲1号,北京市,北京市,香山,金融保险服务;银行;北京农商银行,160149,B0FFGBK2Y0,金融保险服务,银行,北京农商银行,
116.22115085812823,39.9421856853752,北京农商银行24小时自助银行(巨山路),巨山路14号附近,北京市,北京市,西山,金融保险服务;自动提款机;北京农商银行ATM,160346,B0FFG8SO9W,金融保险服务,自动提款机,北京农商银行ATM,
116.24012959244246,39.91872961068278,中国工商银行,玉泉嘉园东头,北京市,北京市,石景山,金融保险服务;银行;中国工商银行,160105,B0GR6130NP,金融保险服务,银行,中国工商银行,
116.19601237424862,39.93134907906636,上海浦东发展银行(雍景四季社区支行),西黄新村西里7号,北京市,北京市,石景山,金融保险服务;银行;上海浦东发展银行,160115,B0FFHZ15D9,金融保险服务,银行,上海浦东发展银行,
116.20139750552273,39.91587460253718,中国工商银行(北京游乐场支行),八角北路与八角东街交叉口建西苑南里10之4-7,北京市,北京市,石景山,金融保险服务;银行;中国工商银行,160105,B000A8395V,金融保险服务,银行,中国工商银行,
116.22449045971555,39.92438491712794,中国建设银行ATM(锦绣大地商务在线东北),线A区,北京市,北京市,,金融保险服务;自动提款机;中国建设银行ATM,160303,B0FFICXNDO,金融保险服务,自动提款机,中国建设银行ATM,
116.19462352203551,39.91984840444329,中国光大银行(石景山支行),阜石路166号泽洋大厦北座1层,北京市,北京市,石景山,金融保险服务;银行;中国光大银行|生活服务;生活服务场所;生活服务场所,160113|070000,B000A7VSNV,金融保险服务,银行,中国光大银行|生活服务,生活服务场所
116.19886281908822,39.93236530009338,中国建设银行24小时自助银行(雍景支行),田村路与西黄村路交叉口西100米,北京市,北京市,石景山,金融保险服务;自动提款机;中国建设银行ATM,160303,B0FFFAEHET,金融保险服务,自动提款机,中国建设银行ATM,
116.19986497454579,39.91710437510022,北京银行(时代花园社区支行)(暂停营业),时代花园东街8号院1号楼1层,北京市,北京市,石景山,金融保险服务;银行;北京银行,160119,B0FFKYZ6YS,金融保险服务,银行,北京银行,
116.19393876993979,39.94472133759286,中国邮政储蓄银行(西下庄支行),八大处路28-1号,北京市,北京市,西山,金融保险服务;银行;中国邮政储蓄银行,160139,B000A7XDI0,金融保险服务,银行,中国邮政储蓄银行,
116.20114963603923,39.94254017849482,中国民生银行24小时自助银行(北京西山枫林社区支行),香山南路166-36号,北京市,北京市,香山,金融保险服务;自动提款机;中国民生银行ATM,160309,B0FFF0FDID,金融保险服务,自动提款机,中国民生银行ATM,
116.19434275479144,39.94460697492648,中国工商银行ATM(八大处支行),八大处路13号,北京市,北京市,香山,金融保险服务;自动提款机;中国工商银行ATM,160302,B000A7VLAT,金融保险服务,自动提款机,中国工商银行ATM,
116.23797833822677,39.92776788851814,中国银行24小时自助银行(田村支行),畅茜园雪芳里7号楼,北京市,北京市,,金融保险服务;自动提款机;中国银行ATM,160301,B0FFIBVOJF,金融保险服务,自动提款机,中国银行ATM,
116.2377962484874,39.92763385624313,中国银行(北京田村支行),畅茜园雪芳里7号楼1层101-1,北京市,北京市,,金融保险服务;银行;中国银行,160104,B0FFHW3XVB,金融保险服务,银行,中国银行,
116.20102970182508,39.91587608546141,中国邮政储蓄银行(晋元庄支行),建西苑晋元庄小区33号楼商业9号,北京市,北京市,石景山,金融保险服务;银行;中国邮政储蓄银行,160139,B000A838WL,金融保险服务,银行,中国邮政储蓄银行,
116.23669654656435,39.927827594147075,北京银行24小时自助银行(田村支行),田村路畅茜园圣华里小区9号楼1层,北京市,北京市,,金融保险服务;自动提款机;北京银行ATM,160316,B000AA3WYD,金融保险服务,自动提款机,北京银行ATM,
116.22364584352258,39.95295617984139,中国建设银行(北京巨山路支行),杏石口路西杉创意园一区4号楼,北京市,北京市,西山,金融保险服务;银行;中国建设银行,160106,B000AA3XEC,金融保险服务,银行,中国建设银行,
116.24260636863173,39.92868838987761,交通银行24小时自助银行(田村路支行),田村东路与田村路交叉口东北50米,北京市,北京市,,金融保险服务;自动提款机;交通银行ATM,160305,B0FFGYQBPW,金融保险服务,自动提款机,交通银行ATM,
116.19463772754555,39.9424725187408,中国建设银行24小时自助银行(北京西山枫林支行),香山南路168号,北京市,北京市,西山,金融保险服务;自动提款机;中国建设银行ATM,160303,B000A809KI,金融保险服务,自动提款机,中国建设银行ATM,
116.19773925466691,39.93239464110142,北京农商银行24小时自助银行(西山支行),西黄新村东里2号楼,北京市,北京市,石景山,金融保险服务;自动提款机;北京农商银行ATM,160346,B0FFH019MB,金融保险服务,自动提款机,北京农商银行ATM,
116.19718570702425,39.92656504811245,华夏银行24小时自助银行(北京大学首钢医院西北),西黄村首钢医院,北京市,北京市,石景山,金融保险服务;自动提款机;华夏银行ATM,160307,B0FFF4T2Q5,金融保险服务,自动提款机,华夏银行ATM,
116.22937737716299,39.95300275726721,中国民生银行24小时自助银行(北京杏石口支行),杏石口路80号益园文化创意产业基地A区1号楼,北京市,北京市,西山,金融保险服务;自动提款机;中国民生银行ATM,160309,B0FFG8SO3V,金融保险服务,自动提款机,中国民生银行ATM,
116.21677130476598,39.910345108369484,中国邮政储蓄银行(老山东里支行),老山南路老山东里46栋1层,北京市,北京市,石景山,金融保险服务;银行;中国邮政储蓄银行,160139,B000A9ZY0A,金融保险服务,银行,中国邮政储蓄银行,
116.22368890027789,39.952941211639036,中国建设银行24小时自助银行(巨山路支行),杏石口路中间建筑1区4号楼,北京市,北京市,西山,金融保险服务;自动提款机;中国建设银行ATM,160303,B000AA3XGX,金融保险服务,自动提款机,中国建设银行ATM,
116.19985294673697,39.91711235746252,北京银行ATM(时代花园社区支行),时代花园东街8号院1号楼1层,北京市,北京市,石景山,金融保险服务;自动提款机;北京银行ATM,160316,B0FFHGI94U,金融保险服务,自动提款机,北京银行ATM,
116.19445713093404,39.919795147345674,中国光大银行24小时自助银行(石景山支行),阜石路166号泽洋大厦北座1楼和南座6楼,北京市,北京市,石景山,金融保险服务;自动提款机;中国光大银行ATM,160310,B000A7XLFB,金融保险服务,自动提款机,中国光大银行ATM,
116.19335536847609,39.93666373547213,华夏银行ATM(八大处路)(装修中),八大处路45号,北京市,北京市,石景山,金融保险服务;自动提款机;华夏银行ATM,160307,B000A7C4SR,金融保险服务,自动提款机,华夏银行ATM,
116.19588907473526,39.931426887515656,上海浦东发展银行24小时自助银行(苹果园南路),西黄新村西里7号,北京市,北京市,石景山,金融保险服务;自动提款机;上海浦东发展银行ATM,160312,B0FFG96YY4,金融保险服务,自动提款机,上海浦东发展银行ATM,
116.20464715396041,39.957946340560035,北京农商银行(南辛庄分理处),北辛庄352号,北京市,北京市,香山,金融保险服务;银行;北京农商银行,160149,B000A7VRYJ,金融保险服务,银行,北京农商银行,
116.20110353479222,39.94254311348145,中国民生银行(枫林社区支行),香山南路166-36号,北京市,北京市,香山,金融保险服务;银行;中国民生银行,160112,B0FFG8S2M1,金融保险服务,银行,中国民生银行,
116.22772448873772,39.954310793921636,北京农商银行ATM(西山分理处),杏石口路75号,北京市,北京市,西山,金融保险服务;自动提款机;北京农商银行ATM,160346,B0FFFOM5J9,金融保险服务,自动提款机,北京农商银行ATM,
116.19391770269252,39.94485329932026,北京农商银行24小时自助银行(八大处分理处),八大处路28-甲1,北京市,北京市,西山,金融保险服务;自动提款机;北京农商银行ATM,160346,B0FFGBK2Y1,金融保险服务,自动提款机,北京农商银行ATM,
116.20137746260501,39.9158685747017,中国工商银行24小时自助银行(北京游乐场支行),八角东路12号建西苑小区南里10号楼一层,北京市,北京市,石景山,金融保险服务;自动提款机;中国工商银行ATM,160302,B000A81252,金融保险服务,自动提款机,中国工商银行ATM,
116.19935743739431,39.91230984279436,中国工商银行24小时自助银行(八角路),八角中街八角中里北四门,北京市,北京市,石景山,金融保险服务;自动提款机;中国工商银行ATM,160302,B000A7BYVT,金融保险服务,自动提款机,中国工商银行ATM,
116.20096153183204,39.916040982384146,中国邮政储蓄银行24小时自助银行(晋元庄支行),建西苑南里10-9,北京市,北京市,石景山,金融保险服务;自动提款机;中国邮政储蓄银行ATM,160336,B000A867YC,金融保险服务,自动提款机,中国邮政储蓄银行ATM,
116.21674325709913,39.910371080408936,中国邮政储蓄24小时自助银行(老山东里支行),老山驾校环形训练场路(老山东里北侧约10米),北京市,北京市,石景山,金融保险服务;自动提款机;中国邮政储蓄银行ATM,160336,B000A9ZXVB,金融保险服务,自动提款机,中国邮政储蓄银行ATM,
116.21828249395159,39.90354481113308,兴业银行(鲁谷支行),政达路6号院2号楼首层,北京市,北京市,石景山,金融保险服务;银行;兴业银行,160118,B000AA1CWS,金融保险服务,银行,兴业银行,
116.21881399546704,39.89790453882292,中国邮政储蓄银行(五芳园支行),鲁谷南路9-1号,北京市,北京市,石景山,金融保险服务;银行;中国邮政储蓄银行,160139,B000A7QQS1,金融保险服务,银行,中国邮政储蓄银行,
116.21790762579451,39.89788271948028,中国建设银行24小时自助银行(鲁谷南路),鲁谷小区五芳园1号,北京市,北京市,永乐,金融保险服务;自动提款机;中国建设银行ATM,160303,B0FFFGQIG2,金融保险服务,自动提款机,中国建设银行ATM,
116.20991908242641,39.8973663804921,中国银行(北京鲁谷支行),鲁谷小区七星园1号楼1层,北京市,北京市,石景山,金融保险服务;银行;中国银行,160104,B000A7VLAI,金融保险服务,银行,中国银行,
116.22117564543642,39.90397527882532,中国工商银行(政达路支行),[],北京市,北京市,石景山,金融保险服务;银行;中国工商银行,160105,B000A51642,金融保险服务,银行,中国工商银行,
116.2125177692866,39.90564295241522,中国建设银行(北京石景山支行),石景山路22-16号建行大厦,北京市,北京市,石景山,金融保险服务;银行;中国建设银行,160106,B000A7CO9C,金融保险服务,银行,中国建设银行,
116.22229639573598,39.90218324476327,中国工商银行(北京黄楼支行),鲁谷大街鲁谷四小区1号楼,北京市,北京市,永乐,金融保险服务;银行;中国工商银行,160105,B0FFJKKJO7,金融保险服务,银行,中国工商银行,
116.218860062383,39.89791957911686,中国邮政储蓄银行24小时自助银行(五芳园支行),鲁谷南路9-1号,北京市,北京市,永乐,金融保险服务;自动提款机;中国邮政储蓄银行ATM,160336,B000A7QQS2,金融保险服务,自动提款机,中国邮政储蓄银行ATM,
116.21307047188911,39.899737810080936,中国农业银行24小时自助银行(新岚储蓄所),鲁谷南路23-2号,北京市,北京市,石景山,金融保险服务;自动提款机;中国农业银行ATM,160304,B000A7RC6J,金融保险服务,自动提款机,中国农业银行ATM,
116.23050468167564,39.90310536170815,宁波银行(北京石景山支行),八宝山街道石景山路2号北京台湾街B区1号楼,北京市,北京市,石景山,金融保险服务;银行;银行,160100,B0FFGIGLNG,金融保险服务,银行,银行,
116.21460936419315,39.905655166201775,中国农业银行(银河大街支行),石景山路22-2号,北京市,北京市,石景山,金融保险服务;银行;中国农业银行,160107,B000A7RC3E,金融保险服务,银行,中国农业银行,
116.22290751292621,39.89970082039076,中国邮政储蓄银行(西永乐营业所),鲁谷街道鲁谷大街13号,北京市,北京市,石景山,金融保险服务;银行;中国邮政储蓄银行,160139,B000A867TS,金融保险服务,银行,中国邮政储蓄银行,
116.21938821509902,39.90298181917315,中国邮政储蓄银行(鲁谷支行),鲁谷路39号,北京市,北京市,石景山,金融保险服务;银行;中国邮政储蓄银行,160139,B000A85F3C,金融保险服务,银行,中国邮政储蓄银行,
116.21858189102169,39.9039900619155,招商银行(石景山支行),政达路6号院3号楼北方中惠国际大厦1层,北京市,北京市,石景山,金融保险服务;银行;招商银行,160109,B0FFFS0091,金融保险服务,银行,招商银行,
116.2201051295203,39.90400439019434,华夏银行信用卡中心,政达路6号院6号楼,北京市,北京市,石景山,金融保险服务;银行相关;银行相关,160200,B0FFH0H8J6,金融保险服务,银行相关,银行相关,
116.21979167674641,39.904006122987006,中信银行(北京石景山支行),政达路6号院4号楼,北京市,北京市,石景山,金融保险服务;银行;中信银行,160111,B000AA1FWY,金融保险服务,银行,中信银行,
116.22550305354511,39.889245130607435,中国工商银行(北京重兴园支行),鲁谷大街51号重兴嘉园4号楼,北京市,北京市,石景山,金融保险服务;银行;中国工商银行,160105,B000A88A71,金融保险服务,银行,中国工商银行,
116.21862575843805,39.90558703168443,光大科技有限公司,石景山路乙18号万达广场A座,北京市,北京市,石景山,金融保险服务;银行;中国光大银行|公司企业;公司;公司,160113|170200,B0FFJN6V3Y,金融保险服务,银行,中国光大银行|公司企业,公司
116.22924056904805,39.90209076899461,中国建设银行(北京西永乐支行),鲁谷路108号,北京市,北京市,永乐,金融保险服务;银行;中国建设银行,160106,B000A0DFDE,金融保险服务,银行,中国建设银行,
116.20775877050465,39.90691036727884,北京银行(京源路支行),石景山路23号中础大厦1层,北京市,北京市,石景山,金融保险服务;银行;北京银行,160119,B000A7GKDR,金融保险服务,银行,北京银行,
116.20577078827188,39.899127205101685,北京农商银行(七星园分理处),鲁谷南路26号西鑫大厦一层,北京市,北京市,石景山,金融保险服务;银行;北京农商银行,160149,B000A0E7A5,金融保险服务,银行,北京农商银行,
116.22276338301116,39.891173098783106,中国邮政储蓄银行(重兴园支行),重兴园甲1号,北京市,北京市,石景山,金融保险服务;银行;中国邮政储蓄银行,160139,B000A85XAG,金融保险服务,银行,中国邮政储蓄银行,
116.22495133589254,39.88968673998622,中国建设银行(鲁谷支行),鲁谷大街51号,北京市,北京市,石景山,金融保险服务;银行;中国建设银行,160106,B0FFJIHGQE,金融保险服务,银行,中国建设银行,
116.21543279365378,39.90514202264989,中国银行(北京银河大街支行),石景山路20号中铁建设大厦1-2层,北京市,北京市,石景山,金融保险服务;银行;中国银行,160104,B000A8X76I,金融保险服务,银行,中国银行,
116.20990606135283,39.897340366436296,中国银行24小时自助银行(鲁谷支行),鲁谷小区七星园1号楼1层,北京市,北京市,石景山,金融保险服务;自动提款机;中国银行ATM,160301,B000A7RDFV,金融保险服务,自动提款机,中国银行ATM,
116.23594322629428,39.90223747245233,中国农业银行(远洋山水支行),玉泉西里二区1号楼1层商业01号,北京市,北京市,石景山,金融保险服务;银行;中国农业银行,160107,B000A85LF4,金融保险服务,银行,中国农业银行,
116.21618425617449,39.90320084982981,中国工商银行ATM,银河大街6号院1号楼银河财智中心A1座1层,北京市,北京市,石景山,金融保险服务;自动提款机;中国工商银行ATM,160302,B0G3OOD6NJ,金融保险服务,自动提款机,中国工商银行ATM,
116.23481432414022,39.90305309647992,平安银行(北京石景山支行),台湾街,北京市,北京市,石景山,金融保险服务;银行;平安银行,160117,B0FFFGQAGI,金融保险服务,银行,平安银行,
116.23649662625832,39.90199163261334,兴业银行(北京石景山支行),远洋山水北区1-5,北京市,北京市,石景山,金融保险服务;银行;兴业银行,160118,B000A87SKR,金融保险服务,银行,兴业银行,
116.21638269007494,39.902272083650054,浙商银行(北京石景山支行),紫御国际银河南街2号院1号楼,北京市,北京市,石景山,金融保险服务;银行;银行,160100,B0FFKMF4NU,金融保险服务,银行,银行,
116.2192870750312,39.90291173398949,中国邮政储蓄银行ATM(鲁谷支行),鲁谷路39号,北京市,北京市,石景山,金融保险服务;自动提款机;中国邮政储蓄银行ATM,160336,B000A85F3O,金融保险服务,自动提款机,中国邮政储蓄银行ATM,
116.2155403404788,39.90216226039133,中国民生银行(北京石景山支行),银河南街2号院1,北京市,北京市,石景山,金融保险服务;银行;中国民生银行,160112,B0FFFAEQST,金融保险服务,银行,中国民生银行,
116.23922120227749,39.902150193135085,广发银行(玉泉路支行),鲁谷路74号中国瑞达大厦1层,北京市,北京市,石景山,金融保险服务;银行;广发银行,160120,B0FFHTJ3H9,金融保险服务,银行,广发银行,
116.2228984893081,39.899795809379434,中国工商银行24小时自助银行(西永乐营业所),永乐西区33号楼,北京市,北京市,石景山,金融保险服务;自动提款机;中国工商银行ATM,160302,B000A87BRU,金融保险服务,自动提款机,中国工商银行ATM,
116.21458248581415,39.90431519692059,中国邮政储蓄银行信用卡中心,鲁谷街51号院2号楼,北京市,北京市,石景山,金融保险服务;银行相关;银行相关,160200,B0HAVS9C3H,金融保险服务,银行相关,银行相关,
116.19553996306007,39.909725246264,北京农商银行(八角支行),八角南路7号,北京市,北京市,石景山,金融保险服务;银行;北京农商银行,160149,B000A6E1C0,金融保险服务,银行,北京农商银行,
116.22272133447426,39.891118069490304,中国邮政储蓄银行ATM(重兴园支行),重兴园甲1号,北京市,北京市,石景山,金融保险服务;自动提款机;中国邮政储蓄银行ATM,160336,B000A85XAH,金融保险服务,自动提款机,中国邮政储蓄银行ATM,
116.21449216103466,39.90570704347927,中国银行24小时自助银行,银河大街1-6号,北京市,北京市,石景山,金融保险服务;自动提款机;中国银行ATM,160301,B0FFIY0R3V,金融保险服务,自动提款机,中国银行ATM,
116.23030829059519,39.89669255210644,中国邮政储蓄银行(鲁谷东街营业所),玉泉西里二区38号楼,北京市,北京市,石景山,金融保险服务;银行;中国邮政储蓄银行,160139,B000A8WANK,金融保险服务,银行,中国邮政储蓄银行,
116.2293419693941,39.899689928711005,北京农商银行(黄楼分理处),永乐小区62栋楼前底商,北京市,北京市,永乐,金融保险服务;银行;北京农商银行,160149,B000A7Q2LM,金融保险服务,银行,北京农商银行,
116.21843879476023,39.903028975205224,中国光大银行(银河东街),郑达路6号,北京市,北京市,石景山,金融保险服务;银行;银行,160100,B0FFG8VHUM,金融保险服务,银行,银行,
116.21826544644287,39.90371878804004,厦门国际银行(北京石景山支行),政达路6号北方中惠国际中心A座1层,北京市,北京市,石景山,金融保险服务;银行;银行,160100,B0FFFGQ9WV,金融保险服务,银行,银行,
116.19635892714503,39.90940651154676,中国农业银行(石景山支行),八角南路18号,北京市,北京市,石景山,金融保险服务;银行;中国农业银行,160107,B000A1071E,金融保险服务,银行,中国农业银行,
116.2222322948826,39.90230418984658,中国工商银行网点自助服务区(北京分行石景山支行石景山区鲁谷大街),鲁谷大街5号,北京市,北京市,永乐,金融保险服务;自动提款机;中国工商银行ATM,160302,B0FFI8C17P,金融保险服务,自动提款机,中国工商银行ATM,
116.20023859576406,39.89472888104114,中国工商银行(北京景阳东街支行),景阳东街66号院3号,北京市,北京市,衙门口,金融保险服务;银行;中国工商银行,160105,B0FFGE7I8J,金融保险服务,银行,中国工商银行,
116.2215541677311,39.903975583276505,中国工商银行24小时自助银行(政达路支行),政达路2号CRD银座1层,北京市,北京市,石景山,金融保险服务;自动提款机;中国工商银行ATM,160302,B0FFG0ZY5X,金融保险服务,自动提款机,中国工商银行ATM,
116.22585645154645,39.89745198572827,中国工商银行24小时自助银行(永乐小区东区南),鲁谷南路10附近,北京市,北京市,永乐,金融保险服务;自动提款机;中国工商银行ATM,160302,B0FFFD7W6R,金融保险服务,自动提款机,中国工商银行ATM,
116.19777856735418,39.90658676722631,交通银行(石景山支行),石景山路29号京燕饭店,北京市,北京市,石景山,金融保险服务;银行;交通银行,160108,B0FFJMMFT8,金融保险服务,银行,交通银行,
116.2388309948355,39.902164128374785,华夏银行(北京玉泉路支行),鲁谷路74号瑞达大厦1层,北京市,北京市,石景山,金融保险服务;银行;华夏银行,160110,B000A87Q6M,金融保险服务,银行,华夏银行,
116.22934296082988,39.89976692579916,北京农商银行24小时自助银行(黄楼分理处),鲁谷东街25-12号,北京市,北京市,石景山,金融保险服务;自动提款机;北京农商银行ATM,160346,B000A7Q2LN,金融保险服务,自动提款机,北京农商银行ATM,
116.19295998528969,39.90805028223,中国工商银行(八角支行),八角西街66号,北京市,北京市,石景山,金融保险服务;银行;中国工商银行,160105,B000A36CAE,金融保险服务,银行,中国工商银行,
116.23655291374351,39.899971736762275,北京银行(远洋山水支行),雕塑园南街经典美术馆附近,北京市,北京市,石景山,金融保险服务;银行;北京银行,160119,B0FFFAEIS5,金融保险服务,银行,北京银行,
116.21449917929729,39.905655052961464,中国农业银行ATM(石景山路),石景山路22-2号,北京市,北京市,石景山,金融保险服务;自动提款机;中国农业银行ATM,160304,B000A7RC3F,金融保险服务,自动提款机,中国农业银行ATM,
116.23653667487105,39.90181065097114,上海浦东发展银行(石景山支行),玉泉西里二区1号楼1层,北京市,北京市,石景山,金融保险服务;银行;上海浦东发展银行,160115,B0HB17HDV9,金融保险服务,银行,上海浦东发展银行,
116.23911614702726,39.90215517621,中国工商银行(远洋山水支行),鲁谷路74号(中国瑞达西南),北京市,北京市,石景山,金融保险服务;银行;中国工商银行,160105,B000A87Q8A,金融保险服务,银行,中国工商银行,
116.22544597918892,39.88929709040013,中国工商银行24小时自助银行(北京重兴园支行),八宝山南路重兴嘉园4号楼,北京市,北京市,石景山,金融保险服务;自动提款机;中国工商银行ATM,160302,B000A88A5V,金融保险服务,自动提款机,中国工商银行ATM,
116.2194621922415,39.90403883721506,中信银行24小时自助银行(北京石景山支行),政达路6号院4,北京市,北京市,石景山,金融保险服务;自动提款机;中信银行ATM,160308,B000AA1FWV,金融保险服务,自动提款机,中信银行ATM,
116.22377866433816,39.891421837515686,中国邮政储蓄银行24小时自助银行,[],北京市,北京市,石景山,金融保险服务;自动提款机;中国邮政储蓄银行ATM,160336,B0G2ZXJ2LU,金融保险服务,自动提款机,中国邮政储蓄银行ATM,
116.20759065391361,39.90520923351496,北京银行24小时自助银行,[],北京市,北京市,石景山,金融保险服务;银行;银行,160100,B0FFHILHQ8,金融保险服务,银行,银行,
116.21229103960152,39.90828659015481,中国邮政储蓄银行(老山西里邮局营业部),老山西里甲7号楼,北京市,北京市,石景山,金融保险服务;银行;中国邮政储蓄银行,160139,B0FFFAEB6T,金融保险服务,银行,中国邮政储蓄银行,
116.2155369658508,39.905130127162785,中国银行24小时自助银行(北京银河大街支行),石景山路20号中铁建设大厦一、二层商业部分,北京市,北京市,石景山,金融保险服务;自动提款机;中国银行ATM,160301,B000A8X6MO,金融保险服务,自动提款机,中国银行ATM,
116.24184381650142,39.906738274287434,北京农商银行(京原支行),石景山路3号玉泉大厦一层,北京市,北京市,石景山,金融保险服务;银行;北京农商银行,160149,B000A7Q2I0,金融保险服务,银行,北京农商银行,
116.2182705169207,39.90321381476371,中国光大银行24小时自助银行(北方中惠国际中心B座西北),郑达路6号院1号楼,北京市,北京市,石景山,金融保险服务;自动提款机;中国光大银行ATM,160310,B000AA1CWM,金融保险服务,自动提款机,中国光大银行ATM,
116.2186329700456,39.90397210851295,招商银行24小时自助银行(石景山支行),政达路6号院北方中惠国际大厦A座1层,北京市,北京市,石景山,金融保险服务;自动提款机;招商银行ATM,160306,B0FFFDSOYN,金融保险服务,自动提款机,招商银行ATM,
116.21557339155139,39.90218629225308,中国民生银行24小时自助银行(北京石景山支行),银河南街2号院1,北京市,北京市,石景山,金融保险服务;自动提款机;中国民生银行ATM,160309,B0FFFAEIT9,金融保险服务,自动提款机,中国民生银行ATM,
116.22490927546824,39.88976170784398,中国建设银行24小时自助银行(鲁谷大街支行),鲁谷大街51号,北京市,北京市,石景山,金融保险服务;自动提款机;中国建设银行ATM,160303,B0FFH12N7S,金融保险服务,自动提款机,中国建设银行ATM,
116.23653063567633,39.90209463686634,兴业银行24小时自助银行(石景山支行),远洋山水北区1-5,北京市,北京市,石景山,金融保险服务;自动提款机;兴业银行ATM,160315,B000A87SKS,金融保险服务,自动提款机,兴业银行ATM,
116.23596123880709,39.90223547758048,中国农业银行24小时自助银行(远洋山水支行),玉泉西里二区1号楼1层商业01号,北京市,北京市,石景山,金融保险服务;自动提款机;中国农业银行ATM,160304,B000A85LF3,金融保险服务,自动提款机,中国农业银行ATM,
116.22926859995779,39.90206978468296,中国建设银行ATM(西永乐支行),鲁谷路108号,北京市,北京市,石景山,金融保险服务;自动提款机;中国建设银行ATM,160303,B000A7RBGX,金融保险服务,自动提款机,中国建设银行ATM,
116.21836067175688,39.903067902892396,中国光大银行(中惠国际中心B座西北),政达路6号院1号楼,北京市,北京市,石景山,金融保险服务;银行相关;银行相关,160200,B0FFFAE4Y0,金融保险服务,银行相关,银行相关,
116.19866205730314,39.89476359563317,中国邮政储蓄银行(景阳东街营业所),北景阳东街附近,北京市,北京市,石景山,金融保险服务;银行;中国邮政储蓄银行,160139,B0FFG8UKXL,金融保险服务,银行,中国邮政储蓄银行,
116.23877696637192,39.90215911926208,华夏银行24小时自助银行(玉泉路支行),鲁谷路74号瑞达大厦1层,北京市,北京市,石景山,金融保险服务;自动提款机;华夏银行ATM,160307,B000A87Q7D,金融保险服务,自动提款机,华夏银行ATM,
116.20773171872658,39.90690233430444,北京银行24小时自助银行(京源路支行),石景山路23-1号,北京市,北京市,石景山,金融保险服务;自动提款机;北京银行ATM,160316,B000A7R398,金融保险服务,自动提款机,北京银行ATM,
116.23120318560476,39.89623699515353,中国工商银行24小时自助银行(莲石东路支行),玉泉西里二区38号楼D106室,北京市,北京市,石景山,金融保险服务;自动提款机;中国工商银行ATM,160302,B000AA1DWO,金融保险服务,自动提款机,中国工商银行ATM,
116.20595215568926,39.89912043833052,北京农商银行24小时自助银行(七星园分理处),鲁谷南路26-2号,北京市,北京市,石景山,金融保险服务;自动提款机;北京农商银行ATM,160346,B000A85UNW,金融保险服务,自动提款机,北京农商银行ATM,
116.23096521718753,39.90227161614242,中国光大银行(北京远洋山水社区支行),鲁谷路102-1号,北京市,北京市,石景山,金融保险服务;银行;中国光大银行,160113,B0FFG37NKC,金融保险服务,银行,中国光大银行,
116.23655769551266,39.90175465886054,浦发银行24小时自助银行(北京石景山支行),雕塑园南街与鲁谷路交叉路口往南约50米,北京市,北京市,石景山,金融保险服务;自动提款机;上海浦东发展银行ATM,160312,B0FFL1RUB8,金融保险服务,自动提款机,上海浦东发展银行ATM,
116.19630311485177,39.906857536053685,江苏银行(北京石景山支行),石景山路31号盛景国际广场F1层,北京市,北京市,石景山,金融保险服务;银行;银行,160100,B0FFI6OI5N,金融保险服务,银行,银行,
116.21486135173049,39.90913927355852,华夏银行ATM(老山社区卫生服务中心西北),老山南路(老山派出所旁),北京市,北京市,石景山,金融保险服务;自动提款机;华夏银行ATM,160307,B000A9ZY3M,金融保险服务,自动提款机,华夏银行ATM,
116.1976492675548,39.90660957369797,交通银行24小时自助银行(石景山支行),石景山路29号京燕饭店西配楼,北京市,北京市,石景山,金融保险服务;自动提款机;交通银行ATM,160305,B000A877SX,金融保险服务,自动提款机,交通银行ATM,
116.19648121125408,39.90941869666648,中国农业银行24小时自助银行(石景山支行营业室),八角南路18号,北京市,北京市,石景山,金融保险服务;自动提款机;中国农业银行ATM,160304,B000A7XLVP,金融保险服务,自动提款机,中国农业银行ATM,
116.23654588694777,39.90015072698169,北京银行24小时自助银行(远洋山水支行),玉泉西里二区18号楼1层,北京市,北京市,石景山,金融保险服务;自动提款机;北京银行ATM,160316,B0FFFAEJ25,金融保险服务,自动提款机,北京银行ATM,
116.23107631164447,39.90233766459538,中国光大银行ATM(远洋山水社区支行),鲁谷路102-2附近,北京市,北京市,石景山,金融保险服务;自动提款机;中国光大银行ATM,160310,B0FFFAE428,金融保险服务,自动提款机,中国光大银行ATM,
116.24220540201068,39.903118450852205,中国工商银行24小时自助银行,鲁谷路11号大厅北侧,北京市,北京市,石景山,金融保险服务;自动提款机;中国工商银行ATM,160302,B000A7BLD0,金融保险服务,自动提款机,中国工商银行ATM,
116.23486936365961,39.90306111380813,平安银行24小时自助银行(北京石景山支行),鲁谷路临31-4号附近,北京市,北京市,石景山,金融保险服务;自动提款机;平安银行ATM,160314,B0FFFZCIUL,金融保险服务,自动提款机,平安银行ATM,
116.19867909704372,39.89475462103958,中国邮政储蓄银行24小时自助银行(景阳东街营业所),景阳东街65号院3号楼1层1单元101,北京市,北京市,石景山,金融保险服务;自动提款机;中国邮政储蓄银行ATM,160336,B0FFFZFSF1,金融保险服务,自动提款机,中国邮政储蓄银行ATM,
116.19297200980077,39.90808829972303,中国工商银行24小时自助银行(八角支行),八角西街60号,北京市,北京市,石景山,金融保险服务;自动提款机;中国工商银行ATM,160302,B000A2D5CD,金融保险服务,自动提款机,中国工商银行ATM,
116.19294798093854,39.907851271675554,中国工商银行网点自助服务区(北京分行石景山支行),八角西街60号,北京市,北京市,石景山,金融保险服务;自动提款机;中国工商银行ATM,160302,B0FFI6UI01,金融保险服务,自动提款机,中国工商银行ATM,
116.19541867781389,39.9097140601397,北京农商银行24小时自助银行,八角南路43号,北京市,北京市,石景山,金融保险服务;自动提款机;北京农商银行ATM,160346,B000A878A3,金融保险服务,自动提款机,北京农商银行ATM,
116.2391871749604,39.90222818432653,广发银行24小时自助银行(玉泉路支行),鲁谷路74号瑞达大厦,北京市,北京市,石景山,金融保险服务;自动提款机;广发银行ATM,160317,B0FFIPG2NP,金融保险服务,自动提款机,广发银行ATM,
116.24194785507788,39.90674827967085,北京农商银行24小时自助银行(清华大学玉泉医院东北),石景山路3号玉泉大厦1层,北京市,北京市,石景山,金融保险服务;自动提款机;北京农商银行ATM,160346,B000A85T0U,金融保险服务,自动提款机,北京农商银行ATM,
116.22230841341968,39.90217025461698,中国工商银行24小时自助银行(黄楼支行),鲁谷大街5号,北京市,北京市,永乐,金融保险服务;自动提款机;中国工商银行ATM,160302,B000A73798,金融保险服务,自动提款机,中国工商银行ATM,
116.21828148944354,39.90356880917055,兴业银行24小时自助银行(鲁谷支行),政达路6号院首层,北京市,北京市,石景山,金融保险服务;自动提款机;兴业银行ATM,160315,B000AA1CWQ,金融保险服务,自动提款机,兴业银行ATM,
116.26197817606388,40.12471524162257,中国工商银行(沙河支行),巩华城大街58号,北京市,北京市,沙河,金融保险服务;银行;中国工商银行,160105,B000A7RB3U,金融保险服务,银行,中国工商银行,
116.26191490567292,40.12717906020458,中国银行(北京沙河支行),沙河镇巩华城大街76号,北京市,北京市,沙河,金融保险服务;银行;中国银行,160104,B000A7RDI8,金融保险服务,银行,中国银行,
116.27688531785768,40.11335612361481,中国建设银行(沙河支行),定福皇庄75号北京碧水庄园物业管理大楼1层,北京市,北京市,,金融保险服务;银行;中国建设银行,160106,B000A9VG44,金融保险服务,银行,中国建设银行,
116.2617799909405,40.127157155078734,中国银行24小时自助银行(沙河支行),巩华城大街76号,北京市,北京市,沙河,金融保险服务;自动提款机;中国银行ATM,160301,B000A7RDI9,金融保险服务,自动提款机,中国银行ATM,
116.28588580676305,40.148284972888014,中国农业银行(北京沙河支行),沙河百沙路青年创业大厦a座,北京市,北京市,沙河,金融保险服务;银行;中国农业银行,160107,B0FFF4B4SL,金融保险服务,银行,中国农业银行,
116.27342473642192,40.14330526100891,中国邮政储蓄银行(沙河支行),顺沙路19号院二区底商1-2,北京市,北京市,沙河,金融保险服务;银行;中国邮政储蓄银行,160139,B0FFL3E6XU,金融保险服务,银行,中国邮政储蓄银行,
116.26215308273204,40.12459213104288,中国工商银行24小时自助银行(沙河支行),巩华城大街58号,北京市,北京市,沙河,金融保险服务;自动提款机;中国工商银行ATM,160302,B000A7RB3V,金融保险服务,自动提款机,中国工商银行ATM,
116.27271877947553,40.14925839451173,北京农商银行(沙河支行),沙河镇巩华城北区F4地块兆丰家园12-1号回迁商业楼一层底商,北京市,北京市,沙河,金融保险服务;银行;北京农商银行,160149,B0FFG4UTSZ,金融保险服务,银行,北京农商银行,
116.27265881169292,40.149529429032945,中国邮政储蓄银行(兆丰家园营业所),北沙河中路兆丰家园西区,北京市,北京市,沙河,金融保险服务;银行;中国邮政储蓄银行,160139,B0FFH0608H,金融保险服务,银行,中国邮政储蓄银行,
116.26596118905395,40.117960801500544,中国农业银行24小时自助银行(沙河医院南),G6辅路西50米,北京市,北京市,沙河,金融保险服务;自动提款机;中国农业银行ATM,160304,B0FFFGZL07,金融保险服务,自动提款机,中国农业银行ATM,
116.27838751789713,40.14376447336796,中国农业银行24小时自助银行(丰善东路),丰善东路与路松街交叉口东南150米,北京市,北京市,沙河,金融保险服务;自动提款机;中国农业银行ATM,160304,B0FFG71OJI,金融保险服务,自动提款机,中国农业银行ATM,
116.27343273663476,40.14323125994005,中国邮政储蓄银行24小时自助银行(沙河支行),路松街与北沙河中路交叉路口往西南约50米,北京市,北京市,沙河,金融保险服务;自动提款机;中国邮政储蓄银行ATM,160336,B0FFL5FDVJ,金融保险服务,自动提款机,中国邮政储蓄银行ATM,
116.28156099807602,40.144256367981455,中国农业银行24小时自助银行(丰善东一路),沙河镇北京科技经营管理学院沙河新校区西北,北京市,北京市,沙河,金融保险服务;自动提款机;中国农业银行ATM,160304,B0FFGJVCZY,金融保险服务,自动提款机,中国农业银行ATM,
116.25355020432015,40.120369182575025,北京农商银行(沙阳路分理处),沙河镇沙阳路11号,北京市,北京市,,金融保险服务;银行;北京农商银行,160149,B0FFH5BXOM,金融保险服务,银行,北京农商银行,
116.27266381397115,40.14946743035211,中国邮政储蓄银行-24小时自助银行,北沙河中路兆丰家园西区,北京市,北京市,沙河,金融保险服务;自动提款机;中国邮政储蓄银行ATM,160336,B0FFH0608I,金融保险服务,自动提款机,中国邮政储蓄银行ATM,
116.28126244515724,40.14416777079285,北京农商银行24小时自助银行(丰善村东路),丰善东一路与于善街交叉路口北侧(巩华家园-西二村),北京市,北京市,沙河,金融保险服务;自动提款机;北京农商银行ATM|金融保险服务;自动提款机;农村商业银行ATM,160346|160318,B0FFGJVD13,金融保险服务,自动提款机,北京农商银行ATM|金融保险服务,自动提款机
116.27279771445804,40.149079329967506,北京农商银行24小时自助银行(沙河支行),沙河镇巩华城北区F4地块兆丰家园12-1号回迁商业楼1层,北京市,北京市,沙河,金融保险服务;自动提款机;北京农商银行ATM,160346,B0FFG4UTZF,金融保险服务,自动提款机,北京农商银行ATM,
116.25259802185913,40.11523097720652,中国农业银行ATM(富生路),沙河富生路巩华新村附近,北京市,北京市,,金融保险服务;自动提款机;中国农业银行ATM,160304,B0FFFGZZ9U,金融保险服务,自动提款机,中国农业银行ATM,
116.27689830197357,40.1133501087092,中国建设银行ATM(沙河支行)(装修中),定福皇庄75号北京碧水庄园物业管理大楼1层,北京市,北京市,,金融保险服务;自动提款机;中国建设银行ATM,160303,B0FFFFMB6T,金融保险服务,自动提款机,中国建设银行ATM,
116.2880370845211,40.10987641611212,北京农商银行(七里渠分理处),沙河镇豆各庄村10号,北京市,北京市,,金融保险服务;银行;北京农商银行,160149,B0FFGP7PXO,金融保险服务,银行,北京农商银行,
116.28581592119977,40.1482760742956,中国农业银行24小时自助银行(北京沙河支行),松兰路与百沙路交叉路口向南约50米(青年创业大厦),北京市,北京市,沙河,金融保险服务;自动提款机;中国农业银行ATM,160304,B0FFF2FL7P,金融保险服务,自动提款机,中国农业银行ATM,
116.2535342104867,40.12034619075395,北京农商银行24小时自助银行(沙阳路分理处),沙河北京昆钰酒店(沙阳路北),北京市,北京市,,金融保险服务;自动提款机;北京农商银行ATM,160346,B0FFHMBXL6,金融保险服务,自动提款机,北京农商银行ATM,
116.28791329550774,40.109864601585215,北京农商银行24小时自助银行(七里渠分理处),豆各庄10号,北京市,北京市,,金融保险服务;自动提款机;北京农商银行ATM,160346,B0FFFADL2W,金融保险服务,自动提款机,北京农商银行ATM,
116.27230775847603,40.089392097877315,中国建设银行(生命园支行),生命园路29号生命科学创新大厦1层,北京市,北京市,,金融保险服务;银行;中国建设银行,160106,B000A9Q7LW,金融保险服务,银行,中国建设银行,
116.28414700629928,40.09726802597291,交通银行(北京北清路支行),北清路珠江摩尔5号楼,北京市,北京市,回龙观,金融保险服务;银行;交通银行,160108,B000AAEV76,金融保险服务,银行,交通银行,
116.2625106976043,40.0780225092845,中国农业银行(航天城支行),航天城友谊路102-8号,北京市,北京市,,金融保险服务;银行;中国农业银行,160107,B000A8UURK,金融保险服务,银行,中国农业银行,
116.26213895489835,40.07784878290051,中国农业银行24小时自助银行(航天城支行),友谊路193号,北京市,北京市,,金融保险服务;自动提款机;中国农业银行ATM,160304,B000A8UG4V,金融保险服务,自动提款机,中国农业银行ATM,
116.26528300705534,40.07585554459235,中国工商银行24小时自助银行,邓庄北路与友谊路交叉路口往东约200米,北京市,北京市,西北旺,金融保险服务;自动提款机;中国工商银行ATM,160302,B000A8WD8J,金融保险服务,自动提款机,中国工商银行ATM,
116.26885146738039,40.06381120075285,北京农商银行(唐家岭分理处),西北旺镇唐家岭新城,北京市,北京市,西北旺,金融保险服务;银行;北京农商银行,160149,B0FFH12QM6,金融保险服务,银行,北京农商银行,
116.25969962559354,40.099477834815076,中国银行ATM(北京大学国际医院),生命园路1号,北京市,北京市,,金融保险服务;自动提款机;中国银行ATM,160301,B0FFH16QKM,金融保险服务,自动提款机,中国银行ATM,
116.2723656972265,40.089377038422924,中国建设银行24小时自助银行(生命园支行),生命园路29号生命科学创新大厦1层,北京市,北京市,,金融保险服务;自动提款机;中国建设银行ATM,160303,B000A9VG6N,金融保险服务,自动提款机,中国建设银行ATM,
116.28504850161795,40.09793570884553,北京农商银行(天通苑支行北清路分理处),北清路1号院珠江摩尔大厦5号楼5-3-107,北京市,北京市,回龙观,金融保险服务;银行;北京农商银行,160149,B0GK1ZWPGV,金融保险服务,银行,北京农商银行,
116.24506098371103,40.065709132921015,北京农商银行(永丰路分理处),西北旺镇永丰路北京朗丽兹西山花园酒店管理有限公司首层,北京市,北京市,西北旺,金融保险服务;银行;北京农商银行,160149,B0FFI21ST4,金融保险服务,银行,北京农商银行,
116.28818989046505,40.09349346605338,北京银行ATM,北清路地铁昌平线生命科学园站东厅,北京市,北京市,回龙观,金融保险服务;自动提款机;北京银行ATM,160316,B0FFJIJQ0X,金融保险服务,自动提款机,北京银行ATM,
116.26888644315918,40.06374317232391,北京市社会保险合作银行,[],北京市,北京市,西北旺,金融保险服务;银行;银行,160100,B0FFL78MIR,金融保险服务,银行,银行,
116.28422588455919,40.09725691685661,交通银行24小时自助银行(北清路支行),北清路珠江摩尔,北京市,北京市,回龙观,金融保险服务;自动提款机;交通银行ATM,160305,B0FFI7F9HM,金融保险服务,自动提款机,交通银行ATM,
116.25676482377114,40.100138420649586,上海银行ATM(北京大学国际医院),生命园路1号北京大学国际医院教学科研楼F1,北京市,北京市,,金融保险服务;自动提款机;上海银行ATM,160311,B0FFH138EJ,金融保险服务,自动提款机,上海银行ATM,
116.28508749343025,40.09750768609245,北京农商银行24小时自助银行,北清路1号珠江摩尔国际中心5号楼1楼,北京市,北京市,回龙观,金融保险服务;自动提款机;北京农商银行ATM,160346,B0FFLAICSL,金融保险服务,自动提款机,北京农商银行ATM,
116.24326452849333,40.0655032010077,中国光大银行ATM,朗丽兹西山花园酒店1层,北京市,北京市,西北旺,金融保险服务;自动提款机;中国光大银行ATM,160310,B0FFH17F1N,金融保险服务,自动提款机,中国光大银行ATM,
116.2688074994409,40.06388323724904,北京农商银行24小时自助银行(唐家岭分理处),友谊路85号附近,北京市,北京市,西北旺,金融保险服务;自动提款机;北京农商银行ATM,160346,B0FFHWHYYJ,金融保险服务,自动提款机,北京农商银行ATM,
116.27320137272235,40.10846069267324,北京农商银行24小时自助银行,世纪华联超市,北京市,北京市,,金融保险服务;自动提款机;北京农商银行ATM,160346,B0FFIGE1JL,金融保险服务,自动提款机,北京农商银行ATM,
116.24511099714036,40.06569013079158,北京农商银行24小时自助银行(永丰路分理处),西北旺丰智东路13号朗丽兹西山花园酒店,北京市,北京市,西北旺,金融保险服务;自动提款机;北京农商银行ATM,160346,B0FFI21TGB,金融保险服务,自动提款机,北京农商银行ATM,
116.2624662530196,40.0338741021176,中国银行数据中心,永丰路299号,北京市,北京市,西北旺,金融保险服务;银行相关;银行相关,160200,B000AA3RLX,金融保险服务,银行相关,银行相关,
116.26327768075795,40.034175499294335,中国银行(信息中心),永丰路299号,北京市,北京市,马连洼,金融保险服务;银行相关;银行相关,160200,B0FFHLNHCF,金融保险服务,银行相关,银行相关,
116.26603007324904,40.03069050945888,中国农业银行(北京西北旺支行),马连洼北路158号,北京市,北京市,马连洼,金融保险服务;银行;中国农业银行,160107,B000A80TBW,金融保险服务,银行,中国农业银行,
116.26846010514309,40.02967843145002,中国工商银行(马连洼支行),马连洼兰园小区16号楼1层,北京市,北京市,西北旺,金融保险服务;银行;中国工商银行,160105,B000A7RB33,金融保险服务,银行,中国工商银行,
116.26005905486976,40.038667461318674,中信银行(西山壹号院支行),德惠路1号,北京市,北京市,西北旺,金融保险服务;银行;中信银行,160111,B0FFHMALL8,金融保险服务,银行,中信银行,
116.27053337665559,40.027526564526205,招商银行(圆明园西路支行),圆明园西路18号1层1715号,北京市,北京市,西北旺,金融保险服务;银行;招商银行,160109,B0H65RP8FS,金融保险服务,银行,招商银行,
116.2656443866692,40.03064383099879,中国农业银行24小时自助银行(西北旺支行),马连洼北路158号,北京市,北京市,西北旺,金融保险服务;自动提款机;中国农业银行ATM,160304,B000A80TBX,金融保险服务,自动提款机,中国农业银行ATM,
116.28106279776893,40.032362202838804,中国农业银行(北京竹园支行),马连洼北路东居物业写字楼1层,北京市,北京市,马连洼,金融保险服务;银行;中国农业银行,160107,B000A80T9U,金融保险服务,银行,中国农业银行,
116.26849606225039,40.02975739454663,中国工商银行24小时自助银行(马连洼支行),马连洼兰园小区16号楼1层,北京市,北京市,西北旺,金融保险服务;自动提款机;中国工商银行ATM,160302,B000A8UQY5,金融保险服务,自动提款机,中国工商银行ATM,
116.2790182886798,40.043367247156105,中国民生银行(北京中关村软件园支行),东北旺西路软通动力大厦10号院16号楼,北京市,北京市,西北旺,金融保险服务;银行;中国民生银行,160112,B0FFH8JJS6,金融保险服务,银行,中国民生银行,
116.26814550856105,40.02874276446317,北京农商银行(马连洼分理处),马连洼梅园小区7号楼一层,北京市,北京市,西北旺,金融保险服务;银行;北京农商银行,160149,B000A7Q2NT,金融保险服务,银行,北京农商银行,
116.2773109539958,40.0322609139977,江苏银行(北京上地支行),马连洼北路亿城国际中心1层,北京市,北京市,马连洼,金融保险服务;银行;银行,160100,B0FFG3VS9A,金融保险服务,银行,银行,
116.27390726060199,40.023229261830956,中国建设银行(圆西路支行),圆西路2号中国农业大学西校区科技一条街1层105号,北京市,北京市,马连洼,金融保险服务;银行;中国建设银行,160106,B0FFFH8TA5,金融保险服务,银行,中国建设银行,
116.26576471649406,40.019250282035,北京农商银行(天秀分理处),天秀花园安和园2号楼4单元东侧至5单元西侧首层,北京市,北京市,马连洼,金融保险服务;银行;北京农商银行,160149,B000A7Q2QO,金融保险服务,银行,北京农商银行,
116.2713985023744,40.019413088261025,中国工商银行(北京天秀支行),天秀路10号,北京市,北京市,马连洼,金融保险服务;银行;中国工商银行,160105,B000A80TCQ,金融保险服务,银行,中国工商银行,
116.25106359103603,40.04824707579934,中国工商银行(百旺新城支行),百旺茉莉园18-19号楼间0103-0104、0203-0204号房,北京市,北京市,西北旺,金融保险服务;银行;中国工商银行,160105,B000A7VSG6,金融保险服务,银行,中国工商银行,
116.25293929322956,40.04071586787818,中国邮政储蓄银行(西北旺支行),黑山扈路付家窑36号,北京市,北京市,马连洼,金融保险服务;银行;中国邮政储蓄银行,160139,B000A7YIWY,金融保险服务,银行,中国邮政储蓄银行,
116.28979893592145,40.023409198250896,中国建设银行(农大南路支行),农大南路厢黄旗1号楼103-104室(近博雅西园),北京市,北京市,马连洼,金融保险服务;银行;中国建设银行,160106,B000A7ZLWN,金融保险服务,银行,中国建设银行,
116.28112470882148,40.032358121990434,中国农业银行24小时自助银行(竹园支行),马连洼北路东居物业写字楼1层,北京市,北京市,马连洼,金融保险服务;自动提款机;中国农业银行ATM,160304,B000A80T9T,金融保险服务,自动提款机,中国农业银行ATM,
116.27785517664492,40.04873038907244,北京银行24自助银行服务,软件园北街与软件园西二路交叉口东北50米,北京市,北京市,西北旺,金融保险服务;自动提款机;北京银行ATM,160316,B0FFHOAAC4,金融保险服务,自动提款机,北京银行ATM,
116.27371700324606,40.02703328556693,华夏银行ATM,学苑四路中国农业大学西校区学生宿舍7号楼旁,北京市,北京市,西北旺,金融保险服务;自动提款机;华夏银行ATM,160307,B0FFGQ4AT4,金融保险服务,自动提款机,华夏银行ATM,
116.26001807468988,40.038680486168204,中信银行24小时自助银行(西山壹号院支行),永丰路东100米,北京市,北京市,西北旺,金融保险服务;自动提款机;中信银行ATM,160308,B0FFIISHWV,金融保险服务,自动提款机,中信银行ATM,
116.27839241834285,40.0490807123676,北京银行(中关村软件园支行),西北旺中关村软件园东北旺西路8号领创空间东北旺西路和后厂村路交叉口西南口,北京市,北京市,西北旺,金融保险服务;银行;北京银行,160119,B0FFHWI0KI,金融保险服务,银行,北京银行,
116.25104258621603,40.04829907905611,中国农业银行(北京茉莉园支行),西北旺百旺茉莉园11楼,北京市,北京市,西北旺,金融保险服务;银行;中国农业银行,160107,B000A7ZMAD,金融保险服务,银行,中国农业银行,
116.27852285926829,40.028224639429624,中国建设银行ATM(绿苑西路),圆明园西路2号中国农业大学西校区内,北京市,北京市,马连洼,金融保险服务;自动提款机;中国建设银行ATM,160303,B000A9VGKV,金融保险服务,自动提款机,中国建设银行ATM,
116.27021065271711,40.027905862397404,华夏银行ATM(中发百旺商城),圆明园西路18号中发百旺商城F1层,北京市,北京市,西北旺,金融保险服务;自动提款机;华夏银行ATM,160307,B000A9V4NA,金融保险服务,自动提款机,华夏银行ATM,
116.251222689964,40.0473480782331,北京银行(永丰支行),永丰路百旺茉莉园甲19号楼,北京市,北京市,西北旺,金融保险服务;银行;北京银行,160119,B000A7ZMAG,金融保险服务,银行,北京银行,
116.26568777343519,40.019282343915144,北京农商银行24小时自助银行(天秀分理处),天秀路22-2号,北京市,北京市,马连洼,金融保险服务;自动提款机;北京农商银行ATM,160346,B000A80TCG,金融保险服务,自动提款机,北京农商银行ATM,
116.28938166947125,40.023356838606894,中国工商银行(博雅西园支行),农大南路10号1层,北京市,北京市,马连洼,金融保险服务;银行;中国工商银行,160105,B000A7HJXM,金融保险服务,银行,中国工商银行,
116.27440387562633,40.02167978832134,中国邮政储蓄银行(农业大学支行),圆明园西路15号,北京市,北京市,马连洼,金融保险服务;银行;中国邮政储蓄银行,160139,B000A8XGLK,金融保险服务,银行,中国邮政储蓄银行,
116.26497981933929,40.01529910248154,中国建设银行(肖家河支行),龙背村99号BHG Mall北京华联龙背村购物中心F1层F1-13/14,北京市,北京市,马连洼,金融保险服务;银行;中国建设银行,160106,B0FFF3WY2I,金融保险服务,银行,中国建设银行,
116.28565467759586,40.049080024082045,工商银行软件开发中心,东北旺西路中关村软件园,北京市,北京市,上地,金融保险服务;银行相关;银行相关,160200,B000A886Z4,金融保险服务,银行相关,银行相关,
116.25304127769233,40.040695831834825,中国邮政储蓄银行ATM(西北旺支行),付家窑36号,北京市,北京市,西北旺,金融保险服务;自动提款机;中国邮政储蓄银行ATM,160336,B000A88A86,金融保险服务,自动提款机,中国邮政储蓄银行ATM,
116.27582957257819,40.02633595026326,中国建设银行24小时自助银行(圆西路储蓄所),圆明园西路2号中国农业大学西校区,北京市,北京市,马连洼,金融保险服务;自动提款机;中国建设银行ATM,160303,B000A8VSFU,金融保险服务,自动提款机,中国建设银行ATM,
116.26786594057147,40.01930047027941,中国邮政储蓄银行(天秀花园营业所),天秀路18-6,北京市,北京市,马连洼,金融保险服务;银行;中国邮政储蓄银行,160139,B0FFFFPVUI,金融保险服务,银行,中国邮政储蓄银行,
116.25850941397262,40.049824784641814,北京农商银行(百旺分理处),西北旺镇夏霖园13号楼1号,北京市,北京市,西北旺,金融保险服务;银行;北京农商银行,160149,B0GRGHR3N2,金融保险服务,银行,北京农商银行,
116.27258428077596,40.02699250014671,中国农业银行24小时自助银行(学苑三路)(暂停营业),圆明园西路2号中国农业大学西校区,北京市,北京市,西北旺,金融保险服务;自动提款机;中国农业银行ATM,160304,B000A9R6QT,金融保险服务,自动提款机,中国农业银行ATM,
116.25848850329749,40.01718644988126,国防大学邮政储蓄所,百望山中关村第三小学(红山校区),北京市,北京市,,金融保险服务;银行;中国邮政储蓄银行,160139,B0FFGIIA5K,金融保险服务,银行,中国邮政储蓄银行,
116.27219943878391,40.01310655731316,中国工商银行(北京大有支行),青龙桥,北京市,北京市,马连洼,金融保险服务;银行;中国工商银行,160105,B000A7RB1O,金融保险服务,银行,中国工商银行,
116.27901028266697,40.043502249927805,中国民生银行24小时自助银行(中关村软件园支行),软件园曲二路/软件园西二路(路口)东南200米,北京市,北京市,西北旺,金融保险服务;自动提款机;中国民生银行ATM,160309,B0FFH4WSAA,金融保险服务,自动提款机,中国民生银行ATM,
116.25805015643266,40.021497492690344,中国农业银行ATM(黑山扈路甲),黑山扈路甲17号解放军医院第二附属医院住院二部,北京市,北京市,,金融保险服务;自动提款机;中国农业银行ATM,160304,B0FFGY4XDV,金融保险服务,自动提款机,中国农业银行ATM,
116.26034863761667,40.01677435224531,中国工商银行ATM(北京国防大学支行),红山口甲3号1层,北京市,北京市,,金融保险服务;自动提款机;中国工商银行ATM,160302,B000A8XIKG,金融保险服务,自动提款机,中国工商银行ATM,
116.28194585984976,40.04549235088055,工行软件中心,中关村软件园孵化加速器23号楼5层,北京市,北京市,上地,金融保险服务;银行相关;银行相关,160200,B0FFHJ1G4K,金融保险服务,银行相关,银行相关,
116.25105258679399,40.04828807675103,中国农业银行24小时自助银行(茉莉园支行),永丰路221号237号,北京市,北京市,西北旺,金融保险服务;自动提款机;中国农业银行ATM,160304,B000A7ZMAE,金融保险服务,自动提款机,中国农业银行ATM,
116.26825741862275,40.028651667304246,北京农商银行24小时自助银行(马连洼分理处),圆明园西路3-2号,北京市,北京市,西北旺,金融保险服务;自动提款机;北京农商银行ATM,160346,B000A8XINW,金融保险服务,自动提款机,北京农商银行ATM,
116.28164258448666,40.043275873334245,中国建设银行,东北旺西路8号中关村软件园一期27号楼C座一层102号,北京市,北京市,上地,金融保险服务;银行;中国建设银行,160106,B0FFKO21K4,金融保险服务,银行,中国建设银行,
116.25286329083714,40.04083988874685,中国邮政储蓄银行24自助银行服务,黑山扈路与黑龙潭路交叉路口往东南约50米,北京市,北京市,西北旺,金融保险服务;自动提款机;中国邮政储蓄银行ATM,160336,B0HG0NVBBM,金融保险服务,自动提款机,中国邮政储蓄银行ATM,
116.28939963941245,40.023347811654745,中国工商银行24小时自助银行(博雅西园支行),农大南路10号首层,北京市,北京市,马连洼,金融保险服务;自动提款机;中国工商银行ATM,160302,B000A7ZLWM,金融保险服务,自动提款机,中国工商银行ATM,
116.27343388727523,40.022554808618274,北京农商银行24小时自助银行(圆明园西路),圆明园西路9-15号,北京市,北京市,马连洼,金融保险服务;自动提款机;北京农商银行ATM,160346,B0FFG8UST6,金融保险服务,自动提款机,北京农商银行ATM,
116.26034863761667,40.01677435224531,中国工商银行(北京国防大学支行),红山口甲3号中国人民解放军国防大学内,北京市,北京市,,金融保险服务;银行;中国工商银行,160105,B0FFFCO019,金融保险服务,银行,中国工商银行,
116.28045836982129,40.010779015287056,中国邮政储蓄银行(北京海淀区支行),圆明园西路49号,北京市,北京市,,金融保险服务;银行;中国邮政储蓄银行,160139,B000A81JSC,金融保险服务,银行,中国邮政储蓄银行,
116.27160328148182,40.01945687785287,中国工商银行24小时自助银行(北京天秀支行),天秀路10-5号,北京市,北京市,马连洼,金融保险服务;自动提款机;中国工商银行ATM,160302,B000A80TCR,金融保险服务,自动提款机,中国工商银行ATM,
116.28932427037671,40.04323291928775,中国农业银行24小时自助银行(软件园五号路),东北旺西路8号院31号楼,北京市,北京市,西北旺,金融保险服务;自动提款机;中国农业银行ATM,160304,B0FFFAHHDW,金融保险服务,自动提款机,中国农业银行ATM,
116.27434294133717,40.021726853667374,中国邮政储蓄银行24小时自助银行(农业大学支行),圆明园西路15号,北京市,北京市,马连洼,金融保险服务;自动提款机;中国邮政储蓄银行ATM,160336,B0FFFCLMLV,金融保险服务,自动提款机,中国邮政储蓄银行ATM,
116.25845244537082,40.04977781952444,北京农商银行24小时自助银行,德政路夏霖园13号楼1层,北京市,北京市,西北旺,金融保险服务;自动提款机;北京农商银行ATM,160346,B0FFF6SCQZ,金融保险服务,自动提款机,北京农商银行ATM,
116.26784296126228,40.01929849097334,中国邮政储蓄银行24小时自助银行(天秀路),天秀路18-6号,北京市,北京市,马连洼,金融保险服务;自动提款机;中国邮政储蓄银行ATM,160336,B0G0RDE72E,金融保险服务,自动提款机,中国邮政储蓄银行ATM,
116.27839139825217,40.04925170414283,北京银行24小时自助银行(中关村软件园支行),软件园北街与软件园西二路交叉口东北50米,北京市,北京市,西北旺,金融保险服务;自动提款机;北京银行ATM,160316,B0FFLI7Z8C,金融保险服务,自动提款机,北京银行ATM,
116.28960528275658,40.02333949812459,中国建设银行24小时自助银行(北京农大南路支行),农大南路41号,北京市,北京市,马连洼,金融保险服务;自动提款机;中国建设银行ATM,160303,B000A7ZLWO,金融保险服务,自动提款机,中国建设银行ATM,
116.2732346184088,40.01052658043448,中国农业银行ATM,北五环南,北京市,北京市,,金融保险服务;自动提款机;中国农业银行ATM,160304,B0FFLEVYJT,金融保险服务,自动提款机,中国农业银行ATM,
116.251191674685,40.04749207956515,北京银行24小时自助银行(永丰支行),东北旺,北京市,北京市,西北旺,金融保险服务;自动提款机;北京银行ATM,160316,B000A7ZMAH,金融保险服务,自动提款机,北京银行ATM,
116.27167203406178,40.012862112462955,中国邮政储蓄银行(中央党校储蓄所),大有北里148号楼,北京市,北京市,马连洼,金融保险服务;银行;中国邮政储蓄银行,160139,B000A9VG5J,金融保险服务,银行,中国邮政储蓄银行,
116.26498084193999,40.01511211026344,中国建设银行24小时自助银行(肖家河支行),龙背村路99号,北京市,北京市,马连洼,金融保险服务;自动提款机;中国建设银行ATM,160303,B0FFF5F3IB,金融保险服务,自动提款机,中国建设银行ATM,
116.27162109096248,40.01283816562395,中国邮政储蓄银行24小时自助银行(中央党校营业所),大有北里148号楼,北京市,北京市,马连洼,金融保险服务;自动提款机;中国邮政储蓄银行ATM,160336,B0FFFE9X00,金融保险服务,自动提款机,中国邮政储蓄银行ATM,
116.27310177092951,40.0105007238797,中国农业银行存取款一体机,大有庄北里100号北医三院中央党校院区附近(上河沿路),北京市,北京市,,金融保险服务;自动提款机;中国农业银行ATM,160304,B0FFHXQABM,金融保险服务,自动提款机,中国农业银行ATM,
116.28053926510566,40.01069691445377,中国邮政储蓄银行ATM(海淀区支行),圆明园西路49号,北京市,北京市,,金融保险服务;自动提款机;中国邮政储蓄银行ATM,160336,B0FFFEJUB6,金融保险服务,自动提款机,中国邮政储蓄银行ATM,
116.27537880810878,39.996923803050755,北京银行ATM机自助银行服务,新建宫门路19号颐和园附近,北京市,北京市,,金融保险服务;自动提款机;北京银行ATM,160316,B000AAF40B,金融保险服务,自动提款机,北京银行ATM,
116.28582146678289,39.99285447556136,中国工商银行(北京西苑支行),颐和园,北京市,北京市,西苑,金融保险服务;银行;中国工商银行,160105,B000A17CB5,金融保险服务,银行,中国工商银行,
116.28586344481806,39.99248843066685,中国邮政储蓄银行(西苑营业所),颐和园,北京市,北京市,西苑,金融保险服务;银行;中国邮政储蓄银行,160139,B000A7QRXT,金融保险服务,银行,中国邮政储蓄银行,
116.2908034162258,39.98955115354883,北京银行(万泉路支行),新建宫门路1号,北京市,北京市,西苑,金融保险服务;银行;北京银行,160119,B000A84C5L,金融保险服务,银行,北京银行,
116.25033403802692,39.9729067277189,中国民生银行(香山支行),闵庄路3号玉泉慧谷2期1号楼1层,北京市,北京市,,金融保险服务;银行;中国民生银行,160112,B0FFH0MUVL,金融保险服务,银行,中国民生银行,
116.25514124530567,40.00503468917929,中国银行(北京香山支行),香山路73号,北京市,北京市,,金融保险服务;银行;中国银行,160104,B000A8VNJ9,金融保险服务,银行,中国银行,
116.27457339617129,39.95995121595103,北京银行(四季青支行),蓝靛厂西路世纪城三期时雨园甲1-1号,北京市,北京市,四季青,金融保险服务;银行;北京银行,160119,B000A7XI17,金融保险服务,银行,北京银行,
116.27384325654333,39.959883024442114,交通银行(北京世纪城支行),蓝靛厂世纪城小区金夕园甲1号,北京市,北京市,世纪城,金融保险服务;银行;交通银行,160108,B000A2143F,金融保险服务,银行,交通银行,
116.28287517125634,39.96012991970987,平安银行(北京世纪金源支行),蓝靛厂东路2号院2号楼(金源时代商务中心2号楼)2-11,北京市,北京市,世纪城,金融保险服务;银行;平安银行,160117,B0FFFAH1DX,金融保险服务,银行,平安银行,
116.29010021322196,39.96919407092439,北京银行(万柳支行),万柳中路7号,北京市,北京市,万柳,金融保险服务;银行;北京银行,160119,B0FFHGLY58,金融保险服务,银行,北京银行,
116.28880381469683,39.966395159653324,中信银行(北京万柳支行),万柳中路星标家园5号楼,北京市,北京市,万柳,金融保险服务;银行;中信银行,160111,B000A7YX2T,金融保险服务,银行,中信银行,
116.28320666736875,39.96014146752665,中国工商银行(世纪金源支行),蓝靛厂东路2号院金源时代商务中心2号楼C座1B、1C,北京市,北京市,世纪城,金融保险服务;银行;中国工商银行,160105,B000A80CJB,金融保险服务,银行,中国工商银行,
116.24678213082107,39.97887418699179,北京农商银行(北坞分理处),北坞嘉园A地块配套公建A13号楼南侧,北京市,北京市,,金融保险服务;银行;北京农商银行,160149,B000A8XM4F,金融保险服务,银行,北京农商银行,
116.27745158704197,39.961834804519185,中国建设银行(远大中路支行),蓝靛厂中路春荫园8号楼(世纪城三期工程),北京市,北京市,世纪城,金融保险服务;银行;中国建设银行,160106,B000A7RBL2,金融保险服务,银行,中国建设银行,
116.29098514329687,39.96523185675671,北京银行(新华支行),万柳中路15号,北京市,北京市,万柳,金融保险服务;银行;北京银行,160119,B0FFFCOAHC,金融保险服务,银行,北京银行,
116.2858224616649,39.99288247295281,中国工商银行ATM(西苑支行),颐和园,北京市,北京市,西苑,金融保险服务;银行;中国工商银行|金融保险服务;自动提款机;中国工商银行ATM,160105|160302,B000A28B7B,金融保险服务,银行,中国工商银行|金融保险服务,自动提款机
116.25076188185872,40.00605722955196,中国工商银行(厢红旗支行),厢红旗1号,北京市,北京市,,金融保险服务;银行;中国工商银行,160105,B000A7HK14,金融保险服务,银行,中国工商银行,
116.29085999579377,39.96818693422073,中国银行(北京万柳中路支行),万柳中路六号院1号楼,北京市,北京市,万柳,金融保险服务;银行;中国银行,160104,B0FFFAIUIC,金融保险服务,银行,中国银行,
116.28216224398894,39.96008288291268,兴业银行(北京金源支行),四季青,北京市,北京市,世纪城,金融保险服务;银行;兴业银行,160118,B000A7QXN2,金融保险服务,银行,兴业银行,
116.2754836850465,39.964895992240315,中国民生银行(北京世纪城观山园社区支行),蓝靛厂路世纪城观山园小区北门5号楼,北京市,北京市,世纪城,金融保险服务;银行;中国民生银行,160112,B0FFFVDKDV,金融保险服务,银行,中国民生银行,
116.29142310239925,39.96727808976387,中国民生银行(北京万柳支行),万柳中路6号院2号楼,北京市,北京市,万柳,金融保险服务;银行;中国民生银行,160112,B000ABBXWT,金融保险服务,银行,中国民生银行,
116.28074859798642,40.005656868008494,北京农商银行(大有庄分理处),燕北园334号楼1层西大厅,北京市,北京市,,金融保险服务;银行;北京农商银行,160149,B000A7Q2JC,金融保险服务,银行,北京农商银行,
116.27834365047082,39.95991879525702,中国民生银行(世纪金源支行),蓝靛厂中路垂虹园甲4号,北京市,北京市,世纪城,金融保险服务;银行;中国民生银行,160112,B000A8WBTR,金融保险服务,银行,中国民生银行,
116.28176384337723,39.95999141765639,华夏银行(北京世纪城支行),蓝靛厂东路金源时代商务中心A座1层,北京市,北京市,世纪城,金融保险服务;银行;华夏银行,160110,B000A54BCA,金融保险服务,银行,华夏银行,
116.24446238400449,40.00531727712335,中国农业银行(香山路支行),林科院院内,北京市,北京市,香山,金融保险服务;银行;中国农业银行,160107,B0FFFAD7N7,金融保险服务,银行,中国农业银行,
116.28794927683708,39.96632844373263,中国工商银行(北京万柳支行),万柳中路万柳星标家园11号楼商业1号大厦底商,北京市,北京市,万柳,金融保险服务;银行;中国工商银行,160105,B000A7RAZ9,金融保险服务,银行,中国工商银行,
116.28064317137252,40.00228315278315,中国工商银行ATM,坡上村12号国际关系学院,北京市,北京市,,金融保险服务;自动提款机;中国工商银行ATM,160302,B000A83ES0,金融保险服务,自动提款机,中国工商银行ATM,
116.28998996083418,39.972750098274815,上海浦东发展银行24小时自助银行(巴沟路),巴沟路2号北京华联万柳购物中心旁,北京市,北京市,万柳,金融保险服务;自动提款机;上海浦东发展银行ATM|金融保险服务;银行;上海浦东发展银行,160312|160115,B0FFIBM5J4,金融保险服务,自动提款机,上海浦东发展银行ATM|金融保险服务,银行
116.29144553281135,39.96352420379469,中国建设银行(北京万柳支行),万柳中路35号蜂鸟家园2号楼,北京市,北京市,万柳,金融保险服务;银行;中国建设银行,160106,B000A80CW4,金融保险服务,银行,中国建设银行,
116.28175278093906,39.9606204074506,北京农商银行(世纪城支行),蓝靛厂晴波园甲5号楼,北京市,北京市,世纪城,金融保险服务;银行;北京农商银行,160149,B0FFF9URXN,金融保险服务,银行,北京农商银行,
116.2737352981523,39.96054311606763,中国邮政储蓄银行(世纪城支行),四季青,北京市,北京市,四季青,金融保险服务;银行;中国邮政储蓄银行,160139,B000A7QD45,金融保险服务,银行,中国邮政储蓄银行,
116.29092020573158,39.989570970792926,北京银行24小时自助银行(万泉路支行),新建宫门路1号,北京市,北京市,西苑,金融保险服务;自动提款机;北京银行ATM,160316,B000A84JOH,金融保险服务,自动提款机,北京银行ATM,
116.2804577164487,39.96009112384699,中国光大银行(金源支行),三环到四环之间蓝靛厂路世纪城垂虹园甲5号,北京市,北京市,世纪城,金融保险服务;银行;中国光大银行,160113,B000A7V49O,金融保险服务,银行,中国光大银行,
116.2486787342119,39.967339334151696,中国邮政储蓄银行(闵航路营业所),闵航路2号西郊机场综合办公楼一层,北京市,北京市,,金融保险服务;银行;中国邮政储蓄银行,160139,B0FFHB30ME,金融保险服务,银行,中国邮政储蓄银行,
116.29241523347297,39.95986881518463,华夏银行(万柳中路支行),万柳中路35号蜂鸟社区4号楼底商(中关村三小北侧),北京市,北京市,万柳,金融保险服务;银行;华夏银行,160110,B0FFGSQWU4,金融保险服务,银行,华夏银行,
116.25057802498492,39.972914661928534,中国民生银行24小时自助银行(北京香山支行),北京市海淀区闵庄路,北京市,北京市,,金融保险服务;自动提款机;中国民生银行ATM,160309,B0FFHEJM9M,金融保险服务,自动提款机,中国民生银行ATM,
116.29238728965139,39.95982786128568,华夏银行(北京万柳支行),万柳中路31号,北京市,北京市,万柳,金融保险服务;银行;华夏银行,160110,B000A6F6DF,金融保险服务,银行,华夏银行,
116.2745903760962,39.959951197013744,北京银行24小时自助银行(四季青支行),老营房路兰靛厂时雨园甲1-1号,北京市,北京市,四季青,金融保险服务;自动提款机;北京银行ATM,160316,B000A7YX0T,金融保险服务,自动提款机,北京银行ATM,
116.28845615959665,39.99231062756595,北京农商银行24小时自助银行(西苑支行),颐和园,北京市,北京市,西苑,金融保险服务;自动提款机;北京农商银行ATM,160346,B000A7Q2RQ,金融保险服务,自动提款机,北京农商银行ATM,
116.29004428758545,39.96938414943915,北京银行ATM(万柳支行),万柳中路7号万柳医院医疗辅楼,北京市,北京市,万柳,金融保险服务;自动提款机;北京银行ATM,160316,B0FFIP11RG,金融保险服务,自动提款机,北京银行ATM,
116.28587343330281,39.99245141786759,中国邮政储蓄银行24小时自助银行(西苑营业所),西苑操场2号,北京市,北京市,西苑,金融保险服务;自动提款机;中国邮政储蓄银行ATM,160336,B0G07U2RG7,金融保险服务,自动提款机,中国邮政储蓄银行ATM,
116.2550892835499,40.00484572047221,中国银行24小时自助银行(北京香山支行),军科南门西侧1层(香山路73附近),北京市,北京市,,金融保险服务;自动提款机;中国银行ATM,160301,B0FFFACPSR,金融保险服务,自动提款机,中国银行ATM,
116.24993525332728,39.971284894613795,华夏银行ATM(青泉汽车家园达士行),闵庄路甲16号达士行汽车销售大厅内,北京市,北京市,,金融保险服务;自动提款机;华夏银行ATM,160307,B000A9V4NE,金融保险服务,自动提款机,华夏银行ATM,
116.27553262254428,39.96491793538177,中国民生银行24小时自助银行(观山园社区支行),蓝靛厂路观山园5-7-B1G,北京市,北京市,世纪城,金融保险服务;自动提款机;中国民生银行ATM,160309,B0FFFAIKZK,金融保险服务,自动提款机,中国民生银行ATM,
116.28332049293641,39.960149311421105,中国工商银行24小时自助银行(世纪金源支行),老营房路金源时代商务中心C座一层,北京市,北京市,世纪城,金融保险服务;自动提款机;中国工商银行ATM,160302,B000A80CJC,金融保险服务,自动提款机,中国工商银行ATM,
116.2858834121457,39.99249140183933,中国邮政储蓄银行24小时自助银行,颐和园北宫门青龙桥三叉口84号,北京市,北京市,西苑,金融保险服务;自动提款机;中国邮政储蓄银行ATM,160336,B000A84JNR,金融保险服务,自动提款机,中国邮政储蓄银行ATM,
116.27749555557475,39.96162875974897,中国建设银行24小时自助银行(北京远大中路支行),蓝靛厂中路春荫园8号楼(世纪城三期工程),北京市,北京市,世纪城,金融保险服务;自动提款机;中国建设银行ATM,160303,B000A51DDC,金融保险服务,自动提款机,中国建设银行ATM,
116.27387622132028,39.959860989293716,交通银行24小时自助银行(世纪城支行)(装修中),蓝靛厂世纪城小区金夕园甲1号,北京市,北京市,四季青,金融保险服务;自动提款机;交通银行ATM,160305,B000A7YX0U,金融保险服务,自动提款机,交通银行ATM,
116.24672009626953,39.979083186519816,北京农商银行24小时自助银行(北坞分理处),四季青北坞嘉园东小街,北京市,北京市,,金融保险服务;自动提款机;北京农商银行ATM,160346,B000A8XLV5,金融保险服务,自动提款机,北京农商银行ATM,
116.29093584588576,39.96830481130811,中国银行24小时自助银行(万柳中路支行),万柳中路6号院1号楼1层,北京市,北京市,万柳,金融保险服务;自动提款机;中国银行ATM,160301,B0FFFAIUI7,金融保险服务,自动提款机,中国银行ATM,
116.28211332599868,39.96000695136836,兴业银行24小时自助银行(北京金源支行),蓝靛厂东路2号院金源时代商务中心2号楼A座1层,北京市,北京市,世纪城,金融保险服务;自动提款机;兴业银行ATM,160315,B000A80CJ6,金融保险服务,自动提款机,兴业银行ATM,
116.28870698749714,39.96634030791575,中信银行24小时自助银行(万柳支行),万柳星标家园5号,北京市,北京市,万柳,金融保险服务;自动提款机;中信银行ATM,160308,B000A7YX2U,金融保险服务,自动提款机,中信银行ATM,
116.29094022840407,39.965191928408494,北京银行24小时自助银行(新华支行),万柳中路15号楼1层,北京市,北京市,万柳,金融保险服务;自动提款机;北京银行ATM,160316,B000A1A0B4,金融保险服务,自动提款机,北京银行ATM,
116.27212787056138,39.962270756721125,交通银行ATM(蓝靛厂西路),蓝靛厂西路11号世纪华天大酒店1层,北京市,北京市,世纪城,金融保险服务;自动提款机;交通银行ATM,160305,B0FFF6XZNM,金融保险服务,自动提款机,交通银行ATM,
116.29135622403864,39.967266195204964,中国民生银行24小时自助银行(北京万柳支行),万柳中路和万泉庄路的交叉口附近,北京市,北京市,万柳,金融保险服务;自动提款机;中国民生银行ATM,160309,B0FFHR0V40,金融保险服务,自动提款机,中国民生银行ATM,
116.27368435937544,39.96052017239299,中国邮政储蓄银行24小时自助银行(世纪城支行),四季青,北京市,北京市,四季青,金融保险服务;自动提款机;中国邮政储蓄银行ATM,160336,B000A7QD46,金融保险服务,自动提款机,中国邮政储蓄银行ATM,
116.25061291094588,40.00589727789911,中国工商银行ATM(厢红旗分理处),厢红旗1号,北京市,北京市,,金融保险服务;自动提款机;中国工商银行ATM,160302,B000A9S2Z3,金融保险服务,自动提款机,中国工商银行ATM,
116.2444063727587,40.005293280463896,中国农业银行24小时自助银行(香山路支行),香山路8号林科院院内,北京市,北京市,香山,金融保险服务;自动提款机;中国农业银行ATM,160304,B0FFFAD7NY,金融保险服务,自动提款机,中国农业银行ATM,
116.2925320141639,39.95991462730372,华夏银行ATM(万柳支行),万柳中路31号,北京市,北京市,万柳,金融保险服务;自动提款机;华夏银行ATM,160307,B000A2ED90,金融保险服务,自动提款机,华夏银行ATM,
116.29059868758962,39.966371412789435,中国光大银行24小时自助银行(万柳支行),万柳中路11号派顿大厦1层,北京市,北京市,万柳,金融保险服务;自动提款机;中国光大银行ATM,160310,B000AA0OH6,金融保险服务,自动提款机,中国光大银行ATM,
116.29056773677738,39.96641645901207,中国光大银行(万柳支行),万柳中路11号派顿大厦1层(海淀国税局对面),北京市,北京市,万柳,金融保险服务;银行;中国光大银行,160113,B000A9MXLW,金融保险服务,银行,中国光大银行,
116.28182274732643,39.96006733640231,华夏银行24小时自助银行(北京世纪城支行),蓝靛厂东路1号院金源时代商务中心A座1层1A、E,北京市,北京市,世纪城,金融保险服务;自动提款机;华夏银行ATM,160307,B000A2B1D9,金融保险服务,自动提款机,华夏银行ATM,
116.28087940834911,40.005673697057404,北京农商银行24小时自助银行(大有庄分理处),圆明园西路北大燕北园334号楼1层,北京市,北京市,,金融保险服务;自动提款机;北京农商银行ATM,160346,B0FFFFXZRG,金融保险服务,自动提款机,北京农商银行ATM,
116.2914615107263,39.96347118079906,中国建设银行24小时自助银行(万柳支行),万柳中路35号蜂鸟家园2号楼,北京市,北京市,万柳,金融保险服务;自动提款机;中国建设银行ATM,160303,B000A80CW5,金融保险服务,自动提款机,中国建设银行ATM,
116.28291412131914,39.96005886959939,平安银行24小时自助银行(世纪金源支行),蓝靛厂东路金源时代商务中心C座2号院2号楼,北京市,北京市,世纪城,金融保险服务;自动提款机;平安银行ATM,160314,B0FFFAH48B,金融保险服务,自动提款机,平安银行ATM,
116.2818676128983,39.960614255092935,北京农商银行24小时自助银行(世纪城支行),老营房路与蓝靛厂东路交叉口东100米,北京市,北京市,世纪城,金融保险服务;自动提款机;北京农商银行ATM|金融保险服务;银行;北京农商银行,160346|160149,B0FFF9URXM,金融保险服务,自动提款机,北京农商银行ATM|金融保险服务,银行
116.27834365434036,39.95988779647826,中国民生银行24小时自助银行(北京世纪金源支行),蓝靛厂垂虹园甲4号楼,北京市,北京市,世纪城,金融保险服务;自动提款机;中国民生银行ATM,160309,B000AA1ZH0,金融保险服务,自动提款机,中国民生银行ATM,
116.28035885575129,39.96009725108193,中国光大银行24小时自助银行(金源支行),蓝靛厂垂虹园甲5,北京市,北京市,世纪城,金融保险服务;自动提款机;中国光大银行ATM,160310,B000A207E0,金融保险服务,自动提款机,中国光大银行ATM,
116.27079504497233,39.93199831256908,中国农业银行(玲珑路支行),西四环北路158-1号慧科大厦,北京市,北京市,四季青,金融保险服务;银行;中国农业银行,160107,B000A84CFD,金融保险服务,银行,中国农业银行,
116.2767529919505,39.933759752077364,北京银行(玉渊潭支行),美丽园中路16号院5,北京市,北京市,四季青,金融保险服务;银行;北京银行,160119,B0FFG39YN5,金融保险服务,银行,北京银行,
116.26956710316243,39.941303135673365,中国邮政储蓄银行(金雅园支行),西四环北路,北京市,北京市,四季青,金融保险服务;银行;中国邮政储蓄银行,160139,B000A7PMBH,金融保险服务,银行,中国邮政储蓄银行,
116.27133473370702,39.92200917929999,北京农商银行(定慧寺分理处),阜成路68号,北京市,北京市,五棵松,金融保险服务;银行;北京农商银行,160149,B000A7C82D,金融保险服务,银行,北京农商银行,
116.27024388036766,39.92974894646272,中国邮政储蓄银行(玲珑路支行),西四环北路160号玲珑天地大厦C座,北京市,北京市,四季青,金融保险服务;银行;中国邮政储蓄银行,160139,B0FFHD27XC,金融保险服务,银行,中国邮政储蓄银行,
116.26710090021447,39.936860562531834,中国工商银行24小时自助银行(翠微路金四季支行),四季青桥南300米路-西北100米,北京市,北京市,四季青,金融保险服务;自动提款机;中国工商银行ATM,160302,B0FFLHZ77X,金融保险服务,自动提款机,中国工商银行ATM,
116.2689582658875,39.936622896779305,北京农商银行(五路居分理处),西四环北路136号金泰海博大酒店一层102-106房,北京市,北京市,四季青,金融保险服务;银行;北京农商银行,160149,B0FFGIJGTQ,金融保险服务,银行,北京农商银行,
116.27072719303507,39.91531506742121,中国农业银行(万寿路支行营业部),西四环中路16号院6号楼1层,北京市,北京市,五棵松,金融保险服务;银行;中国农业银行,160107,B000A87SEE,金融保险服务,银行,中国农业银行,
116.28336778465122,39.94124999506037,北京农商银行(曙光花园分理处),彰化路7号楼F101,北京市,北京市,四季青,金融保险服务;银行;北京农商银行,160149,B000A7CIJI,金融保险服务,银行,北京农商银行,
116.27074809227015,39.932002359040276,中国农业银行ATM(玲珑路支行),西四环北路158-1号慧科大厦,北京市,北京市,四季青,金融保险服务;自动提款机;中国农业银行ATM,160304,B000A84M8J,金融保险服务,自动提款机,中国农业银行ATM,
116.2527791122666,39.94616702730873,北京农商银行(杏石路支行),杏石口路甲29号,北京市,北京市,,金融保险服务;银行;北京农商银行,160149,B000A7Q2SO,金融保险服务,银行,北京农商银行,
116.26688608228802,39.936862748657305,中国工商银行(金四季支行),西四环北路125号德润科技大厦一层101-106号,北京市,北京市,四季青,金融保险服务;银行;中国工商银行,160105,B0FFKLWFJN,金融保险服务,银行,中国工商银行,
116.25506189567226,39.927757855241175,中国邮政储蓄银行(田村路邮政所),半壁店永定路乙1号院3号楼1层(近田村路邮电所),北京市,北京市,,金融保险服务;银行;中国邮政储蓄银行|生活服务;邮局;邮局,160139|070400,B0FFFPPGZ7,金融保险服务,银行,中国邮政储蓄银行|生活服务,邮局
116.26959653537156,39.91353224308831,广发银行(五棵松支行),西四环中路16号院中国国电1楼,北京市,北京市,五棵松,金融保险服务;银行;广发银行,160120,B000A87POV,金融保险服务,银行,广发银行,
116.26896127627715,39.936516898213824,北京农商银行24小时自助银行(五路居分理处),金泰海博大酒店1层,北京市,北京市,四季青,金融保险服务;自动提款机;北京农商银行ATM|金融保险服务;自动提款机;农村商业银行ATM,160346|160318,B0FFGIJGTP,金融保险服务,自动提款机,北京农商银行ATM|金融保险服务,自动提款机
116.26528305837316,39.93941298643008,中国光大银行四季青办公区,通汇路12号,北京市,北京市,四季青,金融保险服务;银行相关;银行相关,160200,B0HALH3ZVX,金融保险服务,银行相关,银行相关,
116.257718007578,39.92755156424063,中国建设银行(乐府江南支行),永定路乙1号乐府商厦1号楼1层,北京市,北京市,,金融保险服务;银行;中国建设银行,160106,B000A8W9X6,金融保险服务,银行,中国建设银行,
116.28037254577433,39.92240574253916,交通银行(定慧寺支行),阜成路58号新洲商务大厦1层,北京市,北京市,五棵松,金融保险服务;银行;交通银行,160108,B000A4D209,金融保险服务,银行,交通银行,
116.25488038491623,39.91618141259242,北京农商银行(铁家坟分理处),金沟河路10号院1号楼,北京市,北京市,,金融保险服务;银行;北京农商银行,160149,B000A7Q2FS,金融保险服务,银行,北京农商银行,
116.28082176237864,39.92356011328965,中国建设银行(北京恩济支行),阜成路101号永兴花园饭店,北京市,北京市,,金融保险服务;银行;中国建设银行,160106,B000A11D58,金融保险服务,银行,中国建设银行,
116.2701308992382,39.93049702618706,中国建设银行(北京定慧北桥支行),西四环北路160号玲珑天地大厦1层,北京市,北京市,四季青,金融保险服务;银行;中国建设银行,160106,B000AA0AWO,金融保险服务,银行,中国建设银行,
116.28156645390459,39.94142441430886,中国农业银行(北京曙光支行),曙光花园中路11号北京农科大厦首层B103,北京市,北京市,四季青,金融保险服务;银行;中国农业银行,160107,B000A7ZWJZ,金融保险服务,银行,中国农业银行,
116.27017786616736,39.93038898486795,中国建设银行24小时自助银行(北京定慧北桥支行),西四环北路与西四环北路出口交叉口东北150米,北京市,北京市,四季青,金融保险服务;自动提款机;中国建设银行ATM,160303,B0FFIY0WJ8,金融保险服务,自动提款机,中国建设银行ATM,
116.28401684808183,39.94075211909076,中国工商银行(北京曙光支行),八里庄彰化路,北京市,北京市,四季青,金融保险服务;银行;中国工商银行,160105,B000A7YXYD,金融保险服务,银行,中国工商银行,
116.2746674401719,39.950699476374815,北京银行(世纪城支行),板井路69号世纪金源国际公寓东区1层,北京市,北京市,世纪城,金融保险服务;银行;北京银行,160119,B000A6C151,金融保险服务,银行,北京银行,
116.2803156169994,39.930488485023794,中国邮政储蓄银行(恩济里邮政所),西八里庄福苑小区,北京市,北京市,,金融保险服务;银行;中国邮政储蓄银行,160139,B000A81INQ,金融保险服务,银行,中国邮政储蓄银行,
116.25887868158587,39.92609097477152,上海浦东发展银行(北京雅世合金小微支行),永定路2号院6号楼1层6-1,北京市,北京市,,金融保险服务;银行;上海浦东发展银行,160115,B0FFFZCEZT,金融保险服务,银行,上海浦东发展银行,
116.26592693516162,39.95239194497174,中国建设银行(四季青支行),四季青路8号1层161-163号,北京市,北京市,四季青,金融保险服务;银行;中国建设银行,160106,B000A85UMU,金融保险服务,银行,中国建设银行,
116.27019390783391,39.92992698796765,中国邮政储蓄银行24小时自助银行(玲珑路支行),五棵松路32号东90米,北京市,北京市,四季青,金融保险服务;自动提款机;中国邮政储蓄银行ATM,160336,B0FFHGJOSI,金融保险服务,自动提款机,中国邮政储蓄银行ATM,
116.28759120582671,39.92377067642795,中国工商银行(翠微路支行),阜成路79号黎昌海鲜酒楼,北京市,北京市,,金融保险服务;银行;中国工商银行,160105,B000A79BD1,金融保险服务,银行,中国工商银行,
116.2712709186084,39.95313499473038,北京农商银行(四季青支行),板井路81号,北京市,北京市,世纪城,金融保险服务;银行;北京农商银行,160149,B000A81J6X,金融保险服务,银行,北京农商银行,
116.28603974916878,39.93187461230428,兴业银行(玲珑路支行),琨御府东区5号楼,北京市,北京市,,金融保险服务;银行;兴业银行,160118,B0G05UKIKZ,金融保险服务,银行,兴业银行,
116.27254761592764,39.952645698630896,中国工商银行(北京世纪城支行),板井路77号,北京市,北京市,四季青,金融保险服务;银行;中国工商银行,160105,B000A0E10E,金融保险服务,银行,中国工商银行,
116.28037201181694,39.958700289383884,招商银行(世纪城支行),西顶路蓝靛厂垂虹园甲1号,北京市,北京市,世纪城,金融保险服务;银行;招商银行,160109,B000A1C871,金融保险服务,银行,招商银行,
116.25813896379033,39.92648437802068,中国光大银行(北京乐府江南社区支行),永定路乙1-38号,北京市,北京市,,金融保险服务;银行;中国光大银行,160113,B0FFG0ZOBC,金融保险服务,银行,中国光大银行,
116.27675299182586,39.933760752037244,北京银行24小时自助银行(玉渊潭支行),美丽园中路16号院5,北京市,北京市,四季青,金融保险服务;自动提款机;北京银行ATM,160316,B0FFGK14A4,金融保险服务,自动提款机,北京银行ATM,
116.24817443602791,39.929338936893714,北京农商银行(京粮广场分理处),田村路43号环京现代物流设施项目A-1F-103,北京市,北京市,,金融保险服务;银行;北京农商银行,160149,B0FFF5TMD5,金融保险服务,银行,北京农商银行,
116.2807235353425,39.92650312009432,中国建设银行(恩济里储蓄所),恩济里小区27号楼底商首层,北京市,北京市,,金融保险服务;银行;中国建设银行,160106,B000A77AF0,金融保险服务,银行,中国建设银行,
116.28609967732174,39.93167153409,中国建设银行(北京成远支行),玲珑路9号院东区5号楼1层105室,北京市,北京市,,金融保险服务;银行;中国建设银行,160106,B0GR3OLK2C,金融保险服务,银行,中国建设银行,
116.27986098820833,39.94863534187817,中国建设银行(北京世纪城支行),板井路59号世纪城6区首层(世纪金源大饭店东200米),北京市,北京市,世纪城,金融保险服务;银行;中国建设银行,160106,B000A42992,金融保险服务,银行,中国建设银行,
116.28155845333852,39.94152242098211,中国建设银行(北京曙光花园支行),曙光花园中路11号北京农科大厦B座1层,北京市,北京市,四季青,金融保险服务;银行;中国建设银行,160106,B000A7RBJK,金融保险服务,银行,中国建设银行,
116.24773231004572,39.930078983750754,中国建设银行(北京田村路支行),田村路43号京粮广场1层,北京市,北京市,,金融保险服务;银行;中国建设银行,160106,B0FFF5TMCW,金融保险服务,银行,中国建设银行,
116.28484331764967,39.93464820665221,中国邮政储蓄银行(彰化南路营业所),蓝靛厂南路西侧彰化南路颐慧佳园一期6号楼1层底商彰化南路,北京市,北京市,,金融保险服务;银行;中国邮政储蓄银行,160139,B0FFFAH8Z5,金融保险服务,银行,中国邮政储蓄银行,
116.28203161477037,39.958665113626644,广发银行(世纪城支行),燕莎友谊商城北门对面居然之家1层,北京市,北京市,世纪城,金融保险服务;银行;广发银行,160120,B0FFFAH0YZ,金融保险服务,银行,广发银行,
116.29234413741467,39.94571648863192,中国农业银行(紫竹桥支行),紫竹院路81号院3号楼1层,北京市,北京市,,金融保险服务;银行;中国农业银行,160107,B000A80CNQ,金融保险服务,银行,中国农业银行,
116.28692060660434,39.94546878875774,上海浦东发展银行(紫竹院支行),紫竹院路116号嘉豪国际中心C座,北京市,北京市,四季青,金融保险服务;银行;上海浦东发展银行,160115,B000A83H57,金融保险服务,银行,上海浦东发展银行,
116.29244663020317,39.92432218782463,北京农商银行(裕惠分理处),阜成路73号裕惠大厦C座一层,北京市,北京市,,金融保险服务;银行;北京农商银行,160149,B000A8U6QU,金融保险服务,银行,北京农商银行,
116.27096440564367,39.9277153174751,中国邮政储蓄银行24小时自助银行,恩济路,北京市,北京市,,金融保险服务;自动提款机;中国邮政储蓄银行ATM,160336,B0FFG733TN,金融保险服务,自动提款机,中国邮政储蓄银行ATM,
116.24436606457938,39.92737043551192,中国民生银行(北京兰德华庭社区支行),畅茜园兰德华庭6,北京市,北京市,,金融保险服务;银行;中国民生银行,160112,B0FFF9TDUX,金融保险服务,银行,中国民生银行,
116.2784107138977,39.95869376116846,中信银行(世纪城支行),蓝靛厂垂虹园甲2号,北京市,北京市,世纪城,金融保险服务;银行;中信银行,160111,B000A7REMP,金融保险服务,银行,中信银行,
116.27416678842928,39.912540582797085,交通银行(北京五棵松支行),复兴路69号中国中铁广场C座,北京市,北京市,五棵松,金融保险服务;银行;交通银行,160108,B000A84E7Q,金融保险服务,银行,交通银行,
116.29242180236987,39.923309269128744,中国银行(北京航天桥支行),阜成路73号裕惠大厦A座1层,北京市,北京市,,金融保险服务;银行;中国银行,160104,B000A7RDFD,金融保险服务,银行,中国银行,
116.28641218144848,39.92356841281683,北京农商银行(玉渊潭支行),阜成路81号,北京市,北京市,五棵松,金融保险服务;银行;北京农商银行,160149,B000A4E0D2,金融保险服务,银行,北京农商银行,
116.25936726617276,39.92755462721714,中国民生银行24小时自助银行(乐府江南社区支行),永定路2号院5-2,北京市,北京市,,金融保险服务;自动提款机;中国民生银行ATM,160309,B0FFFAHVPH,金融保险服务,自动提款机,中国民生银行ATM,
116.2800735608828,39.95767371322512,中国银行(北京远大路支行),远大路1号世纪金源购物中心西区1F层,北京市,北京市,世纪城,金融保险服务;银行;中国银行,160104,B000A7CDBI,金融保险服务,银行,中国银行,
116.2751172076952,39.91619536641093,华夏银行(社区支行),西翠路17号院1号楼5,北京市,北京市,五棵松,金融保险服务;银行;华夏银行,160110,B0FFGNU3UM,金融保险服务,银行,华夏银行,
116.279111997074,39.94883827977074,中国光大银行(世纪城支行),板井路59号,北京市,北京市,世纪城,金融保险服务;银行;中国光大银行,160113,B0FFHG7LDT,金融保险服务,银行,中国光大银行,
116.28045029188392,39.923557594739066,南京银行(北京分行营业部),阜成路101号永兴花园饭店B座及裙楼1-2层,北京市,北京市,,金融保险服务;银行;银行,160100,B0FFK4QOH4,金融保险服务,银行,银行,
116.24627416941428,39.921701526512884,兴业银行(玉泉路支行),玉泉路北里1区9号楼玉泉商业中心1层,北京市,北京市,,金融保险服务;银行;兴业银行,160118,B0FFL4SGE1,金融保险服务,银行,兴业银行,
116.27781367720459,39.95732454529369,中国农业银行(北京世纪城支行),蓝靛厂中路晨月园甲4号,北京市,北京市,世纪城,金融保险服务;银行;中国农业银行,160107,B000A84JJ3,金融保险服务,银行,中国农业银行,
116.25823264820912,39.91261590310661,中国农业银行(北京永通支行),永定路100号四环宾馆一层农业银行,北京市,北京市,,金融保险服务;银行;中国农业银行,160107,B000A7RC3I,金融保险服务,银行,中国农业银行,
116.2847923714534,39.934861269911735,中国民生银行(颐慧佳园社区支行),颐慧佳园6,北京市,北京市,,金融保险服务;银行;中国民生银行,160112,B0FFFZBF27,金融保险服务,银行,中国民生银行,
116.27525703911051,39.916194207899906,中国民生银行(北京紫金长安社区支行),西翠路17号院1号楼6,北京市,北京市,五棵松,金融保险服务;银行;中国民生银行,160112,B0FFFGQLO3,金融保险服务,银行,中国民生银行,
116.26733676781629,39.91221037049043,中国工商银行(北京西四环支行),西四环中路39-2号,北京市,北京市,五棵松,金融保险服务;银行;中国工商银行,160105,B000A7RB4W,金融保险服务,银行,中国工商银行,
116.26798445083476,39.958331929662506,中国工商银行(四季青支行),西四环北路9号,北京市,北京市,四季青,金融保险服务;银行;中国工商银行,160105,B000A843TG,金融保险服务,银行,中国工商银行,
116.27484145914127,39.956898036562976,上海浦东发展银行(世纪城支行),蓝靛厂西路晨月园甲1号楼,北京市,北京市,世纪城,金融保险服务;银行;上海浦东发展银行,160115,B000A80CI1,金融保险服务,银行,上海浦东发展银行,
116.28609963762068,39.931989521282844,兴业银行24小时自助银行,玲珑路(琨御府),北京市,北京市,,金融保险服务;自动提款机;兴业银行ATM,160315,B0HA1LHEP6,金融保险服务,自动提款机,兴业银行ATM,
116.25824261342053,39.91286088714326,上海浦东发展银行(北京永定路支行),永定路甲51号航天数控大楼北楼1层,北京市,北京市,,金融保险服务;银行;上海浦东发展银行,160115,B000A03B52,金融保险服务,银行,上海浦东发展银行,
116.28157841743639,39.94157639243845,中国建设银行24小时自助银行(曙光花园支行),曙光花园中路11号北京农科大厦,北京市,北京市,四季青,金融保险服务;自动提款机;中国建设银行ATM,160303,B0FFGOYD3R,金融保险服务,自动提款机,中国建设银行ATM,
116.25929030393294,39.927552673216304,中国民生银行(北京乐府江南社区支行),永定路2号院5-2,北京市,北京市,,金融保险服务;银行;中国民生银行,160112,B0FFJWLFOS,金融保险服务,银行,中国民生银行,
116.28480734806763,39.934859248883946,中国民生银行24小时自助银行(颐慧佳园社区支行),颐慧佳园6,北京市,北京市,,金融保险服务;自动提款机;中国民生银行ATM,160309,B0FFFAHVIT,金融保险服务,自动提款机,中国民生银行ATM,
116.25814096778113,39.92644537850324,中国光大银行24小时自助银行(江南社区支行),永定路乙1-38号,北京市,北京市,,金融保险服务;自动提款机;中国光大银行ATM,160310,B0FFFAHC8B,金融保险服务,自动提款机,中国光大银行ATM,
116.2885842297676,39.910154767377456,北京银行(万寿路支行),万寿路17号院综合楼B座(金九龙隔壁),北京市,北京市,五棵松,金融保险服务;银行;北京银行,160119,B000A80IVQ,金融保险服务,银行,北京银行,
116.25889367397838,39.92609596586329,上海浦东发展银行24小时自助银行(雅世合金小微支行),永定路2号院6号楼1层6-1,北京市,北京市,,金融保险服务;自动提款机;上海浦东发展银行ATM,160312,B0FFFZCEZU,金融保险服务,自动提款机,上海浦东发展银行ATM,
116.27119944278768,39.94952920920445,兴业银行24小时自助银行,西四环北路与常青园中街交叉路口往东约150米,北京市,北京市,四季青,金融保险服务;自动提款机;兴业银行ATM,160315,B0GRTLG50J,金融保险服务,自动提款机,兴业银行ATM,
116.26449103574024,39.952397101388804,中国邮政储蓄银行(郦城营业所),常青园路8号,北京市,北京市,四季青,金融保险服务;银行;中国邮政储蓄银行,160139,B0FFFEINFH,金融保险服务,银行,中国邮政储蓄银行,
116.25817408079601,39.91738273455636,中国邮政储蓄银行(铁家坟邮政所),金沟河路15号院1,北京市,北京市,,金融保险服务;银行;中国邮政储蓄银行,160139,B0FFIBGPH0,金融保险服务,银行,中国邮政储蓄银行,
116.24788299216195,39.91664751053685,中国工商银行(北京玉海园支行),玉泉路甲12号玉海园小区综合服务楼1层,北京市,北京市,,金融保险服务;银行;中国工商银行,160105,B000A8U82A,金融保险服务,银行,中国工商银行,
116.27383372227251,39.91616279471702,中国邮政储蓄银行(西翠路营业厅),西翠路17号院,北京市,北京市,五棵松,金融保险服务;银行;中国邮政储蓄银行,160139,B0FFFAIRQ6,金融保险服务,银行,中国邮政储蓄银行,
116.28161843816662,39.95693973107596,中国建设银行(北京金源支行),远大路1号世纪金源购物中心1层1017号,北京市,北京市,世纪城,金融保险服务;银行;中国建设银行,160106,B0FFJRIHNQ,金融保险服务,银行,中国建设银行,
116.28409373052706,39.94073801279784,中国工商银行24小时自助银行(曙光支行),彰化路10号,北京市,北京市,四季青,金融保险服务;自动提款机;中国工商银行ATM,160302,B000A7YXYE,金融保险服务,自动提款机,中国工商银行ATM,
116.27351102888404,39.91666212433433,中国建设银行(紫金长安支行),金沟河东路9号院金和嘉园底商,北京市,北京市,五棵松,金融保险服务;银行;中国建设银行,160106,B000A8VY43,金融保险服务,银行,中国建设银行,
116.28034258987121,39.92239178169547,交通银行24小时自助银行(定慧寺支行),阜成路58-1号,北京市,北京市,五棵松,金融保险服务;自动提款机;交通银行ATM,160305,B000A7WTYG,金融保险服务,自动提款机,交通银行ATM,
116.26555722916906,39.95238125002102,中国建设银行24小时自助银行(四季青支行),四季青路8号1层161-163号,北京市,北京市,四季青,金融保险服务;自动提款机;中国建设银行ATM,160303,B000A85X9R,金融保险服务,自动提款机,中国建设银行ATM,
116.25770001766654,39.9275295748084,中国建设银行24小时自助银行(乐府江南支行),永定路乙1号乐府商厦1号楼1层,北京市,北京市,,金融保险服务;自动提款机;中国建设银行ATM,160303,B000A8W9HJ,金融保险服务,自动提款机,中国建设银行ATM,
116.28033658637644,39.93049645771304,中国邮政储蓄银行24小时自助银行(恩济里营业所),西八里庄恩济里小区1号楼1层,北京市,北京市,,金融保险服务;自动提款机;中国邮政储蓄银行ATM,160336,B000A80VK6,金融保险服务,自动提款机,中国邮政储蓄银行ATM,
116.28085363108579,39.92424604356222,北京银行(阜裕支行),阜成路101号永兴花园饭店一层东北侧,北京市,北京市,,金融保险服务;银行;北京银行,160119,B0FFJOAEIH,金融保险服务,银行,北京银行,
116.28742251771955,39.92353093567116,中国工商银行24小时自助银行(翠微路支行),阜成路79号(黎昌海鲜酒楼东边),北京市,北京市,五棵松,金融保险服务;自动提款机;中国工商银行ATM,160302,B000A5BDA5,金融保险服务,自动提款机,中国工商银行ATM,
116.27905095510317,39.92582027950533,中国邮政储蓄银行24小时自助银行(恩济庄营业所)(装修中),恩济庄96-2号,北京市,北京市,,金融保险服务;自动提款机;中国邮政储蓄银行ATM,160336,B000A7RDKQ,金融保险服务,自动提款机,中国邮政储蓄银行ATM,
116.27762775636273,39.910579667295686,中国建设银行(育英储蓄所),万寿路西街甲11号院5号楼1层底商,北京市,北京市,五棵松,金融保险服务;银行;中国建设银行,160106,B000A10364,金融保险服务,银行,中国建设银行,
116.28154352199766,39.94114745565037,中国农业银行24小时自助银行(北京曙光支行),板井曙光中路农科大厦B座103,北京市,北京市,四季青,金融保险服务;自动提款机;中国农业银行ATM,160304,B000A7ZWK0,金融保险服务,自动提款机,中国农业银行ATM,
116.25277211192973,39.9461790293212,北京农商银行24小时自助银行(杏石路支行),杏石口路甲19号,北京市,北京市,,金融保险服务;自动提款机;北京农商银行ATM,160346,B000A8XI9R,金融保险服务,自动提款机,北京农商银行ATM,
116.2723848337744,39.95232488194104,中国工商银行24小时自助银行(世纪城支行),四季青,北京市,北京市,世纪城,金融保险服务;自动提款机;中国工商银行ATM,160302,B0G3Y5VKER,金融保险服务,自动提款机,中国工商银行ATM,
116.27351561625154,39.911907320796814,盛京银行(五棵松北路),复兴路69号3号楼(卓展购物中心北侧底商),北京市,北京市,五棵松,金融保险服务;银行;银行,160100,B0HB17GDIQ,金融保险服务,银行,银行,
116.27705439551188,39.911407319593195,中国光大银行(北京五棵松支行),复兴路69号华熙Live中心B座1层,北京市,北京市,五棵松,金融保险服务;银行;银行,160100,B0GRA76350,金融保险服务,银行,银行,
116.28649305094622,39.92355429598313,北京农商银行24小时自助银行(八里庄支行),阜成路81号,北京市,北京市,五棵松,金融保险服务;自动提款机;北京农商银行ATM,160346,B000A81J6W,金融保险服务,自动提款机,北京农商银行ATM,
116.27367292512253,39.95609435966972,北京银行ATM,远大路25号A座喜来登酒店大堂,北京市,北京市,四季青,金融保险服务;自动提款机;北京银行ATM,160316,B0FFHILIJM,金融保险服务,自动提款机,北京银行ATM,
116.24450912159809,39.92720443646442,中国民生银行ATM(田村路),畅茜园兰德华庭6号楼一层,北京市,北京市,,金融保险服务;自动提款机;中国民生银行ATM,160309,B0FFK93GLA,金融保险服务,自动提款机,中国民生银行ATM,
116.29122140779937,39.911841646073455,中国工商银行(翠微中里支行),玉渊潭南路85号君安写字楼1层,北京市,北京市,,金融保险服务;银行;中国工商银行,160105,B000A4A5B5,金融保险服务,银行,中国工商银行,
116.25507489428594,39.927739850248265,中国邮政储蓄银行24小时自助银行(田村路营业所),半壁店永定路乙1号院3号楼1层,北京市,北京市,,金融保险服务;自动提款机;中国邮政储蓄银行ATM,160336,B000A87E7G,金融保险服务,自动提款机,中国邮政储蓄银行ATM,
116.29105573451592,39.9595109734521,中国银行(北京万柳支行),万柳中路29号院2号楼1层,北京市,北京市,万柳,金融保险服务;银行;中国银行,160104,B000A85GSQ,金融保险服务,银行,中国银行,
116.27772653088158,39.91135151473053,中国银行(西翠路支行),万寿路西街甲11院7号1层,北京市,北京市,五棵松,金融保险服务;银行;中国银行,160104,B0FFG4207F,金融保险服务,银行,中国银行,
116.2848092528507,39.91959587037354,中国农业银行宣传部,八宝庄32号,北京市,北京市,五棵松,金融保险服务;银行相关;银行相关,160200,B000A2E7C1,金融保险服务,银行相关,银行相关,
116.27980892462425,39.957725048896194,中国银行ATM(世纪金源购物中心西区),远大路1号世纪金源购物中心西区1F层,北京市,北京市,世纪城,金融保险服务;自动提款机;中国银行ATM,160301,B000A80CJ1,金融保险服务,自动提款机,中国银行ATM,
116.27485108338814,39.951807226783174,中国工商银行ATM(板井路),板井路69号世纪金源大饭店大厅内,北京市,北京市,世纪城,金融保险服务;自动提款机;中国工商银行ATM,160302,B0FFFA2Z5U,金融保险服务,自动提款机,中国工商银行ATM,
116.28436326444869,39.957093988850026,汇丰银行(北京远大路支行),远大路1号金源时代购物中心1层1002号,北京市,北京市,世纪城,金融保险服务;银行;汇丰银行,160126,B0FFJRIHNV,金融保险服务,银行,汇丰银行,
116.2923900511174,39.94573641479475,中国农业银行24小时自助银行(紫竹桥支行),紫竹院路81号院3,北京市,北京市,,金融保险服务;自动提款机;中国农业银行ATM,160304,B000A80CNR,金融保险服务,自动提款机,中国农业银行ATM,
116.29244375914247,39.9233342331363,中国银行24小时自助银行(航天桥支行),阜成路73号裕惠大厦A座1层,北京市,北京市,,金融保险服务;自动提款机;中国银行ATM,160301,B0FFFFVJDC,金融保险服务,自动提款机,中国银行ATM,
116.27680942878885,39.91365151476156,招商银行(北京西翠路支行),西翠路17号院24号楼103,北京市,北京市,五棵松,金融保险服务;银行;招商银行,160109,B000A9VNPS,金融保险服务,银行,招商银行,
116.27484045646601,39.956929036465034,上海浦东发展银行24小时自助银行(世纪城支行),蓝靛厂西路晨月园甲1号楼,北京市,北京市,世纪城,金融保险服务;自动提款机;上海浦东发展银行ATM,160312,B000A80CI0,金融保险服务,自动提款机,上海浦东发展银行ATM,
116.27024213585001,39.911659699791144,盛京银行(北京五棵松支行),复兴路69号蓝色港湾购物中心(五棵松店)F6层,北京市,北京市,五棵松,金融保险服务;银行;银行,160100,B000ABCC17,金融保险服务,银行,银行,
116.25483139507385,39.91620543277187,北京农商银行24小时自助银行(铁家坟分理处),金沟河路10号院1号楼,北京市,北京市,,金融保险服务;自动提款机;北京农商银行ATM,160346,B000A85FDX,金融保险服务,自动提款机,北京农商银行ATM,
116.24632317627996,39.92170952074247,兴业银行24小时自助银行(玉泉路支行),玉泉路与田村山南路交叉路口往西北约100米,北京市,北京市,,金融保险服务;自动提款机;兴业银行ATM,160315,B0FFL4SGDG,金融保险服务,自动提款机,兴业银行ATM,
116.26452401451866,39.95237307657585,中国邮政储蓄银行24小时自助银行(郦城支行),常青园路8附近,北京市,北京市,四季青,金融保险服务;自动提款机;中国邮政储蓄银行ATM,160336,B0FFFAJ3GT,金融保险服务,自动提款机,中国邮政储蓄银行ATM,
116.26961849323602,39.91370021499619,中国工商银行24小时自助银行(北京五棵松奥体支行),西四环中路16号院1号楼1层西北侧办公区,北京市,北京市,五棵松,金融保险服务;自动提款机;中国工商银行ATM,160302,B000A87SDV,金融保险服务,自动提款机,中国工商银行ATM,
116.27782064767004,39.957487530391816,中国农业银行24小时自助银行(世纪城支行),蓝靛厂晨月园甲4号,北京市,北京市,世纪城,金融保险服务;自动提款机;中国农业银行ATM,160304,B000A84JJ5,金融保险服务,自动提款机,中国农业银行ATM,
116.27339616022226,39.916653248722504,中国建设银行24小时自助银行(紫金长安支行),金沟河路8号金和嘉园1层,北京市,北京市,五棵松,金融保险服务;自动提款机;中国建设银行ATM,160303,B000A8VYPW,金融保险服务,自动提款机,中国建设银行ATM,
116.28206158958446,39.95851207964839,广发银行24小时自助银行(世纪城支行),远大路1号,北京市,北京市,世纪城,金融保险服务;自动提款机;广发银行ATM,160317,B0FFFAIMVX,金融保险服务,自动提款机,广发银行ATM,
116.26964249380993,39.91350920016999,中国工商银行(北京五棵松奥体支行),西四环中路16号院,北京市,北京市,五棵松,金融保险服务;银行;中国工商银行,160105,B000A8W1HS,金融保险服务,银行,中国工商银行,
116.27521409176187,39.916188256914374,华夏银行24小时自助银行(北京紫金长安社区支行),西翠路17号院1号楼商铺5,北京市,北京市,五棵松,金融保险服务;自动提款机;华夏银行ATM,160307,B0FFGKQB9O,金融保险服务,自动提款机,华夏银行ATM,
116.26983330561733,39.913531016243496,广发银行24小时自助银行(五棵松支行),西四环中路16号院1号楼,北京市,北京市,五棵松,金融保险服务;自动提款机;广发银行ATM,160317,B000A87RZF,金融保险服务,自动提款机,广发银行ATM,
116.28059690613212,39.95699206642957,中国建设银行个人理财中心(贵友大厦店),远大路1号贵友大厦金源店1层,北京市,北京市,世纪城,金融保险服务;银行;银行,160100,B0FFKSOYT3,金融保险服务,银行,银行,
116.28461086939441,39.957148639709914,中国工商银行ATM(世纪金源购物中心),远大路1号世纪金源购物中心东区3F层,北京市,北京市,世纪城,金融保险服务;自动提款机;中国工商银行ATM,160302,B0FFJRIJ38,金融保险服务,自动提款机,中国工商银行ATM,
116.28484253240026,39.95692332252062,中国银行ATM(北京远大路支行),远大路1号世纪金源购物中心东区1F层,北京市,北京市,世纪城,金融保险服务;自动提款机;中国银行ATM,160301,B0FFJRIJ1D,金融保险服务,自动提款机,中国银行ATM,
116.28497631978033,39.95693013328744,中信银行ATM(世纪金源购物中心),远大路1号世纪金源购物中心东区1F层,北京市,北京市,世纪城,金融保险服务;自动提款机;中信银行ATM,160308,B0FFJRIJ1G,金融保险服务,自动提款机,中信银行ATM,
116.27777945600033,39.911395448711886,中国银行24小时自助银行(西翠路支行),万寿路西街甲11-10,北京市,北京市,五棵松,金融保险服务;自动提款机;中国银行ATM,160301,B000A83AZF,金融保险服务,自动提款机,中国银行ATM,
116.28413761629089,39.95709430363795,兴业银行ATM(世纪金源购物中心),远大路1号世纪金源购物中心东区1F层,北京市,北京市,世纪城,金融保险服务;自动提款机;兴业银行ATM,160315,B0FFJRIJ1C,金融保险服务,自动提款机,兴业银行ATM,
116.28461186882434,39.957140638622455,中国银行ATM(世纪金源购物中心),远大路1号世纪金源购物中心东区3F层,北京市,北京市,世纪城,金融保险服务;自动提款机;中国银行ATM,160301,B0FFJRIJ3Q,金融保险服务,自动提款机,中国银行ATM,
116.28143071868881,39.956886981126736,中国建设银行ATM(世纪金源购物中心西区),远大路1号世纪金源购物中心西区1F层,北京市,北京市,世纪城,金融保险服务;自动提款机;中国建设银行ATM,160303,B0FFJK09K5,金融保险服务,自动提款机,中国建设银行ATM,
116.28265489316342,39.957010341601666,兴业银行ATM(世纪金源购物中心东区),远大路1号世纪金源购物中心东区5F层,北京市,北京市,世纪城,金融保险服务;自动提款机;兴业银行ATM,160315,B0FFJRIJ4U,金融保险服务,自动提款机,兴业银行ATM,
116.28318805899092,39.94124624125946,北京农商银行24小时自助银行(曙光花园分理处),四季青,北京市,北京市,四季青,金融保险服务;自动提款机;北京农商银行ATM,160346,B000A7C0QV,金融保险服务,自动提款机,北京农商银行ATM,
116.25821866471678,39.912531914460146,中国农业银行24小时自助银行(永通支行),永通支行永定路甲51号,北京市,北京市,,金融保险服务;自动提款机;中国农业银行ATM,160304,B000A80IZJ,金融保险服务,自动提款机,中国农业银行ATM,
116.29224868477449,39.958693126585665,北京银行ATM,[],北京市,北京市,万柳,金融保险服务;自动提款机;北京银行ATM,160316,B0FFISLM52,金融保险服务,自动提款机,北京银行ATM,
116.24464498219429,39.91250104048416,中国工商银行ATM(研究生院小区西南),玉泉路高能所公寓2楼下,北京市,北京市,石景山,金融保险服务;自动提款机;中国工商银行ATM,160302,B000ABCN2C,金融保险服务,自动提款机,中国工商银行ATM,
116.28939833862151,39.91408336685045,中国建设银行(北京万寿路支行),翠微中里14号,北京市,北京市,五棵松,金融保险服务;银行;中国建设银行,160106,B000AA0PPS,金融保险服务,银行,中国建设银行,
116.29241570158331,39.924203241970375,北京农商银行24小时自助银行(裕惠分理处),阜成路73号裕惠大厦C座1层,北京市,北京市,,金融保险服务;自动提款机;北京农商银行ATM,160346,B0FFGXEEJG,金融保险服务,自动提款机,北京农商银行ATM,
116.27705439538734,39.911408319550546,中国光大银行24小时自助银行(五棵松支行),[],北京市,北京市,五棵松,金融保险服务;自动提款机;中国光大银行ATM,160310,B0G0ZCXUBG,金融保险服务,自动提款机,中国光大银行ATM,
116.26733776011262,39.91226536727436,中国工商银行24小时自助银行(西四环支行),西四环中路39-2号,北京市,北京市,五棵松,金融保险服务;自动提款机;中国工商银行ATM,160302,B000A7RB4X,金融保险服务,自动提款机,中国工商银行ATM,
116.28803363955866,39.95431279406384,北京农商银行24小时自助银行(北京香青园大酒店东南),蓝靛厂南路5号香青园商务会馆游泳池附近,北京市,北京市,世纪城,金融保险服务;自动提款机;北京农商银行ATM,160346,B0FFFAIT7F,金融保险服务,自动提款机,北京农商银行ATM,
116.29094593080266,39.95950814494371,中国银行24小时自助银行(北京万柳支行),万柳中路29号北大学生公寓入口,北京市,北京市,万柳,金融保险服务;自动提款机;中国银行ATM,160301,B0FFJXO9Y4,金融保险服务,自动提款机,中国银行ATM,
116.2885922261236,39.91007475879095,北京银行24小时自助银行(万寿路支行),万寿路甲17号A座附近,北京市,北京市,五棵松,金融保险服务;自动提款机;北京银行ATM,160316,B000A81A3Z,金融保险服务,自动提款机,北京银行ATM,
116.28942329487285,39.914087328648534,中国建设银行24小时自助银行(万寿路支行),翠微中里14号,北京市,北京市,五棵松,金融保险服务;自动提款机;中国建设银行ATM,160303,B000AA0PT0,金融保险服务,自动提款机,中国建设银行ATM,
116.27842769353762,39.9586747410047,中信银行24小时自助银行(世纪城支行),蓝靛厂垂虹园甲2,北京市,北京市,世纪城,金融保险服务;自动提款机;中信银行ATM,160308,B000A7REMQ,金融保险服务,自动提款机,中信银行ATM,
116.27763075307197,39.91057466388993,中国建设银行24小时自助银行(育英支行),万寿路西街甲11-19,北京市,北京市,五棵松,金融保险服务;自动提款机;中国建设银行ATM,160303,B000A80IV4,金融保险服务,自动提款机,中国建设银行ATM,
