lon,lat,name,address,pname,cityname,business_area,type,typecode,id,type1,type2,type3,type4
116.07709723532717,40.14542035610704,北京棋盘山宽院特色民宿,尖山咀,北京市,北京市,,住宿服务;旅馆招待所;旅馆招待所,100200,B0FFLEAKLE,住宿服务,旅馆招待所,旅馆招待所,
116.0861006859218,40.12449816521034,后花园旅游度假村,后二路(北京后花园),北京市,北京市,,住宿服务;住宿服务相关;住宿服务相关,100000,B0FFHJPLPQ,住宿服务,住宿服务相关,住宿服务相关,
116.08922137865024,40.12419357825595,无人机别墅(北京后二路店),"阳坊镇后二路北京后花园(阳坊镇后二路,到头)",北京市,北京市,,住宿服务;住宿服务相关;住宿服务相关,100000,B0FFL2A97E,住宿服务,住宿服务相关,住宿服务相关,
116.07564543522446,40.09483284144852,卧牛山庄,凤凰岭风景区南线旁,北京市,北京市,,住宿服务;宾馆酒店;五星级宾馆,100102,B000A8VWRQ,住宿服务,宾馆酒店,五星级宾馆,
116.08182735034345,40.08085713824069,北京妞妞宝宝度假别墅,七王坟路,北京市,北京市,,住宿服务;宾馆酒店;宾馆酒店,100100,B0FFKV6NN3,住宿服务,宾馆酒店,宾馆酒店,
116.08376721630285,40.08083133569162,享居拾闲小筑山景民宿,苏家坨镇七王坟村17号院,北京市,北京市,,住宿服务;宾馆酒店;宾馆酒店,100100,B0G1A5Z379,住宿服务,宾馆酒店,宾馆酒店,
116.08374424045365,40.08064735666304,呼吸小院儿·拾闲民宿,苏家坨镇七王坟村17号院,北京市,北京市,,住宿服务;住宿服务相关;住宿服务相关,100000,B0FFLD0HZV,住宿服务,住宿服务相关,住宿服务相关,
116.08236429612055,40.08081390160265,四季民宿(北京西山书院店),七王坟村30-2号,北京市,北京市,,住宿服务;住宿服务相关;住宿服务相关,100000,B0FFKFGKSU,住宿服务,住宿服务相关,住宿服务相关,
116.09162318241128,40.093879875347206,知青驿站,苏家坨车耳营村村,北京市,北京市,,住宿服务;旅馆招待所;旅馆招待所,100200,B0FFFADY3L,住宿服务,旅馆招待所,旅馆招待所,
116.09006318692079,40.08140984560393,香水草堂高级民宿,七王坟村35-1号院,北京市,北京市,,住宿服务;旅馆招待所;旅馆招待所,100200,B0G0BH2EY4,住宿服务,旅馆招待所,旅馆招待所,
116.08801651715451,40.07430359497692,北京美屋客栈,苏家坨镇北安河乡管家岭民俗村80号,北京市,北京市,,住宿服务;旅馆招待所;旅馆招待所,100200,B0FFLEAKJ8,住宿服务,旅馆招待所,旅馆招待所,
116.08799032631342,40.07573350670272,西山忘舍,[],北京市,北京市,,住宿服务;住宿服务相关;住宿服务相关,100000,B0HA9S7VA4,住宿服务,住宿服务相关,住宿服务相关,
116.08880860004442,40.07520540672015,壹宅壹院甘露苑精品民宿,管家岭路71号,北京市,北京市,,住宿服务;旅馆招待所;旅馆招待所,100200,B0G01UTG3Z,住宿服务,旅馆招待所,旅馆招待所,
116.09058336702839,40.08146680049144,北京大西山简约轻奢别墅(店),七王坟路,北京市,北京市,,住宿服务;住宿服务相关;住宿服务相关,100000,B0FFKEHR8U,住宿服务,住宿服务相关,住宿服务相关,
116.08990615219366,40.07352838154444,采菊东篱民宿度假山庄,苏家坨镇管家岭村34号,北京市,北京市,,住宿服务;住宿服务相关;住宿服务相关,100000,B0GR7UI2JV,住宿服务,住宿服务相关,住宿服务相关,
116.09189613527695,40.07197137394054,壹宅壹院樱树下精品民宿,苏家坨镇管家岭民俗旅游村3号,北京市,北京市,,住宿服务;住宿服务相关;住宿服务相关,100000,B0FFIPDS99,住宿服务,住宿服务相关,住宿服务相关,
116.08502985988214,40.09925457757167,抱水环山农家院,凤凰岭风景区车耳营村,北京市,北京市,,住宿服务;旅馆招待所;旅馆招待所,100200,B0FFF5Y8RW,住宿服务,旅馆招待所,旅馆招待所,
116.04278106970457,40.020584834159656,北京妙峰舒院民宿,军庄镇军庄路2号院JZ1101室,北京市,北京市,,住宿服务;住宿服务相关;住宿服务相关,100000,B0FFKEDBCA,住宿服务,住宿服务相关,住宿服务相关,
116.05748661570532,39.979077733052975,旅游驿站,S209(石担路),北京市,北京市,,住宿服务;住宿服务相关;住宿服务相关,100000,B0GUARAGJY,住宿服务,住宿服务相关,住宿服务相关,
116.07071697828461,39.99847039485111,北忠良书院酒店大堂,龙泉雾村,北京市,北京市,龙泉,住宿服务;住宿服务相关;住宿服务相关,100000,B0FFMF2BCB,住宿服务,住宿服务相关,住宿服务相关,
116.0833433346247,39.963733285327194,林美宾馆,水闸西路1号,北京市,北京市,龙泉,住宿服务;宾馆酒店;宾馆酒店,100100,B000A8VWGF,住宿服务,宾馆酒店,宾馆酒店,
116.04468260754953,39.96816312373146,古道山居,妙峰山镇水峪嘴村西街9号,北京市,北京市,,住宿服务;住宿服务相关;住宿服务相关,100000,B0G0NUXQ67,住宿服务,住宿服务相关,住宿服务相关,
116.04524035542985,39.96858897474066,北京静花缘梦回古道民宿(京西古道景区分店),妙峰山镇水峪嘴村(京西古道景区入口),北京市,北京市,,住宿服务;住宿服务相关;住宿服务相关,100000,B0FFIR5D5Z,住宿服务,住宿服务相关,住宿服务相关,
116.08520202504116,39.9352297584123,北京华积精品酒店,中门寺街金泰丽湾8号院6号楼三层,北京市,北京市,门头沟,住宿服务;住宿服务相关;住宿服务相关,100000,B0FFJT0TQP,住宿服务,住宿服务相关,住宿服务相关,
116.08703132978933,39.93455729759027,经典浪漫小屋,大峪后街与黑山大街交叉口龙山家园2号院A2区1号楼2单元502,北京市,北京市,大峪村,住宿服务;住宿服务相关;住宿服务相关,100000,B0FFKSI129,住宿服务,住宿服务相关,住宿服务相关,
116.0890156709225,39.94321059430777,北京馨居民宿,中昂时代广场5号楼,北京市,北京市,门头沟,住宿服务;住宿服务相关;住宿服务相关,100000,B0FFK67QGS,住宿服务,住宿服务相关,住宿服务相关,
116.08947686202758,39.94279255199888,北京暖暖的家民宿,门头沟路11号院中昂时代广场3-6号楼,北京市,北京市,门头沟,住宿服务;住宿服务相关;住宿服务相关,100000,B0FFJOD9UK,住宿服务,住宿服务相关,住宿服务相关,
116.08910169126405,39.94324458129215,北京旅行之家民宿,门头沟路中昂时代广场5号楼,北京市,北京市,门头沟,住宿服务;住宿服务相关;住宿服务相关,100000,B0FFK7FU5R,住宿服务,住宿服务相关,住宿服务相关,
116.08908369029898,39.94321158500842,北京清新小住民宿,门头沟路9号中昂时代广场5号楼1714,北京市,北京市,门头沟,住宿服务;住宿服务相关;住宿服务相关,100000,B0FFKT89IP,住宿服务,住宿服务相关,住宿服务相关,
116.08894865041863,39.9432226031592,北京蓝色西海岸公寓,门头沟路中昂小时代5号楼606室,北京市,北京市,门头沟,住宿服务;住宿服务相关;住宿服务相关,100000,B0FFLJPGZO,住宿服务,住宿服务相关,住宿服务相关,
116.09017404388524,39.94317146603665,北京暖洋洋民宿,门头沟路9号中昂时代广场4号楼823,北京市,北京市,门头沟,住宿服务;住宿服务相关;住宿服务相关,100000,B0FFKTUT6O,住宿服务,住宿服务相关,住宿服务相关,
116.09015103378124,39.94318746740887,北京明先生公寓,中昂时代广场4号楼,北京市,北京市,门头沟,住宿服务;住宿服务相关;住宿服务相关,100000,B0FFLHLOXF,住宿服务,住宿服务相关,住宿服务相关,
116.08962189024672,39.94292853009804,北京中昂时代广场民宿,中昂时代广场6号1008,北京市,北京市,门头沟,住宿服务;住宿服务相关;住宿服务相关,100000,B0HAMK0UGM,住宿服务,住宿服务相关,住宿服务相关,
116.08972694349387,39.94277752464541,北京星月公寓,中昂时代广场6号楼,北京市,北京市,门头沟,住宿服务;住宿服务相关;住宿服务相关,100000,B0FFLGQX7Q,住宿服务,住宿服务相关,住宿服务相关,
116.08972594136911,39.94279152420019,北京岦锦民宿,门头沟路中昂时代广场-6号楼,北京市,北京市,门头沟,住宿服务;住宿服务相关;住宿服务相关,100000,B0FFLF11MF,住宿服务,住宿服务相关,住宿服务相关,
116.08972694169431,39.942791524093906,北京里程公寓,门头沟路中昂时代广场6号楼515室,北京市,北京市,门头沟,住宿服务;住宿服务相关;住宿服务相关,100000,B0FFKRZT5S,住宿服务,住宿服务相关,住宿服务相关,
116.0886816848527,39.94238667522072,门头沟中昂民宿(门头沟/潭柘寺/妙峰山风景区店),河滩中昂时代广场,北京市,北京市,门头沟,住宿服务;旅馆招待所;旅馆招待所,100200,B0FFKLSHP2,住宿服务,旅馆招待所,旅馆招待所,
116.09085461740555,39.93288082542681,北京中式温馨阳光大一居普通公寓(黑山东街店),龙山家园A5,北京市,北京市,门头沟,住宿服务;住宿服务相关;住宿服务相关,100000,B0FFIKU00C,住宿服务,住宿服务相关,住宿服务相关,
116.0898459783561,39.94281051101311,北京一只羊咩咩羊公寓(2号店),中昂时代广场-6号楼,北京市,北京市,门头沟,住宿服务;住宿服务相关;住宿服务相关,100000,B0HA1AEWUK,住宿服务,住宿服务相关,住宿服务相关,
116.09091533816323,39.94302341981737,中昂时代民宿(门头沟/妙峰山风景区店),河滩路中昂时代,北京市,北京市,门头沟,住宿服务;旅馆招待所;旅馆招待所,100200,B0FFKV6M6G,住宿服务,旅馆招待所,旅馆招待所,
116.13287524752691,40.13620359348065,阳坊大都饭店,阳坊镇,北京市,北京市,,住宿服务;宾馆酒店;四星级宾馆,100103,B000A7J2KW,住宿服务,宾馆酒店,四星级宾馆,
116.1312405036695,40.13607025963323,阳坊大都饭店B座,阳坊镇温南路西200米,北京市,北京市,,住宿服务;宾馆酒店;四星级宾馆,100103,B0FFGZEBDV,住宿服务,宾馆酒店,四星级宾馆,
116.11018142844097,40.125763096797314,后院驿站,阳坊镇后白虎涧村梨园巷21号,北京市,北京市,阳坊村,住宿服务;旅馆招待所;旅馆招待所,100200,B0FFHN1DP8,住宿服务,旅馆招待所,旅馆招待所,
116.10617189357832,40.12779824949084,云鼎居舍,后二路附近,北京市,北京市,,住宿服务;旅馆招待所;旅馆招待所,100200,B0FFGXFAR0,住宿服务,旅馆招待所,旅馆招待所,
116.13379293083514,40.13982058354441,怡然乡村酒店,阳坊镇,北京市,北京市,阳坊,住宿服务;宾馆酒店;宾馆酒店,100100,B0FFFPTL3W,住宿服务,宾馆酒店,宾馆酒店,
116.13445214048092,40.13475506000689,回家乐乡村酒店,阳坊大都涮羊肉总店后侧大都c座(原亦家快捷酒店),北京市,北京市,阳坊村,住宿服务;宾馆酒店;宾馆酒店,100100,B0FFFV7O8L,住宿服务,宾馆酒店,宾馆酒店,
116.13354758260436,40.13804139790575,北京星香源宾馆,阳坊镇中心南街19号,北京市,北京市,阳坊,住宿服务;宾馆酒店;宾馆酒店,100100,B0FFILG8NY,住宿服务,宾馆酒店,宾馆酒店,
116.13457428816794,40.13586513519999,住宿,温南路东100米,北京市,北京市,阳坊村,住宿服务;旅馆招待所;旅馆招待所,100200,B0FFJOFNQQ,住宿服务,旅馆招待所,旅馆招待所,
116.13929047467987,40.13074693237336,10号招待所,沙阳路12号院,北京市,北京市,阳坊村,住宿服务;旅馆招待所;旅馆招待所,100200,B0FFKXQEOE,住宿服务,旅馆招待所,旅馆招待所,
116.10416817330425,40.12306058554081,百花谷.漫山居,后二路甲2号,北京市,北京市,,住宿服务;住宿服务相关;住宿服务相关,100000,B0G2OZEIIK,住宿服务,住宿服务相关,住宿服务相关,
116.13612369243096,40.138323241420395,碧林春宾馆,阳坊镇西贯市村北街69号胜利文化园对面(阳坊会馆路东200米),北京市,北京市,阳坊村,住宿服务;旅馆招待所;旅馆招待所,100200,B0FFFEMXD1,住宿服务,旅馆招待所,旅馆招待所,
116.13929107474246,40.14167286933387,北京建昌旅馆有限公司,西北街与阳坊村中心街交叉口东北100米,北京市,北京市,阳坊村,住宿服务;住宿服务相关;住宿服务相关,100000,B0FFKVJGOS,住宿服务,住宿服务相关,住宿服务相关,
116.14204023261887,40.140346474076885,北京建昌旅馆有限公司,东顺街247号,北京市,北京市,阳坊村,住宿服务;住宿服务相关;住宿服务相关,100000,B0FFKUBD4Y,住宿服务,住宿服务相关,住宿服务相关,
116.11452222674029,40.08528588851573,北京五矿君澜酒店,北安河路55号院1号楼,北京市,北京市,,住宿服务;宾馆酒店;宾馆酒店,100100,B0FFLF05BR,住宿服务,宾馆酒店,宾馆酒店,
116.11599274058142,40.07682182065483,天工家园,北安河路(隆盛福安大卖场东南侧约200米),北京市,北京市,,住宿服务;住宿服务相关;住宿服务相关,100000,B0FFHRQVED,住宿服务,住宿服务相关,住宿服务相关,
116.13725580495894,40.08097770353513,敏子的小院,柳林村河南4区42号,北京市,北京市,,住宿服务;住宿服务相关;住宿服务相关,100000,B0FFJ578L1,住宿服务,住宿服务相关,住宿服务相关,
116.12485937030044,40.068581080730944,幽雅园公寓(北京3号店),安河家园五里,北京市,北京市,,住宿服务;住宿服务相关;住宿服务相关,100000,B0FFLANSSU,住宿服务,住宿服务相关,住宿服务相关,
116.11195749888643,40.06771785453635,环境保护部北京会议与培训基地宾馆,苏家坨镇北安河阳台山路6号,北京市,北京市,,住宿服务;宾馆酒店;宾馆酒店,100100,B0FFHC78CT,住宿服务,宾馆酒店,宾馆酒店,
116.13616556726757,40.1011165642367,金秋佳源酒店,苏家坨镇凤仪佳苑八里13号楼底商,北京市,北京市,,住宿服务;宾馆酒店;宾馆酒店,100100,B0FFMGQU91,住宿服务,宾馆酒店,宾馆酒店,
116.09299033434463,40.082229712139466,北京一池月光客栈,七王坟村,北京市,北京市,,住宿服务;旅馆招待所;旅馆招待所,100200,B0FFJ8CQXQ,住宿服务,旅馆招待所,旅馆招待所,
116.09633778514572,40.071148808031225,北京GloriaHuang度假别墅(店),管家岭路(阳台山自然风景区东侧约200米),北京市,北京市,,住宿服务;宾馆酒店;宾馆酒店,100100,B0FFL3GNWJ,住宿服务,宾馆酒店,宾馆酒店,
116.14013332998604,40.10942115710191,泓赞宾馆,苏家坨镇前沙涧村7号院底商,北京市,北京市,,住宿服务;宾馆酒店;宾馆酒店,100100,B0FFGZW99J,住宿服务,宾馆酒店,宾馆酒店,
116.10142632598004,40.09978627913069,北京快乐农夫庄园,苏家坨镇聂各庄西路7号快乐农夫院内,北京市,北京市,,住宿服务;住宿服务相关;住宿服务相关,100000,B0FFK2QVQ4,住宿服务,住宿服务相关,住宿服务相关,
116.13237622156096,40.1040386932936,7派·酒店,苏家坨镇同泽园东里3号楼地上二层到四层108,北京市,北京市,,住宿服务;宾馆酒店;宾馆酒店,100100,B0FFJX5NZB,住宿服务,宾馆酒店,宾馆酒店,
116.11450050492313,40.10613231403583,和悦公寓,苏家坨镇凤凰岭路7号凤凰烤鸭店,北京市,北京市,,住宿服务;住宿服务相关;住宿服务相关,100000,B0FFJ24OUT,住宿服务,住宿服务相关,住宿服务相关,
116.09544288897376,40.10438330578673,北京四季水果快捷旅店,凤凰岭路凤凰岭自然风景区门口旁,北京市,北京市,,住宿服务;住宿服务相关;住宿服务相关,100000,B0FFIK5LPP,住宿服务,住宿服务相关,住宿服务相关,
116.09387990101803,40.10472810692214,北京凤凰岭十七号院,苏家坨镇凤凰岭路17号(原实创西山科技培训中心),北京市,北京市,,住宿服务;住宿服务相关;住宿服务相关,100000,B0FFJGR9J9,住宿服务,住宿服务相关,住宿服务相关,
116.09525573087072,40.10467725643896,北京实创西山科技培训中心-宾馆,苏家坨镇凤凰岭路17号,北京市,北京市,,住宿服务;宾馆酒店;宾馆酒店,100100,B0FFJ4L3Z1,住宿服务,宾馆酒店,宾馆酒店,
116.10425952418106,40.05141373336674,北京农家乐园酒店,苏家屯镇徐各庄村大觉寺路5号,北京市,北京市,,住宿服务;宾馆酒店;宾馆酒店,100100,B0FFH8HLSQ,住宿服务,宾馆酒店,宾馆酒店,
116.13456956849883,40.04778261550307,北京狂飙乐园特色民宿狂飙会议中心分店,安河路狂飙乐园,北京市,北京市,,住宿服务;旅馆招待所;旅馆招待所,100200,B0FFJ5VBVQ,住宿服务,旅馆招待所,旅馆招待所,
116.09756483281097,39.96127430593781,龙泉宾馆,水闸北路21号,北京市,北京市,,住宿服务;宾馆酒店;四星级宾馆,100103,B000A88DUR,住宿服务,宾馆酒店,四星级宾馆,
116.10420622439862,39.959987822396926,北斗星酒店,三家店东街42号(近青山公园),北京市,北京市,,住宿服务;宾馆酒店;宾馆酒店,100100,B000A85U0U,住宿服务,宾馆酒店,宾馆酒店,
116.11969573466175,39.971850758202834,京城168酒店,隆恩寺路396公交检查站,北京市,北京市,,住宿服务;宾馆酒店;宾馆酒店,100100,B0FFFQVFYS,住宿服务,宾馆酒店,宾馆酒店,
116.11067716594836,39.96233883331487,金顺良旅店,油研所路9排1号,北京市,北京市,,住宿服务;旅馆招待所;旅馆招待所,100200,B000AAASZN,住宿服务,旅馆招待所,旅馆招待所,
116.10419120193352,39.9600328130223,北斗星酒店A座,三家店东街42号,北京市,北京市,,住宿服务;宾馆酒店;宾馆酒店,100100,B0FFGBC3GS,住宿服务,宾馆酒店,宾馆酒店,
116.09577636602357,40.001648314781626,客房,[],北京市,北京市,军庄镇,住宿服务;旅馆招待所;旅馆招待所,100200,B0G0C7YZ72,住宿服务,旅馆招待所,旅馆招待所,
116.0957553528666,40.00164231174682,喜乐山山庄,军温路11号(近西六环),北京市,北京市,军庄镇,住宿服务;宾馆酒店;宾馆酒店,100100,B0FFF5ZP1G,住宿服务,宾馆酒店,宾馆酒店,
116.10474330250763,39.964086939828285,迎群旅店,三家店菜家府山下40号,北京市,北京市,,住宿服务;旅馆招待所;旅馆招待所,100200,B0FFG8HU2L,住宿服务,旅馆招待所,旅馆招待所,
116.1045535697337,39.96032898758829,北斗星酒店B座,三家店东街42号,北京市,北京市,,住宿服务;宾馆酒店;宾馆酒店,100100,B0FFIKBHGF,住宿服务,宾馆酒店,宾馆酒店,
116.09573434720652,40.001578311231526,快捷宾馆,军温路11号附近,北京市,北京市,军庄镇,住宿服务;宾馆酒店;经济型连锁酒店,100105,B0FFIALT93,住宿服务,宾馆酒店,经济型连锁酒店,
116.1008912102337,39.93361540096818,晨光饭店,双峪路1号,北京市,北京市,门头沟,住宿服务;宾馆酒店;三星级宾馆,100104,B000A8XABG,住宿服务,宾馆酒店,三星级宾馆,
116.13439396652385,39.939553059119504,北京高井热电厂招待所,广宁街道电厂路2号,北京市,北京市,广宁,住宿服务;旅馆招待所;旅馆招待所,100200,B000A8XMFS,住宿服务,旅馆招待所,旅馆招待所,
116.10038166752881,39.926377507630335,北京大华宾馆,桃园小区15号楼,北京市,北京市,门头沟,住宿服务;宾馆酒店;宾馆酒店,100100,B0FFI1EYNR,住宿服务,宾馆酒店,宾馆酒店,
116.1094201228318,39.93331805000046,北京瓜一公寓,滨河临镜苑2号1单元1104,北京市,北京市,门头沟,住宿服务;住宿服务相关;住宿服务相关,100000,B0FFLIPW04,住宿服务,住宿服务相关,住宿服务相关,
116.10830751542693,39.93419124813348,格林豪泰酒店(双峪路店),双峪路39-2号,北京市,北京市,门头沟,住宿服务;宾馆酒店;经济型连锁酒店,100105,B0FFGF1804,住宿服务,宾馆酒店,经济型连锁酒店,
116.10705291778187,39.9340684451801,金涛酒店(北京双峪店),双峪路熙旺中心B座7层,北京市,北京市,门头沟,住宿服务;住宿服务相关;住宿服务相关,100000,B0FFM1FIYA,住宿服务,住宿服务相关,住宿服务相关,
116.11334932531044,39.93764695888646,如家快捷酒店(北京门头沟双峪环岛店),双峪环岛35号爱玛裕家居购物广场D092号,北京市,北京市,门头沟,住宿服务;宾馆酒店;宾馆酒店,100100,B000A9Q101,住宿服务,宾馆酒店,宾馆酒店,
116.10262630161446,39.93841391776362,汉庭酒店(北京门头沟滨河路店),滨河路87号,北京市,北京市,门头沟,住宿服务;宾馆酒店;经济型连锁酒店,100105,B000A8X8DX,住宿服务,宾馆酒店,经济型连锁酒店,
116.10741334263892,39.93430766148972,让渡居公寓(北京双峪路店),双峪路35号院2号楼12层,北京市,北京市,永定,住宿服务;住宿服务相关;住宿服务相关,100000,B0FFLGMEVA,住宿服务,住宿服务相关,住宿服务相关,
116.10226887538931,39.93889474294516,圣海湖酒店,滨河路87号滨河世纪广场公园对面,北京市,北京市,门头沟,住宿服务;宾馆酒店;宾馆酒店,100100,B0FFFZCEBP,住宿服务,宾馆酒店,宾馆酒店,
116.12187221500712,39.95322090590343,速8酒店(北京石景山五里坨店),五里驼2号,北京市,北京市,,住宿服务;宾馆酒店;经济型连锁酒店,100105,B0FFFZOR29,住宿服务,宾馆酒店,经济型连锁酒店,
116.13538693834963,39.926915055724145,广宁公寓,广宁路石景山火车站站牌向东50米,北京市,北京市,广宁,住宿服务;旅馆招待所;旅馆招待所,100200,B0FFHIRHM0,住宿服务,旅馆招待所,旅馆招待所,
116.10241152629264,39.94274365269661,尚客优酒店(门头沟店),滨河路18号院京西俱乐部院内,北京市,北京市,门头沟,住宿服务;宾馆酒店;宾馆酒店,100100,B0FFKD05TI,住宿服务,宾馆酒店,宾馆酒店,
116.10213337322998,39.93394988150955,利达酒店,"双峪路5号奥新天地1层(北京银行楼上,公交站南侧)",北京市,北京市,门头沟,住宿服务;宾馆酒店;宾馆酒店,100100,B0FFIVDFDO,住宿服务,宾馆酒店,宾馆酒店,
116.1131864372236,39.91916556507132,北京然姐姐民宿,上园路迎晖北苑1区4号楼2单元1702室,北京市,北京市,门头沟,住宿服务;住宿服务相关;住宿服务相关,100000,B0FFK5Q02G,住宿服务,住宿服务相关,住宿服务相关,
116.1393637907032,39.926031291170375,鹏博广宁公寓,广宁村2号,北京市,北京市,广宁,住宿服务;旅馆招待所;旅馆招待所,100200,B0FFFYHB4X,住宿服务,旅馆招待所,旅馆招待所,
116.11770682503969,39.95105849990939,北京靠谱儿导游的民宿,五里坨中街40号院京西景园,北京市,北京市,,住宿服务;旅馆招待所;旅馆招待所,100200,B0FFITHKJQ,住宿服务,旅馆招待所,旅馆招待所,
116.1071595860521,39.922093994593624,迈克先生公寓(北京新桥南大街店),石龙北路15号119号,北京市,北京市,永定,住宿服务;住宿服务相关;住宿服务相关,100000,B0FFKVUAQ9,住宿服务,住宿服务相关,住宿服务相关,
116.09924870954771,39.926066149332534,北京简简单单美公寓,桃园路1号楼1单元2505,北京市,北京市,门头沟,住宿服务;旅馆招待所;旅馆招待所,100200,B0FFKVUAP6,住宿服务,旅馆招待所,旅馆招待所,
116.10632215121326,39.948598429948944,旅馆,西六环附近,北京市,北京市,门头沟,住宿服务;旅馆招待所;旅馆招待所,100200,B0FFL4MWQT,住宿服务,旅馆招待所,旅馆招待所,
116.09746194444887,39.936439257600846,速8酒店(门头沟新桥大街店),新桥大街80号京客隆3层,北京市,北京市,门头沟,住宿服务;宾馆酒店;经济型连锁酒店,100105,B0FFFAEDHF,住宿服务,宾馆酒店,经济型连锁酒店,
116.10621203580644,39.94845437074654,实鑫霞旅店,西老店29排1号,北京市,北京市,门头沟,住宿服务;旅馆招待所;旅馆招待所,100200,B0FFFO65UA,住宿服务,旅馆招待所,旅馆招待所,
116.12053742661227,39.95520032806419,宾馆,石门路与车站路交叉口东50米,北京市,北京市,,住宿服务;宾馆酒店;宾馆酒店,100100,B0FFJFFAB4,住宿服务,宾馆酒店,宾馆酒店,
116.14065321260757,39.924649427726656,北京欢欣公寓,广宁塔楼小区19号楼,北京市,北京市,广宁,住宿服务;住宿服务相关;住宿服务相关,100000,B0FFLA4G10,住宿服务,住宿服务相关,住宿服务相关,
116.14065321209824,39.92465342756351,北京兰姐姐民宿,广宁路广宁塔楼小区19号楼4层5号,北京市,北京市,广宁,住宿服务;住宿服务相关;住宿服务相关,100000,B0FFKCLYGJ,住宿服务,住宿服务相关,住宿服务相关,
116.14065433046405,39.947351528669984,58楼招待所,[],北京市,北京市,,住宿服务;住宿服务相关;住宿服务相关,100000,B0FFKK61EO,住宿服务,住宿服务相关,住宿服务相关,
116.1168382576184,39.9124411883153,北京鸿福民宿公寓,迎晖南苑,北京市,北京市,永定,住宿服务;宾馆酒店;宾馆酒店,100100,B0FFKV6MBF,住宿服务,宾馆酒店,宾馆酒店,
116.11868550008015,39.91241805627735,北京红星闪闪公寓,石龙东路(迎晖南苑),北京市,北京市,永定,住宿服务;住宿服务相关;住宿服务相关,100000,B0FFLGMEA6,住宿服务,住宿服务相关,住宿服务相关,
116.09309234823996,39.942842413222216,喆啡酒店(北京门头沟区政府新桥大街店),门头沟路1号石龙商业大厦1幢5层,北京市,北京市,门头沟,住宿服务;住宿服务相关;住宿服务相关,100000,B0FFK5Q49P,住宿服务,住宿服务相关,住宿服务相关,
116.11935578114434,39.911873785032,佳音小筑(北京3号店),迎晖南苑12号楼,北京市,北京市,永定,住宿服务;住宿服务相关;住宿服务相关,100000,B0FFKV6PY4,住宿服务,住宿服务相关,住宿服务相关,
116.11210773051879,39.91183597507613,于奇公寓(16号店),上园路(惠康嘉园-五区),北京市,北京市,永定,住宿服务;住宿服务相关;住宿服务相关,100000,B0FFKRZT67,住宿服务,住宿服务相关,住宿服务相关,
116.09350478031907,39.93337980895008,龙山家园公寓,大峪南路龙山家园A5-3号楼2单元,北京市,北京市,门头沟,住宿服务;住宿服务相关;住宿服务相关,100000,B0FFIMB066,住宿服务,住宿服务相关,住宿服务相关,
116.10016341207162,39.91123005916634,北京吴菲雪儿公寓,冯石环路(润西山别墅),北京市,北京市,永定,住宿服务;住宿服务相关;住宿服务相关,100000,B0FFLA4G35,住宿服务,住宿服务相关,住宿服务相关,
116.11214284456823,39.911356023886576,惠康嘉园6号楼一层保安亭e栈,永定惠康嘉园五区(上园路西),北京市,北京市,永定,住宿服务;住宿服务相关;住宿服务相关,100000,B0FFMH187L,住宿服务,住宿服务相关,住宿服务相关,
116.10746125391022,39.90424193695988,维科宾馆,永定镇石龙工业区石龙东路3号,北京市,北京市,永定,住宿服务;旅馆招待所;旅馆招待所,100200,B0FFFF70RL,住宿服务,旅馆招待所,旅馆招待所,
116.11598314303622,39.89416516265471,北京用我三生烟火换你一世迷离公寓(谭鑫培墓分店),栗园庄(地铁站)(云梦佳苑),北京市,北京市,永定,住宿服务;住宿服务相关;住宿服务相关,100000,B0FFKV6NEK,住宿服务,住宿服务相关,住宿服务相关,
116.118714843718,39.90230752143129,北京京西大海之家复式,泰安路13号远洋新天地,北京市,北京市,永定,住宿服务;住宿服务相关;住宿服务相关,100000,B0FFIKIQZ8,住宿服务,住宿服务相关,住宿服务相关,
116.11948512518958,39.90319429569869,北京高端大气低调奢华公寓(店),远洋新天地,北京市,北京市,永定,住宿服务;宾馆酒店;宾馆酒店,100100,B0FFLA1570,住宿服务,宾馆酒店,宾馆酒店,
116.11760180349495,39.90285235771136,北京babyfox1984公寓,新城东街19号院,北京市,北京市,永定,住宿服务;住宿服务相关;住宿服务相关,100000,B0FFLA4G02,住宿服务,住宿服务相关,住宿服务相关,
116.12068846663317,39.902308643661385,北京西山华宿公寓(泰安路分店),泰安路远洋新天地1期,北京市,北京市,永定,住宿服务;住宿服务相关;住宿服务相关,100000,B0FFLJ71CT,住宿服务,住宿服务相关,住宿服务相关,
116.12016954853891,39.90191509057677,风轻轻公寓(北京上园路店),泰安路金沙西街19号远洋新天地,北京市,北京市,永定,住宿服务;住宿服务相关;住宿服务相关,100000,B0FFKIU1R5,住宿服务,住宿服务相关,住宿服务相关,
116.11987480215147,39.9034927014569,北京盖少杰公寓(4号店),远洋新天地,北京市,北京市,永定,住宿服务;宾馆酒店;宾馆酒店,100100,B0FFL4EJ3G,住宿服务,宾馆酒店,宾馆酒店,
116.11952928809777,39.90255037107691,北京盖先生公寓(石龙东路分店),泰安路远洋新天地东北侧300米华润悦景湾,北京市,北京市,永定,住宿服务;住宿服务相关;住宿服务相关,100000,B0FFLIRTLX,住宿服务,住宿服务相关,住宿服务相关,
116.1148050414134,39.903235664082864,李爱丽家公寓(北京2号店),上岸村华润悦景湾4号楼,北京市,北京市,永定,住宿服务;住宿服务相关;住宿服务相关,100000,B0FFKA6JOL,住宿服务,住宿服务相关,住宿服务相关,
116.11956627100307,39.903214381617545,北京高端大气上档次公寓(7号店),泰安路13号远洋新天地,北京市,北京市,永定,住宿服务;住宿服务相关;住宿服务相关,100000,B0FFMBMCKP,住宿服务,住宿服务相关,住宿服务相关,
116.12170414963134,39.9042227015009,署光公寓,华润悦景湾悦景湾3号楼209,北京市,北京市,永定,住宿服务;旅馆招待所;旅馆招待所,100200,B0FFKA6JL8,住宿服务,旅馆招待所,旅馆招待所,
116.1200912963006,39.90275496850745,北京四海家园公寓,金沙西街19号远洋新天地7号楼204,北京市,北京市,永定,住宿服务;旅馆招待所;旅馆招待所,100200,B0FFKKN173,住宿服务,旅馆招待所,旅馆招待所,
116.11664558470657,39.90730321901622,北京理想之佳公寓,曹各庄路30号院西长安壹号1号楼2号楼,北京市,北京市,永定,住宿服务;住宿服务相关;住宿服务相关,100000,B0FFJYFQGT,住宿服务,住宿服务相关,住宿服务相关,
116.1217131669274,39.904222711781294,北京金婷婷公寓(石龙东路分店),华润悦景湾,北京市,北京市,永定,住宿服务;住宿服务相关;住宿服务相关,100000,B0FFL3GNV4,住宿服务,住宿服务相关,住宿服务相关,
116.10485972288613,39.907248286527945,休闲驿站快捷酒店,永定镇冯村商业街南段电梯口3层,北京市,北京市,门头沟,住宿服务;宾馆酒店;经济型连锁酒店,100105,B0FFFAC2RI,住宿服务,宾馆酒店,经济型连锁酒店,
116.12170666888316,39.90802854008241,北京西宅之家公寓(3号店),西长安壹号30号院,北京市,北京市,永定,住宿服务;住宿服务相关;住宿服务相关,100000,B0FFKRZSOI,住宿服务,住宿服务相关,住宿服务相关,
116.12129990513603,39.90792508340281,北京云深公寓,永定镇长安壹号30号院,北京市,北京市,永定,住宿服务;住宿服务相关;住宿服务相关,100000,B0FFLIXSXY,住宿服务,住宿服务相关,住宿服务相关,
116.11847466775211,39.90815201868417,北京第空间公寓(6号店),石龙东路曹各庄路32院,北京市,北京市,永定,住宿服务;住宿服务相关;住宿服务相关,100000,B0FFLIAP16,住宿服务,住宿服务相关,住宿服务相关,
116.10461435366896,39.907952126698895,红高粱大酒店,冯村嘉园1区2号楼1层1单元102号2,北京市,北京市,门头沟,住宿服务;宾馆酒店;宾馆酒店,100100,B0FFKZUXNH,住宿服务,宾馆酒店,宾馆酒店,
116.10506019778185,39.889712177421366,北京韵语的小家公寓,京西紫金新园一区4号楼(小园地铁站),北京市,北京市,永定,住宿服务;住宿服务相关;住宿服务相关,100000,B0FFKXO4JA,住宿服务,住宿服务相关,住宿服务相关,
116.1018381815601,39.89413643970627,北京朵拉之梦公寓,首开保利欢乐大都汇,北京市,北京市,永定,住宿服务;住宿服务相关;住宿服务相关,100000,B0FFLGMEVG,住宿服务,住宿服务相关,住宿服务相关,
116.1047348291585,39.889681004984055,北京佳音小筑(2号店),X021(龙林路)(紫金新园三区),北京市,北京市,永定,住宿服务;住宿服务相关;住宿服务相关,100000,B0FFKV6M5O,住宿服务,住宿服务相关,住宿服务相关,
116.10824563446926,39.8857462861859,北京佳音小筑,石门营路紫金新园三区11号楼,北京市,北京市,永定,住宿服务;住宿服务相关;住宿服务相关,100000,B0FFKO5SIV,住宿服务,住宿服务相关,住宿服务相关,
116.1081184808706,39.88564520665737,北京达人美居公寓(2号店),紫金新园三区11号楼,北京市,北京市,永定,住宿服务;住宿服务相关;住宿服务相关,100000,B0FFKV6M7X,住宿服务,住宿服务相关,住宿服务相关,
116.13377091334333,39.896996904117835,蔷薇花普通公寓,龙兴南二路(梧桐汇接待中心),北京市,北京市,永定,住宿服务;住宿服务相关;住宿服务相关,100000,B0FFISK0YF,住宿服务,住宿服务相关,住宿服务相关,
116.10629495694326,39.88739598374825,北京爱你比永远多一天公寓(16号店),紫金新园二区(5号楼),北京市,北京市,永定,住宿服务;住宿服务相关;住宿服务相关,100000,B0FFKV6NMH,住宿服务,住宿服务相关,住宿服务相关,
116.13754679067235,39.898462581697196,悦景美宅公寓(北京5号店),梧桐苑清露园(龙兴南一路),北京市,北京市,永定,住宿服务;住宿服务相关;住宿服务相关,100000,B0FFLA4G0E,住宿服务,住宿服务相关,住宿服务相关,
116.10636790430188,39.888501975034586,北京潭柘寺戒台寺八奇洞紧邻S1线小园地铁站公寓,紫金路2402,北京市,北京市,永定,住宿服务;住宿服务相关;住宿服务相关,100000,B0FFKVUAYK,住宿服务,住宿服务相关,住宿服务相关,
116.13894651723045,39.89636188419979,北京建康之家公寓(2号店),玉带街(门头沟距离301医院开车20分钟到万达15分钟),北京市,北京市,永定,住宿服务;住宿服务相关;住宿服务相关,100000,B0FFLA4FY0,住宿服务,住宿服务相关,住宿服务相关,
116.1525230608723,40.12639098344172,北京阳光之城度假酒店,阳坊镇东贯村对面,北京市,北京市,阳坊村,住宿服务;宾馆酒店;四星级宾馆,100103,B0FFF8ZEAP,住宿服务,宾馆酒店,四星级宾馆,
116.17464958817615,40.09237772499403,稻香·湖景酒店-湖畔楼,苏家坨稻香湖路28号,北京市,北京市,,住宿服务;宾馆酒店;五星级宾馆,100102,B0FFGBC5PI,住宿服务,宾馆酒店,五星级宾馆,
116.17750974952922,40.0904010930489,北京稻香·湖景酒店,苏家坨镇稻香湖路28号,北京市,北京市,,住宿服务;宾馆酒店;五星级宾馆,100102,B000A7HB0X,住宿服务,宾馆酒店,五星级宾馆,
116.175296738036,40.08959811328731,北京稻香·湖景酒店贵宾楼,苏家坨镇稻香湖路28号,北京市,北京市,,住宿服务;住宿服务相关;住宿服务相关,100000,B0FFF2WII7,住宿服务,住宿服务相关,住宿服务相关,
116.1817176269241,40.079034427471434,北京海淀万枫酒店,三星庄路和稻香湖路交汇处,北京市,北京市,,住宿服务;宾馆酒店;宾馆酒店,100100,B0G21U9ZYA,住宿服务,宾馆酒店,宾馆酒店,
116.17469675137613,40.09212483005417,北京稻香·湖景酒店北区,苏家坨稻香湖路28号,北京市,北京市,,住宿服务;宾馆酒店;四星级宾馆,100103,B000A863KP,住宿服务,宾馆酒店,四星级宾馆,
116.19261271500955,40.10267613813573,北京王梓铭客栈(马坊中路分店),亿起玩绿色生活社区,北京市,北京市,,住宿服务;住宿服务相关;住宿服务相关,100000,B0FFKWFQ51,住宿服务,住宿服务相关,住宿服务相关,
116.1508874645374,40.03306641163561,北京温泉金辉酒店,温泉镇温泉村双坡路南坡,北京市,北京市,,住宿服务;宾馆酒店;三星级宾馆,100104,B000A9ET8K,住宿服务,宾馆酒店,三星级宾馆,
116.1781626005702,40.04243623309381,北京L杰公寓,白家疃尚品园-3号楼,北京市,北京市,,住宿服务;宾馆酒店;宾馆酒店,100100,B0FFKVC1I0,住宿服务,宾馆酒店,宾馆酒店,
116.1794869457879,40.0445725066638,时尚好家公寓(暂停营业),温泉镇尚峰尚水C区4号楼,北京市,北京市,,住宿服务;住宿服务相关;住宿服务相关,100000,B0FFIL9ELX,住宿服务,住宿服务相关,住宿服务相关,
116.15062852609243,40.04274245278208,温泉温馨公寓,温泉镇温泉村北坡2号,北京市,北京市,,住宿服务;旅馆招待所;旅馆招待所,100200,B0FFI7YIA3,住宿服务,旅馆招待所,旅馆招待所,
116.1504270139824,40.04244710981352,北京尚易公寓,温泉村北坡7-1号,北京市,北京市,,住宿服务;旅馆招待所;旅馆招待所,100200,B0G0UANWPC,住宿服务,旅馆招待所,旅馆招待所,
116.19105206285467,40.03753075622891,北京起点公寓,温泉路26号附近四季蓝山公馆-西2门,北京市,北京市,,住宿服务;宾馆酒店;宾馆酒店,100100,B0FFLKHYG3,住宿服务,宾馆酒店,宾馆酒店,
116.15066358806114,40.04300750119518,温泉智慧公寓,温泉镇温泉村北坡1号,北京市,北京市,,住宿服务;旅馆招待所;旅馆招待所,100200,B0G3AZCSRR,住宿服务,旅馆招待所,旅馆招待所,
116.18757653938427,40.035399103673576,满庭芳华呓语西厢客房,温泉镇颐阳山水居西区养心园106号,北京市,北京市,,住宿服务;住宿服务相关;住宿服务相关,100000,B0FFIMAOH3,住宿服务,住宿服务相关,住宿服务相关,
116.15010309424872,40.04274051894302,温泉北坡九号公寓,[],北京市,北京市,,住宿服务;住宿服务相关;住宿服务相关,100000,B0HA1SFKMZ,住宿服务,住宿服务相关,住宿服务相关,
116.17333145592649,40.05648162268934,潇湘府商务酒店,地锦路5号院1号楼,北京市,北京市,,住宿服务;宾馆酒店;宾馆酒店,100100,B0FFG1EFYZ,住宿服务,宾馆酒店,宾馆酒店,
116.18863719056975,39.9881410206849,香山饭店,买卖街40号香山公园内,北京市,北京市,香山,住宿服务;宾馆酒店;四星级宾馆,100103,B000A2C008,住宿服务,宾馆酒店,四星级宾馆,
116.1800535560455,39.99638579281162,西山小院陆号院,碧云寺路香山公园北门内侧,北京市,北京市,,住宿服务;旅馆招待所;旅馆招待所,100200,B0FFLCRVOI,住宿服务,旅馆招待所,旅馆招待所,
116.17882324720581,39.9960975949638,北京乐界有一个地方只有我们知道客栈,香山公园北门碧云寺塔后身9号,北京市,北京市,,住宿服务;住宿服务相关;住宿服务相关,100000,B0FFINH4IJ,住宿服务,住宿服务相关,住宿服务相关,
116.19099029826923,39.99462363262141,香山乙十六号院,香山公园旁,北京市,北京市,香山,住宿服务;住宿服务相关;住宿服务相关,100000,B0FFJ8HRYI,住宿服务,住宿服务相关,住宿服务相关,
116.1819527119948,39.996082184131794,西山小院(伍号店),香山塔后身1号(香山公园北京植物园碧云寺卧佛寺),北京市,北京市,香山,住宿服务;旅馆招待所;旅馆招待所|购物服务;购物相关场所;购物相关场所,100200|060000,B0FFHSKZUI,住宿服务,旅馆招待所,旅馆招待所|购物服务,购物相关场所
116.1626532001165,39.93114325265036,昆伯酒店,金顶北街59号院甲一号(临近地铁1号线苹果园站),北京市,北京市,金顶街,住宿服务;宾馆酒店;四星级宾馆,100103,B0FFFAE0VO,住宿服务,宾馆酒店,四星级宾馆,
116.19006790959452,39.94743500443584,华北宾馆,八大处甲1号,北京市,北京市,西山,住宿服务;宾馆酒店;五星级宾馆,100102,B000A8XGI5,住宿服务,宾馆酒店,五星级宾馆,
116.16209552641767,39.93193218126435,7天酒店(北京苹果园地铁站金顶北街店),金顶北街模式口东里5区(模式口区域),北京市,北京市,金顶街,住宿服务;宾馆酒店;经济型连锁酒店,100105,B000A876IB,住宿服务,宾馆酒店,经济型连锁酒店,
116.1781813992979,39.93323193723041,海友酒店(北京苹果园店),西井路19号院1号楼,北京市,北京市,石景山,住宿服务;宾馆酒店;经济型连锁酒店,100105,B0FFF3VFFY,住宿服务,宾馆酒店,经济型连锁酒店,
116.18955397707764,39.920595227976506,速8酒店(北京石景山玖玖源店),杨庄东街72号,北京市,北京市,石景山,住宿服务;宾馆酒店;经济型连锁酒店,100105,B0FFF34IRT,住宿服务,宾馆酒店,经济型连锁酒店,
116.15341079204424,39.92748136297321,首钢今时宾馆,金顶西街5号,北京市,北京市,金顶街,住宿服务;宾馆酒店;宾馆酒店,100100,B000A85RZB,住宿服务,宾馆酒店,宾馆酒店,
116.17212117690083,39.928792004446976,金山宾馆,苹果园路(首都师大附属苹果园中学西侧约50米),北京市,北京市,石景山,住宿服务;旅馆招待所;旅馆招待所,100200,B0FFHBBFK6,住宿服务,旅馆招待所,旅馆招待所,
116.17269589107161,39.92793610298547,凤萍旅馆,苹果园北路与苹果园路交叉口西北200米,北京市,北京市,石景山,住宿服务;旅馆招待所;旅馆招待所,100200,B0FFFZCDUM,住宿服务,旅馆招待所,旅馆招待所,
116.17217941753697,39.92817413720747,苹北旅馆,苹果园地铁后面村里,北京市,北京市,石景山,住宿服务;旅馆招待所;旅馆招待所|住宿服务;宾馆酒店;宾馆酒店,100200|100100,B0FFFAEK6Q,住宿服务,旅馆招待所,旅馆招待所|住宿服务,宾馆酒店
116.17201497285204,39.928051837393326,苹蓉旅馆,金顶山村22号,北京市,北京市,石景山,住宿服务;旅馆招待所;旅馆招待所,100200,B0FFFAE6XN,住宿服务,旅馆招待所,旅馆招待所,
116.18067894679278,39.93512234860901,北京誉景苑酒店,八大处高科技园区双园路11号电子科学研究院,北京市,北京市,石景山,住宿服务;宾馆酒店;三星级宾馆,100104,B000AA9IVN,住宿服务,宾馆酒店,三星级宾馆,
116.17277311262484,39.92788924771868,华苹旅馆,金顶山村11号,北京市,北京市,石景山,住宿服务;旅馆招待所;旅馆招待所,100200,B0FFFAEIIR,住宿服务,旅馆招待所,旅馆招待所,
116.17291049262032,39.92791750062908,萍金旅馆,苹果园三区八栋楼对面环美游泳馆西南方向130米,北京市,北京市,石景山,住宿服务;旅馆招待所;旅馆招待所,100200,B0FFFAEPN6,住宿服务,旅馆招待所,旅馆招待所,
116.17863250905583,39.94216839896243,银保建国酒店,金府路32号院1号楼,北京市,北京市,西山,住宿服务;宾馆酒店;五星级宾馆,100102,B0FFJZMFCZ,住宿服务,宾馆酒店,五星级宾馆,
116.19193086880351,39.928828773907156,苹东宾馆,[],北京市,北京市,石景山,住宿服务;宾馆酒店;宾馆酒店,100100,B000A88ABX,住宿服务,宾馆酒店,宾馆酒店,
116.18975262904416,39.927374280161565,锦江之星酒店(北京苹果园店),苹果园南路杨庄北区44号楼(距离地铁1号线苹果园站A口2公里),北京市,北京市,石景山,住宿服务;宾馆酒店;经济型连锁酒店,100105,B000A87BAG,住宿服务,宾馆酒店,经济型连锁酒店,
116.15619041989248,39.928161401324466,北京天瑞德宸酒店,金顶北路22号2栋,北京市,北京市,金顶街,住宿服务;宾馆酒店;宾馆酒店,100100,B0FFIS6FUU,住宿服务,宾馆酒店,宾馆酒店,
116.15615833688842,39.928110344549935,德宸酒店,金顶北路22号院2栋,北京市,北京市,金顶街,住宿服务;宾馆酒店;宾馆酒店,100100,B0FFKGMY2H,住宿服务,宾馆酒店,宾馆酒店,
116.16686331376536,39.921448509380305,锦江之星品尚(北京苹果园地铁站店),阜石路300号,北京市,北京市,石景山,住宿服务;宾馆酒店;经济型连锁酒店,100105,B0FFFRKD3N,住宿服务,宾馆酒店,经济型连锁酒店,
116.17763830060741,39.938101760217286,霞光苑,桃花源迎霞苑,北京市,北京市,西山,住宿服务;住宿服务相关;住宿服务相关,100000,B0FFLJWIRN,住宿服务,住宿服务相关,住宿服务相关,
116.15557308438234,39.92512239341966,金顺宾馆(金顶街店),金顶西街与金顶路交叉口东100米,北京市,北京市,金顶街,住宿服务;旅馆招待所;旅馆招待所|住宿服务;宾馆酒店;宾馆酒店,100200|100100,B0FFG75RQU,住宿服务,旅馆招待所,旅馆招待所|住宿服务,宾馆酒店
116.18165134915087,39.92087865111839,公社1958精品酒店,杨庄路西口70号公社,北京市,北京市,古城,住宿服务;宾馆酒店;宾馆酒店,100100,B0FFG6TI5I,住宿服务,宾馆酒店,宾馆酒店,
116.19127114800338,39.92955867794367,百合快捷酒店,苹果园南路东口甲11号(苹果园南路与杨庄东街交汇处天宇大厦内),北京市,北京市,石景山,住宿服务;宾馆酒店;经济型连锁酒店,100105,B0FFFIP3UU,住宿服务,宾馆酒店,经济型连锁酒店,
116.17319859978969,39.92550513049704,北京都别闹我有枪公寓,苹果汇,北京市,北京市,石景山,住宿服务;住宿服务相关;住宿服务相关,100000,B0FFKVUAKN,住宿服务,住宿服务相关,住宿服务相关,
116.17319862336545,39.92531813811732,北京陈诗尧公寓,苹果汇苹果园南路69号,北京市,北京市,石景山,住宿服务;住宿服务相关;住宿服务相关,100000,B0FFKVUASQ,住宿服务,住宿服务相关,住宿服务相关,
116.17329589595872,39.925307318213186,北京潘权公寓,苹果汇(苹果汇小区1号楼3层),北京市,北京市,石景山,住宿服务;住宿服务相关;住宿服务相关,100000,B0FFKXO4IM,住宿服务,住宿服务相关,住宿服务相关,
116.19115128199199,39.92611162230423,北京石景山金东宾馆,杨庄东街鼎城世家51-7号楼(距离首钢医院400米),北京市,北京市,石景山,住宿服务;宾馆酒店;宾馆酒店,100100,B0FFF5B3P9,住宿服务,宾馆酒店,宾馆酒店,
116.18981739784115,39.946496628535755,天沐连锁酒店(北京苹果园店),八大处路22号,北京市,北京市,西山,住宿服务;宾馆酒店;宾馆酒店,100100,B000A8VUP5,住宿服务,宾馆酒店,宾馆酒店,
116.17318960336685,39.92527712311743,sammiliu公寓(北京2号店),苹果汇1502,北京市,北京市,石景山,住宿服务;住宿服务相关;住宿服务相关,100000,B0FFKXJLOI,住宿服务,住宿服务相关,住宿服务相关,
116.15184123111439,39.92940045697928,美天快捷酒店,石门路1-10号,北京市,北京市,金顶街,住宿服务;宾馆酒店;宾馆酒店,100100,B000A8XIJL,住宿服务,宾馆酒店,宾馆酒店,
116.18019982820896,39.925752868556984,速8酒店(北京苹果园杨庄地铁站店),杨庄大街2号,北京市,北京市,石景山,住宿服务;宾馆酒店;经济型连锁酒店,100105,B000A9EUZ0,住宿服务,宾馆酒店,经济型连锁酒店,
116.16704980646982,39.92171584687785,如家快捷酒店(北京苹果园地铁站店),阜石路300-1号,北京市,北京市,古城,住宿服务;宾馆酒店;经济型连锁酒店,100105,B0FFFPLNVD,住宿服务,宾馆酒店,经济型连锁酒店,
116.17970140493942,39.91039261207885,百川宾馆,古城大街古城派出所对面,北京市,北京市,古城,住宿服务;宾馆酒店;宾馆酒店,100100,B000A8U8FX,住宿服务,宾馆酒店,宾馆酒店,
116.18119162079445,39.91684200207815,锦江之星酒店(北京古城北路店),古城北路81号(近北方工业大学),北京市,北京市,古城,住宿服务;宾馆酒店;经济型连锁酒店,100105,B000AA1EYP,住宿服务,宾馆酒店,经济型连锁酒店,
116.18014322566673,39.91339127686412,速8酒店(古城大街店),古城西路与古城大街交叉路口西北侧,北京市,北京市,石景山,住宿服务;宾馆酒店;经济型连锁酒店,100105,B0FFH2P7XP,住宿服务,宾馆酒店,经济型连锁酒店,
116.18213523678105,39.92413237401204,止水公寓,生活西现代城26号楼,北京市,北京市,石景山,住宿服务;旅馆招待所;旅馆招待所,100200,B0FFLGMENJ,住宿服务,旅馆招待所,旅馆招待所,
116.18675402306954,39.9270322676371,杭州芷宿民宿,奈伦熙府48号楼1408杭州芷宿民宿,北京市,北京市,石景山,住宿服务;旅馆招待所;旅馆招待所,100200,B0FFMHAN7I,住宿服务,旅馆招待所,旅馆招待所,
116.17762195484306,39.91660759899904,京西乾成公寓,古城大街1号院汽车贸易园奥迪4S店后面,北京市,北京市,古城,住宿服务;旅馆招待所;旅馆招待所,100200,B0FFHONVU2,住宿服务,旅馆招待所,旅馆招待所,
116.18595144112535,39.94698810635252,悦途酒楼,实兴北街与金顶山路交叉口东北50米,北京市,北京市,,餐饮服务;中餐厅;综合酒楼|住宿服务;宾馆酒店;宾馆酒店,050101|100100,B0FFMGQ4LR,餐饮服务,中餐厅,综合酒楼|住宿服务,宾馆酒店
116.1807668890982,39.91355738345637,99旅馆连锁(古城地铁站店),新古城路1号1层,北京市,北京市,古城,住宿服务;宾馆酒店;经济型连锁酒店,100105,B0FFFZKUEF,住宿服务,宾馆酒店,经济型连锁酒店,
116.18963919238534,39.920590369075725,北京玖玖源假日酒店,杨庄南路与杨庄路交叉路口往南约50米(速8酒店),北京市,北京市,古城,住宿服务;宾馆酒店;宾馆酒店,100100,B0FFIQG4ER,住宿服务,宾馆酒店,宾馆酒店,
116.19056698588533,39.916854049223254,99旅馆连锁(北京八角游乐园店),八角西街北口杨庄小区院里26号楼北侧,北京市,北京市,古城,住宿服务;宾馆酒店;经济型连锁酒店,100105,B0FFF4PPL6,住宿服务,宾馆酒店,经济型连锁酒店,
116.18206646137106,39.9208743856633,如家快捷酒店(北京石景山杨庄西路店),杨庄西路70号(近地铁1号线苹果园站D出口),北京市,北京市,古城,住宿服务;宾馆酒店;宾馆酒店,100100,B0FFG6UICY,住宿服务,宾馆酒店,宾馆酒店,
116.17567503947538,39.91306819835664,北京华庭荟酒店,古城西路甲8号,北京市,北京市,古城,住宿服务;宾馆酒店;宾馆酒店,100100,B0G0LDF7CF,住宿服务,宾馆酒店,宾馆酒店,
116.14592495191116,39.9161785967187,秀池智选假日酒店,石景山区68号首钢园区内五一剧场路,北京市,北京市,,住宿服务;宾馆酒店;宾馆酒店,100100,B0FFLFG5YY,住宿服务,宾馆酒店,宾馆酒店,
116.14934044856689,39.92127333509215,北京首钢工舍智选假日酒店,石景山路68号首钢工舍1-7层,北京市,北京市,,住宿服务;住宿服务相关;住宿服务相关,100000,B0FFJJGM30,住宿服务,住宿服务相关,住宿服务相关,
116.18869537087352,39.92405765964186,北京王彤儿公寓,阜石路与杨庄东街交汇处,北京市,北京市,石景山,住宿服务;住宿服务相关;住宿服务相关,100000,B0FFLGQX4V,住宿服务,住宿服务相关,住宿服务相关,
116.18429702099905,39.915779504742126,九千岁的温馨小家民宿,古城北路17号楼四单元,北京市,北京市,古城,住宿服务;住宿服务相关;住宿服务相关,100000,B0FFHHWFCB,住宿服务,住宿服务相关,住宿服务相关,
116.18165134915087,39.92087865111839,如家商旅酒店(北京石景山公社1958创意园店),杨庄路西口70号院(华信大厦西侧),北京市,北京市,古城,住宿服务;住宿服务相关;住宿服务相关,100000,B0FFJYMYXW,住宿服务,住宿服务相关,住宿服务相关,
116.1808591405757,39.913534548760765,99优选酒店(北京古城店),古城大街古城路1号楼1层,北京市,北京市,古城,住宿服务;宾馆酒店;宾馆酒店,100100,B0FFG0WPZD,住宿服务,宾馆酒店,宾馆酒店,
116.18308510378344,39.91347648576616,北京市易佰连锁旅店(古城地铁站店),古城小街甲6号百合烤鸭4层(古城地铁A出口北800米),北京市,北京市,古城,住宿服务;旅馆招待所;旅馆招待所,100200,B0FFIAOVQD,住宿服务,旅馆招待所,旅馆招待所,
116.19261908405797,39.91661237723571,汉庭优佳酒店,杨庄东路126号,北京市,北京市,石景山,住宿服务;宾馆酒店;宾馆酒店,100100,B0HBMAKRAE,住宿服务,宾馆酒店,宾馆酒店,
116.14418039198799,39.915966634018496,红楼迎宾馆,首钢厂内,北京市,北京市,,住宿服务;宾馆酒店;宾馆酒店,100100,B000A8VMR9,住宿服务,宾馆酒店,宾馆酒店,
116.17262056504391,39.91294757972786,北京舒乐营公寓(2号店),古城西路68号院1号楼1单元1607,北京市,北京市,石景山,住宿服务;住宿服务相关;住宿服务相关,100000,B0FFLA155B,住宿服务,住宿服务相关,住宿服务相关,
116.14447047286568,39.913424230995126,首钢园香格里拉酒店,石景山路68号院群明湖西街,北京市,北京市,,住宿服务;宾馆酒店;宾馆酒店,100100,B0HGVHQ7FY,住宿服务,宾馆酒店,宾馆酒店,
116.19261503917838,39.91689235912701,汉庭优佳酒店(北京石景山游乐园店),杨庄东路126号,北京市,北京市,石景山,住宿服务;住宿服务相关;住宿服务相关,100000,B0G0P9GSLJ,住宿服务,住宿服务相关,住宿服务相关,
116.18307519121754,39.91256850660039,北京健乐苑商务休闲会馆,古城路1-6号,北京市,北京市,古城,住宿服务;宾馆酒店;经济型连锁酒店,100105,B0FFHPC2OR,住宿服务,宾馆酒店,经济型连锁酒店,
116.18600691864754,39.91240159588733,北京首钢实业37度公寓,古城东街与八角路交叉路口往西南约50米,北京市,北京市,石景山,住宿服务;住宿服务相关;住宿服务相关,100000,B0FFLMELBW,住宿服务,住宿服务相关,住宿服务相关,
116.19228074277568,39.912717998852656,派酒店(北京石景山八角游乐园地铁站店),八角西街61号,北京市,北京市,古城,住宿服务;宾馆酒店;经济型连锁酒店,100105,B0FFG6PZ6O,住宿服务,宾馆酒店,经济型连锁酒店,
116.1779234292856,39.91143836231748,如意公寓,古城西路甲8号如意小区院内2号综合楼3区5层3501室,北京市,北京市,古城,住宿服务;旅馆招待所;旅馆招待所,100200,B0FFGNH3G0,住宿服务,旅馆招待所,旅馆招待所,
116.18551369494008,39.91191477005661,创业公社·37度公寓,古城小街首钢古城单身宿舍,北京市,北京市,石景山,住宿服务;宾馆酒店;宾馆酒店,100100,B0FFH16WR3,住宿服务,宾馆酒店,宾馆酒店,
116.18607516183113,39.91187573491412,创业公社公寓,八角街道首钢古城单身宿舍8号楼,北京市,北京市,石景山,住宿服务;旅馆招待所;旅馆招待所,100200,B0FFGMD4K3,住宿服务,旅馆招待所,旅馆招待所,
116.17899576129429,39.908210436766026,京恒宾馆,古城大街电话局西侧(石景山区老古城小学旁),北京市,北京市,古城,住宿服务;宾馆酒店;宾馆酒店,100100,B000A70A6B,住宿服务,宾馆酒店,宾馆酒店,
116.16693015977664,39.89239188746168,子美酒店,燕堤南路2号院10号楼,北京市,北京市,,住宿服务;住宿服务相关;住宿服务相关,100000,B0FFJ8B4ZO,住宿服务,住宿服务相关,住宿服务相关,
116.1798149082417,39.90883288205478,银星宾馆(古城大街)(暂停营业),古城大街53号2,北京市,北京市,古城,住宿服务;宾馆酒店;宾馆酒店,100100,B000A7R382,住宿服务,宾馆酒店,宾馆酒店,
116.17523042610004,39.89222229745977,慧平公寓,京原路与水泥厂后身路交叉口西北150米,北京市,北京市,,住宿服务;旅馆招待所;旅馆招待所,100200,B0FFG8VIYD,住宿服务,旅馆招待所,旅馆招待所,
116.17570680153891,39.891760191505135,温馨公寓(水泥厂后身路),京源路燕山水泥厂小区北侧临10号,北京市,北京市,,住宿服务;旅馆招待所;旅馆招待所,100200,B0FFF9PG75,住宿服务,旅馆招待所,旅馆招待所,
116.18605798997257,39.90490300411568,7天优品酒店(古城地铁站店),古城南里45号(古城地铁1号线麦当劳斜对面),北京市,北京市,古城,住宿服务;住宿服务相关;住宿服务相关,100000,B000A8URC9,住宿服务,住宿服务相关,住宿服务相关,
116.17317274927119,39.89190352390981,北京美丽的永定河畔公寓,古城街道燕山水泥厂社区,北京市,北京市,,住宿服务;住宿服务相关;住宿服务相关,100000,B0FFLI8RYT,住宿服务,住宿服务相关,住宿服务相关,
116.17799847549425,39.90473578541977,寓生活公寓(北京古城地铁站店),西长安街与古城大街交汇处西60米金融街长安中心F座,北京市,北京市,石景山,住宿服务;宾馆酒店;宾馆酒店,100100,B0FFK4RTR7,住宿服务,宾馆酒店,宾馆酒店,
116.17650151285142,39.90356511547425,糖果温馨公寓,古城南路城通街26号院8号楼1单元,北京市,北京市,古城,住宿服务;旅馆招待所;旅馆招待所,100200,B0FFKT2G9U,住宿服务,旅馆招待所,旅馆招待所,
116.17882617582787,39.90919608904942,速八酒店(古城地铁站店),古城大街西侧古城宾馆5号楼,北京市,北京市,古城,住宿服务;宾馆酒店;经济型连锁酒店,100105,B0G1R93OBZ,住宿服务,宾馆酒店,经济型连锁酒店,
116.17438504156085,39.892546729617884,奇乐生活社区(石景山2号店),[],北京市,北京市,,住宿服务;住宿服务相关;住宿服务相关,100000,B0HAJZ582U,住宿服务,住宿服务相关,住宿服务相关,
116.17991311437567,39.909311037634126,金涛连锁酒店(古城地铁店),古城大街51号古城旅馆三号楼,北京市,北京市,古城,住宿服务;宾馆酒店;宾馆酒店,100100,B0FFFAER4G,住宿服务,宾馆酒店,宾馆酒店,
116.17552628481918,39.89190185444827,奇乐生活社区(石景山1号店),水泥厂后身路,北京市,北京市,,住宿服务;住宿服务相关;住宿服务相关,100000,B0HAJZ7B0G,住宿服务,住宿服务相关,住宿服务相关,
116.17661691291234,39.90290935455298,狂躁的小狮纸公寓(北京2号店),城通街26号院7号楼,北京市,北京市,石景山,住宿服务;住宿服务相关;住宿服务相关,100000,B0FFL45NX2,住宿服务,住宿服务相关,住宿服务相关,
116.17712829886861,39.903071278679185,北京岦锦民宿(古城南街分店),古汇路(古城长安金融中心),北京市,北京市,古城,住宿服务;住宿服务相关;住宿服务相关,100000,B0FFLA4G2W,住宿服务,住宿服务相关,住宿服务相关,
116.17721529652131,39.90499435316338,金融街智慧商务概念馆,石景山路54号院5号楼,北京市,北京市,石景山,住宿服务;住宿服务相关;住宿服务相关,100000,B0FFLHV8K9,住宿服务,住宿服务相关,住宿服务相关,
116.18111292203874,39.888808091994235,祥和商务公寓,古城街道永定林宿舍祥和商务公寓,北京市,北京市,,住宿服务;宾馆酒店;宾馆酒店,100100,B0FFKZNQX0,住宿服务,宾馆酒店,宾馆酒店,
116.17757645197842,39.90368206620634,北京途掌柜121400精品民宿,城通街26号院,北京市,北京市,石景山,住宿服务;住宿服务相关;住宿服务相关,100000,B0FFLGMEY0,住宿服务,住宿服务相关,住宿服务相关,
116.17669905631136,39.90356847549843,北京神仙/小哥哥公寓(8号店),金融街长安中心(城通街26号院),北京市,北京市,古城,住宿服务;住宿服务相关;住宿服务相关,100000,B0FFKUX62P,住宿服务,住宿服务相关,住宿服务相关,
116.17924284091676,39.90496102150355,小2民宿(北京城通街店),城通街26号院(8号楼),北京市,北京市,古城,住宿服务;住宿服务相关;住宿服务相关,100000,B0FFL0NAVG,住宿服务,住宿服务相关,住宿服务相关,
116.17855022679089,39.90279086786999,乐友家公寓,古城南街9号院6号楼7层710,北京市,北京市,古城,住宿服务;宾馆酒店;宾馆酒店,100100,B0GUDYP9EU,住宿服务,宾馆酒店,宾馆酒店,
116.18883653809804,39.90960149658687,汉庭酒店(北京石景山古城店),八角南路1号(古城东街京客隆超市东门),北京市,北京市,古城,住宿服务;宾馆酒店;经济型连锁酒店,100105,B0FFFEZRW3,住宿服务,宾馆酒店,经济型连锁酒店,
116.18620310107273,39.90702616055992,北京凯笛宾馆,石景山路古城南路社区43号楼(近1号线地铁古城站B口),北京市,北京市,古城,住宿服务;宾馆酒店;宾馆酒店,100100,B000A8UU0U,住宿服务,宾馆酒店,宾馆酒店,
116.18492402501,39.90494705174297,彩虹酒店(古城地铁站店),古城南里甲5号,北京市,北京市,古城,住宿服务;宾馆酒店;宾馆酒店,100100,B0HBGUFIKU,住宿服务,宾馆酒店,宾馆酒店,
116.17945742186681,39.90497740649972,北京暖屋旗舰酒店式公寓(古城路口分店),26号院金融街长安中心,北京市,北京市,古城,住宿服务;住宿服务相关;住宿服务相关,100000,B0FFIVDNBW,住宿服务,住宿服务相关,住宿服务相关,
116.1818838829078,39.905634704312426,北京晓星沉公寓(店),八角街道古城南里社区3号楼,北京市,北京市,古城,住宿服务;宾馆酒店;宾馆酒店,100100,B0FFL3GNY1,住宿服务,宾馆酒店,宾馆酒店,
116.1774283882312,39.90892457125272,北京舒乐营公寓(2号店),中海金鑫阁3号楼1单元1010,北京市,北京市,石景山,住宿服务;旅馆招待所;旅馆招待所,100200,B0FFLGMFBO,住宿服务,旅馆招待所,旅馆招待所,
116.17727597553349,39.90888029624785,北京熊猫王公寓(3号店),古城街道古盛路36号院(3号楼),北京市,北京市,石景山,住宿服务;住宿服务相关;住宿服务相关,100000,B0FFL0T9K8,住宿服务,住宿服务相关,住宿服务相关,
116.18545338100428,39.90517695464918,北京众拾商务酒店,古城南里东路古城南里甲5号小区,北京市,北京市,古城,住宿服务;住宿服务相关;住宿服务相关,100000,B0FFL2JM2F,住宿服务,住宿服务相关,住宿服务相关,
116.17742546427561,39.90825459458848,北京军闪闪红星想想家公寓,老古城前街18号(中海金鑫阁五号楼),北京市,北京市,石景山,住宿服务;旅馆招待所;旅馆招待所,100200,B0FFKKN180,住宿服务,旅馆招待所,旅馆招待所,
116.18798892429207,39.90524526505405,北京悠然公寓(长安家园店),石景山路42号长安家园1号楼,北京市,北京市,古城,住宿服务;旅馆招待所;旅馆招待所,100200,B0FFH6M9D2,住宿服务,旅馆招待所,旅馆招待所,
116.14306989495458,39.89711858107382,北京白云公寓,龙兴南二路与玉带东二街交叉路口往西南约50米,北京市,北京市,永定,住宿服务;宾馆酒店;宾馆酒店,100100,B0FFM9FE8C,住宿服务,宾馆酒店,宾馆酒店,
116.190851094978,39.90564798844633,古城青年公寓,北京巴威公司古城青年公寓,北京市,北京市,石景山,住宿服务;宾馆酒店;宾馆酒店,100100,B0G2C583MM,住宿服务,宾馆酒店,宾馆酒店,
116.17742032357388,39.90926354214073,北京思盈民宿(老古城前街分店),老古城前街11号,北京市,北京市,石景山,住宿服务;旅馆招待所;旅馆招待所,100200,B0FFLNANKT,住宿服务,旅馆招待所,旅馆招待所,
116.18487286686262,39.905138954981375,七彩快捷宾馆(古城店),古城南里甲5号,北京市,北京市,古城,住宿服务;宾馆酒店;宾馆酒店,100100,B000AA67XK,住宿服务,宾馆酒店,宾馆酒店,
116.18556060345983,39.90563511920953,维也纳3好酒店(北京石景山万达西古城地铁站店),石景山路古城南里甲5号1层(距离古城地铁站50米),北京市,北京市,古城,住宿服务;住宿服务相关;住宿服务相关,100000,B0FFLFTU1M,住宿服务,住宿服务相关,住宿服务相关,
116.19255799191879,39.90815363682635,顺庭快捷酒店,八角西街(社区卫生服务站的南邻),北京市,北京市,古城,住宿服务;宾馆酒店;宾馆酒店,100100,B000AA1GXC,住宿服务,宾馆酒店,宾馆酒店,
116.21457984802177,40.141306985681446,郁金香公寓,马池口镇西坨村134号,北京市,北京市,,住宿服务;旅馆招待所;旅馆招待所,100200,B0G0GMHJFW,住宿服务,旅馆招待所,旅馆招待所,
116.2203108861041,40.14041442459111,香泉足疗住宿,马池口西坨桥与G7京新高速交叉口西200米,北京市,北京市,,住宿服务;住宿服务相关;住宿服务相关,100000,B0FFHWGUBU,住宿服务,住宿服务相关,住宿服务相关,
116.21234038407604,40.1221624231345,同心公寓,沙阳路(中石化加油站东侧50米),北京市,北京市,,住宿服务;旅馆招待所;旅馆招待所,100200,B0FFGV6954,住宿服务,旅馆招待所,旅馆招待所,
116.2143393844296,40.11789092566913,永乐宾馆,上庄镇永泰庄村88号,北京市,北京市,,住宿服务;宾馆酒店;宾馆酒店,100100,B0HALC7QK2,住宿服务,宾馆酒店,宾馆酒店,
116.19906689197913,40.12679396474755,北京干净舒适一居室民宿客栈,区庄镇中心三嘉信苑7号楼8单元,北京市,北京市,,住宿服务;住宿服务相关;住宿服务相关,100000,B0FFHVZVE1,住宿服务,住宿服务相关,住宿服务相关,
116.20121533055722,40.12157550919623,北京兰墅小院,上庄东小营甲一号,北京市,北京市,,住宿服务;住宿服务相关;住宿服务相关,100000,B0FFKU0N97,住宿服务,住宿服务相关,住宿服务相关,
116.20588622164325,40.12125881824787,凤栖巢旅馆,上庄镇沙阳路与上庄路红绿灯路口,北京市,北京市,,住宿服务;旅馆招待所;旅馆招待所,100200,B000A8XLA3,住宿服务,旅馆招待所,旅馆招待所,
116.20654799337862,40.109809635043746,金桥公寓,上庄村5号,北京市,北京市,,住宿服务;旅馆招待所;旅馆招待所,100200,B0FFH6N00T,住宿服务,旅馆招待所,旅馆招待所,
116.20154807762579,40.121414989464746,北京东小营独栋别墅,上庄东小营甲一号,北京市,北京市,,住宿服务;住宿服务相关;住宿服务相关,100000,B0FFILHEV7,住宿服务,住宿服务相关,住宿服务相关,
116.19676474262894,40.10982901920616,北京美地亚酒店,翠湖路8号俱乐部1幢1层东部、3层,北京市,北京市,,住宿服务;宾馆酒店;宾馆酒店,100100,B0FFIVBSFU,住宿服务,宾馆酒店,宾馆酒店,
116.22370798427016,40.08059703241882,北京中关村永丰基地亚朵酒店,丰润中路5号院29号楼,北京市,北京市,西北旺,住宿服务;住宿服务相关;住宿服务相关,100000,B0FFKNKJG8,住宿服务,住宿服务相关,住宿服务相关,
116.21663031588938,40.07667732560916,和谐公寓(丰润西路),西北旺永澄北路永丰屯丰润西路,北京市,北京市,西北旺,住宿服务;旅馆招待所;旅馆招待所,100200,B0FFG8VZT6,住宿服务,旅馆招待所,旅馆招待所,
116.21363453548675,40.07522239946098,及第公寓,丰润西路北50米,北京市,北京市,西北旺,住宿服务;住宿服务相关;住宿服务相关,100000,B0FFG96SA1,住宿服务,住宿服务相关,住宿服务相关,
116.21399613917578,40.07534577114698,长旺公寓,西北旺永丰屯东口丰润西路西50米,北京市,北京市,西北旺,住宿服务;旅馆招待所;旅馆招待所,100200,B0FFG8VZWJ,住宿服务,旅馆招待所,旅馆招待所,
116.22898153260346,40.08472807097166,妈妈驿站,西北旺镇永丰乡大牛坊2期3号楼6单元,北京市,北京市,,住宿服务;住宿服务相关;住宿服务相关,100000,B0FFK98YUB,住宿服务,住宿服务相关,住宿服务相关,
116.2054390682094,40.09933704409911,7天酒店(北京海淀上庄店),上庄镇上庄水库南,北京市,北京市,,住宿服务;宾馆酒店;经济型连锁酒店,100105,B0FFGK8FKM,住宿服务,宾馆酒店,经济型连锁酒店,
116.23049739199853,40.07384256972127,如家快捷酒店(北京北清路永丰地铁站店),丰秀中路3号院7号楼C1-C2号楼,北京市,北京市,西北旺,住宿服务;宾馆酒店;经济型连锁酒店,100105,B0FFFYWO7Z,住宿服务,宾馆酒店,经济型连锁酒店,
116.21471431103096,40.07567749152952,北京山行公寓(3号店),永大路(永丰中心双语幼儿园东北侧约150米),北京市,北京市,西北旺,住宿服务;旅馆招待所;旅馆招待所,100200,B0FFKV6OQU,住宿服务,旅馆招待所,旅馆招待所,
116.22985559538135,40.08324262776974,青尚公寓,永丰路大牛坊社区一期6号楼3单元101室,北京市,北京市,西北旺,住宿服务;住宿服务相关;住宿服务相关,100000,B0G1352WNZ,住宿服务,住宿服务相关,住宿服务相关,
116.21339114127085,40.07501815486456,永鑫公寓,丰润西路,北京市,北京市,西北旺,住宿服务;宾馆酒店;宾馆酒店,100100,B0FFFYL56W,住宿服务,宾馆酒店,宾馆酒店,
116.21623475038129,40.07613597857579,倾心悦家公寓(北京永大路店),丰润西路,北京市,北京市,西北旺,住宿服务;住宿服务相关;住宿服务相关,100000,B0FFLGMF16,住宿服务,住宿服务相关,住宿服务相关,
116.23121096983427,40.074546857737104,家辉裕豪酒店,丰秀中路3号院2号楼4层101-405,北京市,北京市,西北旺,住宿服务;宾馆酒店;宾馆酒店,100100,B0GUCH6GR9,住宿服务,宾馆酒店,宾馆酒店,
116.21782361083949,40.073280669592556,北京婷小帅特色民宿,永大路(香岩寺北侧约100米),北京市,北京市,西北旺,住宿服务;旅馆招待所;旅馆招待所,100200,B0FFLDNRWO,住宿服务,旅馆招待所,旅馆招待所,
116.2097717859429,40.09754552863669,如庭酒店(北京上庄店),上庄镇千禧超市三楼(近上庄路),北京市,北京市,,住宿服务;宾馆酒店;宾馆酒店,100100,B0FFHCDZ8L,住宿服务,宾馆酒店,宾馆酒店,
116.21968087183048,40.077464052162895,永丰公寓,丰润中路6,北京市,北京市,西北旺,住宿服务;旅馆招待所;旅馆招待所,100200,B0FFG969PJ,住宿服务,旅馆招待所,旅馆招待所,
116.206097425109,40.09917090339034,大连锁酒店,常乐路与南沙河西路交叉路口往西约150米,北京市,北京市,,住宿服务;宾馆酒店;宾馆酒店,100100,B0HACRV9AM,住宿服务,宾馆酒店,宾馆酒店,
116.19590324611546,40.105677045567,碧清湖畔,上庄镇上庄村740号,北京市,北京市,,住宿服务;宾馆酒店;宾馆酒店,100100,B0FFFY46Z0,住宿服务,宾馆酒店,宾馆酒店,
116.20966836340766,40.06748346317199,北京永家公寓(2号店),北清路屯佃,北京市,北京市,,住宿服务;住宿服务相关;住宿服务相关,100000,B0FFKUX64D,住宿服务,住宿服务相关,住宿服务相关,
116.24056806084577,40.100975609772036,玉河公寓,玉河东路18号,北京市,北京市,,住宿服务;旅馆招待所;旅馆招待所,100200,B0FFH8A8SW,住宿服务,旅馆招待所,旅馆招待所,
116.22818855951138,40.101859376277496,北京尚庄度假村别苑(2号店),尚庄度假村南区,北京市,北京市,,住宿服务;住宿服务相关;住宿服务相关,100000,B0FFKV6PKI,住宿服务,住宿服务相关,住宿服务相关,
116.20944165073308,40.06178354198395,欢乐宜居,屯佃村9号工业园区西南(上庄路西),北京市,北京市,西北旺,住宿服务;住宿服务相关;住宿服务相关,100000,B0FFKQBMCN,住宿服务,住宿服务相关,住宿服务相关,
116.19953540015892,40.10731431883124,海至丹酒店(上庄水库),上庄镇上庄水库上庄村512号(翠湖湿地国家公园东),北京市,北京市,,住宿服务;宾馆酒店;宾馆酒店,100100,B0FFFW6TY8,住宿服务,宾馆酒店,宾馆酒店,
116.20392423912547,40.065062391313404,龙腾公寓,北清路附近,北京市,北京市,西北旺,住宿服务;旅馆招待所;旅馆招待所,100200,B0FFG88JXE,住宿服务,旅馆招待所,旅馆招待所,
116.21838801492126,40.03699226723316,鲁恩宾馆,冷泉路东50米,北京市,北京市,西北旺,住宿服务;宾馆酒店;宾馆酒店,100100,B000A9Q78G,住宿服务,宾馆酒店,宾馆酒店,
116.2196276559895,40.03061768286702,小红门公寓,冷泉路冷泉村,北京市,北京市,西北旺,住宿服务;宾馆酒店;宾馆酒店,100100,B0FFLC7QX7,住宿服务,宾馆酒店,宾馆酒店,
116.20600968552709,40.031914941674685,北京燕飞培训中心宾馆,温泉镇环山村燕飞园对面,北京市,北京市,,住宿服务;宾馆酒店;宾馆酒店,100100,B0FFFEMWWJ,住宿服务,宾馆酒店,宾馆酒店,
116.2281547493793,40.02810690987037,冷泉会议中心,冷泉东路88号,北京市,北京市,西北旺,住宿服务;宾馆酒店;宾馆酒店,100100,B0FFHOJILU,住宿服务,宾馆酒店,宾馆酒店,
116.20610388165416,40.031866064520585,航材院北京燕飞培训中心,温泉镇环山村(近百旺山森林公园),北京市,北京市,,住宿服务;宾馆酒店;三星级宾馆,100104,B000A7P94I,住宿服务,宾馆酒店,三星级宾馆,
116.21884308287062,40.02592922514544,樱桃园公寓,冷泉路12号附近,北京市,北京市,西北旺,住宿服务;旅馆招待所;旅馆招待所,100200,B0FFGIHITV,住宿服务,旅馆招待所,旅馆招待所,
116.20356995549201,40.02949285902087,航材青年公寓,温泉镇航材大道青年公寓,北京市,北京市,,住宿服务;旅馆招待所;旅馆招待所,100200,B0FFGIKXHA,住宿服务,旅馆招待所,旅馆招待所,
116.23592027696841,40.038221692944596,北漂公寓,韩家川路(韩家川幼儿园东南侧),北京市,北京市,西北旺,住宿服务;旅馆招待所;旅馆招待所,100200,B0FFGJ4BNI,住宿服务,旅馆招待所,旅馆招待所,
116.24132430825887,40.03763568912109,盛川快捷酒店,韩家川村村口,北京市,北京市,西北旺,住宿服务;宾馆酒店;宾馆酒店,100100,B000A9PHMC,住宿服务,宾馆酒店,宾馆酒店,
116.19700134648936,40.04579364748946,薇薇妈公寓(北京7号店),画眉山东路水岸温泉北区6号楼,北京市,北京市,,住宿服务;住宿服务相关;住宿服务相关,100000,B0FFL0NAQN,住宿服务,住宿服务相关,住宿服务相关,
116.24254795923979,40.03615083106984,舒安公寓,韩家川路,北京市,北京市,西北旺,住宿服务;住宿服务相关;住宿服务相关,100000,B0FFHE3JL7,住宿服务,住宿服务相关,住宿服务相关,
116.19660607623493,40.048579899500346,北京市海淀区台湾青年公寓,[],北京市,北京市,,住宿服务;旅馆招待所;青年旅舍,100201,B0G2911BCM,住宿服务,旅馆招待所,青年旅舍,
116.23604912469206,40.04814619997736,颐和山庄72号公寓,永丰中路99号颐和山庄72号公寓,北京市,北京市,西北旺,住宿服务;住宿服务相关;住宿服务相关,100000,B0GK1L1GJU,住宿服务,住宿服务相关,住宿服务相关,
116.23399229312224,40.05882594902174,祥润快捷宾馆,亮甲店路,北京市,北京市,西北旺,住宿服务;宾馆酒店;宾馆酒店,100100,B0FFKUZ0SN,住宿服务,宾馆酒店,宾馆酒店,
116.23468302861342,39.97701506161644,四季御园国际大酒店,旱河路168-3号,北京市,北京市,香山,住宿服务;宾馆酒店;五星级宾馆,100102,B000A85SYX,住宿服务,宾馆酒店,五星级宾馆,
116.19662550802352,39.98969769775238,世纪金源香山商旅酒店,北正黄旗59号,北京市,北京市,香山,住宿服务;宾馆酒店;五星级宾馆,100102,B000A7BSW8,住宿服务,宾馆酒店,五星级宾馆,
116.23549072512412,39.984146024716,健壹景园,玉泉山万安东路西洼果园18号,北京市,北京市,香山,住宿服务;宾馆酒店;五星级宾馆,100102,B000A9PJHR,住宿服务,宾馆酒店,五星级宾馆,
116.20807981924132,39.99967301283749,北京景明园宾馆,香山正白旗52号,北京市,北京市,香山,住宿服务;宾馆酒店;四星级宾馆,100103,B000A874NA,住宿服务,宾馆酒店,四星级宾馆,
116.22010294173015,39.97777741311155,北京于长占公寓(7号店),门头馨东街(门头馨园东区4号楼),北京市,北京市,香山,住宿服务;宾馆酒店;宾馆酒店,100100,B0G3T1S6EA,住宿服务,宾馆酒店,宾馆酒店,
116.19392346161192,39.99479231818246,香山会议中心,香山北辛村28号,北京市,北京市,香山,住宿服务;宾馆酒店;四星级宾馆,100103,B000A88E6T,住宿服务,宾馆酒店,四星级宾馆,
116.2093074628011,39.973336572203024,赢香雅苑快捷宾馆,闵庄路门头村京香花园216号,北京市,北京市,香山,住宿服务;宾馆酒店;宾馆酒店,100100,B0FFFANELL,住宿服务,宾馆酒店,宾馆酒店,
116.19444850738363,39.99651306768309,北京香山假日商务会所,香山新营19号,北京市,北京市,香山,住宿服务;宾馆酒店;宾馆酒店,100100,B000ABBXUO,住宿服务,宾馆酒店,宾馆酒店,
116.22660863339566,39.98334097002524,御香园(旱河路),香山香泉环岛南侧一千米,北京市,北京市,香山,住宿服务;宾馆酒店;宾馆酒店,100100,B0FFGMLNOH,住宿服务,宾馆酒店,宾馆酒店,
116.20287221196905,39.99168161209932,33号住宿,香山一棵松路33号(首都医科大学三博脑科医院正对面),北京市,北京市,香山,住宿服务;旅馆招待所;旅馆招待所,100200,B0FFHRGP1D,住宿服务,旅馆招待所,旅馆招待所,
116.21297953878296,39.978182535493644,北京清琴别墅,清琴路清琴山庄,北京市,北京市,香山,住宿服务;住宿服务相关;住宿服务相关,100000,B0FFGP79JU,住宿服务,住宿服务相关,住宿服务相关,
116.22613099060501,39.97607396245741,北京田田的小屋,自在香山10号,北京市,北京市,香山,住宿服务;住宿服务相关;住宿服务相关,100000,B0FFL0NAVW,住宿服务,住宿服务相关,住宿服务相关,
116.20275294291908,39.99179944441269,北京徐雷公寓,一棵松路与香山南路交叉路口西北侧(香山一棵松),北京市,北京市,香山,住宿服务;住宿服务相关;住宿服务相关,100000,B0FFK2CMAO,住宿服务,住宿服务相关,住宿服务相关,
116.20339831121706,39.99181432026259,安顺公寓,香山路香山一棵松7号楼,北京市,北京市,香山,住宿服务;旅馆招待所;旅馆招待所,100200,B0FFJXUW10,住宿服务,旅馆招待所,旅馆招待所,
116.20276514173902,40.00639783826013,卧佛山庄,香山南辛村20号北京植物园内,北京市,北京市,香山,住宿服务;宾馆酒店;三星级宾馆,100104,B000A7XCU0,住宿服务,宾馆酒店,三星级宾馆,
116.20276196216567,39.99179945673528,莺歌小院,一棵松路乙25号,北京市,北京市,香山,住宿服务;住宿服务相关;住宿服务相关,100000,B0FFIQB133,住宿服务,住宿服务相关,住宿服务相关,
116.24222419241536,39.9772294505638,金利宾馆,四季青镇茶棚路北坞嘉园南里西门,北京市,北京市,,住宿服务;宾馆酒店;宾馆酒店,100100,B0FFHM7X4Z,住宿服务,宾馆酒店,宾馆酒店,
116.20190909704174,39.99206027141154,如意旅社,一棵松路22号(三博脑科医院西50米路北),北京市,北京市,香山,住宿服务;旅馆招待所;旅馆招待所,100200,B0FFJO3ZW2,住宿服务,旅馆招待所,旅馆招待所,
116.20178385214848,39.99185010612207,北京香山温馨阁小院,一棵松路与香山南路交叉路口西北侧,北京市,北京市,香山,住宿服务;旅馆招待所;旅馆招待所,100200,B0GKF6LXF3,住宿服务,旅馆招待所,旅馆招待所,
116.2006188919723,39.99514433095298,悦蓝公寓(北京2号店),香山南营66号2号楼,北京市,北京市,香山,住宿服务;住宿服务相关;住宿服务相关,100000,B0FFLA154A,住宿服务,住宿服务相关,住宿服务相关,
116.20156009514507,39.99401670384392,清雅间居,香山路(北京植物园南侧约150米),北京市,北京市,香山,住宿服务;住宿服务相关;住宿服务相关,100000,B0FFLLG0HS,住宿服务,住宿服务相关,住宿服务相关,
116.23854948530064,39.977403029924716,晓霞住宿,北坞嘉园北小街与北坞嘉园西小街交叉口东南150米,北京市,北京市,,住宿服务;住宿服务相关;住宿服务相关,100000,B0FFHOL4US,住宿服务,住宿服务相关,住宿服务相关,
116.20010782233129,39.9946466229305,北京果冻哥客栈(2号店),香山南营72号楼,北京市,北京市,香山,住宿服务;住宿服务相关;住宿服务相关,100000,B0FFKVUAKY,住宿服务,住宿服务相关,住宿服务相关,
116.2415952793327,39.966572840696635,天香居宾馆,闵庄南路与玉虹北街交叉口东北口,北京市,北京市,,住宿服务;宾馆酒店;宾馆酒店,100100,B0FFFY3MV0,住宿服务,宾馆酒店,宾馆酒店,
116.2392689075308,39.97709216355074,北京春来名宿公寓,茶棚路23-3号(北乌嘉园西里),北京市,北京市,,住宿服务;住宿服务相关;住宿服务相关,100000,B0FFKUL3UH,住宿服务,住宿服务相关,住宿服务相关,
116.1933419355331,39.96383164889169,国林山庄(香山6号院西)(暂停营业),黄土坡1号,北京市,北京市,,住宿服务;宾馆酒店;宾馆酒店,100100,B000A7LXCY,住宿服务,宾馆酒店,宾馆酒店,
116.24007030856356,39.97705627694097,北京小龙哥leo民宿(5号店),北坞嘉园西里(舍茶棚路),北京市,北京市,,住宿服务;住宿服务相关;住宿服务相关,100000,B0FFLA4FSB,住宿服务,住宿服务相关,住宿服务相关,
116.19921246699256,40.00543786900053,蜜蜂研究所招待所,北京植物园内,北京市,北京市,香山,住宿服务;旅馆招待所;旅馆招待所,100200,B0FFHE3XAR,住宿服务,旅馆招待所,旅馆招待所,
116.24185010240564,39.97682444807815,北京临颐和园普通公寓,北坞嘉园西里,北京市,北京市,,住宿服务;住宿服务相关;住宿服务相关,100000,B0GUHLU09O,住宿服务,住宿服务相关,住宿服务相关,
116.24048433771843,39.9783652725899,北京市颐和印象的民宿(颐和园店),四季青镇茶棚路北坞嘉园西里,北京市,北京市,,住宿服务;住宿服务相关;住宿服务相关,100000,B0FFK2CNOI,住宿服务,住宿服务相关,住宿服务相关,
116.24226101091678,39.97879438908272,北京香山颐和园温馨小屋(店),北坞嘉园西里7号楼,北京市,北京市,,住宿服务;住宿服务相关;住宿服务相关,100000,B0FFKRZTCL,住宿服务,住宿服务相关,住宿服务相关,
116.24103317350719,39.96556283701477,北京山叶红酒店,闵庄南路9号(近颐和园),北京市,北京市,,住宿服务;宾馆酒店;宾馆酒店,100100,B0FFJA4IYK,住宿服务,宾馆酒店,宾馆酒店,
116.23482391585493,39.970729358291514,荔枝屋,闵庄路与旱河路交口东南角,北京市,北京市,,住宿服务;宾馆酒店;宾馆酒店,100100,B0FFHC5BZ7,住宿服务,宾馆酒店,宾馆酒店,
116.24096212816572,39.965682825908985,北京佳和酒店,闽庄南路9号商业楼A区(近北京北站、北京交通大学东校区),北京市,北京市,,住宿服务;宾馆酒店;宾馆酒店,100100,B0FFMEJ0XZ,住宿服务,宾馆酒店,宾馆酒店,
116.20855248163846,39.93760707315362,北京石景山景园假日酒店,西黄村,北京市,北京市,,住宿服务;宾馆酒店;四星级宾馆,100103,B0FFGZRSAD,住宿服务,宾馆酒店,四星级宾馆,
116.20328252669204,39.932107536183736,天阁宾馆(西黄村店),北工大北街西黄村新村南里3号楼,北京市,北京市,石景山,住宿服务;宾馆酒店;宾馆酒店,100100,B000A888C7,住宿服务,宾馆酒店,宾馆酒店,
116.20093768166,39.93044735984106,成业宾馆(北工大北街),西黄新村南里1号13幢二层,北京市,北京市,石景山,住宿服务;宾馆酒店;宾馆酒店,100100,B000A8X64B,住宿服务,宾馆酒店,宾馆酒店,
116.21852649682205,39.954695948624256,名华四季国际酒店,北京市海淀区杏石口路89号,北京市,北京市,香山,住宿服务;宾馆酒店;四星级宾馆,100103,B0FFFAHDK1,住宿服务,宾馆酒店,四星级宾馆,
116.21555741721534,39.92588127723147,同福公寓,四季青龚村258号,北京市,北京市,,住宿服务;旅馆招待所;旅馆招待所,100200,B0FFHOWB2X,住宿服务,旅馆招待所,旅馆招待所,
116.22247163335813,39.926282363182324,北京乐居商务服务公寓(店),巨山路(西山国际城),北京市,北京市,,住宿服务;宾馆酒店;宾馆酒店,100100,B0G0BX3XXN,住宿服务,宾馆酒店,宾馆酒店,
116.22411179005316,39.92597858600057,北京西山民宿民宿,阜石路69号(1号楼2单元603),北京市,北京市,,住宿服务;住宿服务相关;住宿服务相关,100000,B0FFKV6MCK,住宿服务,住宿服务相关,住宿服务相关,
116.22412165878386,39.92713354609444,拾光周公寓(北京3号店),阜石路甲69号院-2号楼2号楼二单元609,北京市,北京市,,住宿服务;住宿服务相关;住宿服务相关,100000,B0FFL2A9UR,住宿服务,住宿服务相关,住宿服务相关,
116.22227038773833,39.926098215742535,田村民宿(北京4号店),阜石路甲69号院,北京市,北京市,,住宿服务;住宿服务相关;住宿服务相关,100000,B0FFL42P7K,住宿服务,住宿服务相关,住宿服务相关,
116.20352407152822,39.93182587350505,北京乐居商务服务公寓(店),田村路550号院2号楼二单元,北京市,北京市,石景山,住宿服务;宾馆酒店;宾馆酒店,100100,B0H6GNWEMX,住宿服务,宾馆酒店,宾馆酒店,
116.22340483808105,39.92641205806901,北京地铁旁温馨之家民宿,西山国际城-6号楼(地铁旁),北京市,北京市,,住宿服务;住宿服务相关;住宿服务相关,100000,B0FFKUX6A8,住宿服务,住宿服务相关,住宿服务相关,
116.21966642579606,39.9527770274154,德盛坊宾馆,西五环杏石口路80号(临近杏石口桥),北京市,北京市,西山,住宿服务;宾馆酒店;宾馆酒店,100100,B000A85U1O,住宿服务,宾馆酒店,宾馆酒店,
116.23980830044096,39.92788619341352,大苑快捷酒店,田村中街畅茜园雪芳里4号楼,北京市,北京市,,住宿服务;宾馆酒店;宾馆酒店,100100,B0FFFX4YXX,住宿服务,宾馆酒店,宾馆酒店,
116.2011425170935,39.919336100714226,格林豪泰酒店(北京石景山北方工业大学店),八角东街12号京成商厦1、3层,北京市,北京市,石景山,住宿服务;宾馆酒店;经济型连锁酒店,100105,B0FFGE68KJ,住宿服务,宾馆酒店,经济型连锁酒店,
116.19490946087988,39.941789967702,天阁宾馆,香山南路168号院1号楼1层103号(整形医院对面),北京市,北京市,香山,住宿服务;住宿服务相关;住宿服务相关,100000,B0FFI027WD,住宿服务,住宿服务相关,住宿服务相关,
116.19288525859085,39.94439568444245,北京金河昌缘宾馆,八大处路甲28号楼(近西山枫林四区、北京康复医院),北京市,北京市,西山,住宿服务;宾馆酒店;宾馆酒店,100100,B0FFFGVSAD,住宿服务,宾馆酒店,宾馆酒店,
116.19925874759971,39.916060542018464,金涛酒店(石景山一分店),时代花园东街8号院璟上璟小区3号楼1层,北京市,北京市,石景山,住宿服务;宾馆酒店;经济型连锁酒店,100105,B000A95BJC,住宿服务,宾馆酒店,经济型连锁酒店,
116.23659120382813,39.94612083774436,北京郭金斗旅馆,西平庄路南50米,北京市,北京市,西山,住宿服务;旅馆招待所;旅馆招待所,100200,B0FFF4KYJW,住宿服务,旅馆招待所,旅馆招待所,
116.22927082593343,39.948534876909996,温馨公寓,西平庄路103号,北京市,北京市,西山,住宿服务;住宿服务相关;住宿服务相关,100000,B0FFHATLLQ,住宿服务,住宿服务相关,住宿服务相关,
116.19631376272962,39.94189311996215,北京景逸公寓,香山南路西山枫林一区4号楼,北京市,北京市,香山,住宿服务;住宿服务相关;住宿服务相关,100000,B0FFHRJE9L,住宿服务,住宿服务相关,住宿服务相关,
116.19628869970455,39.941928080475456,北京文景公寓西山枫林店,西山枫林4号楼1单元,北京市,北京市,香山,住宿服务;住宿服务相关;住宿服务相关,100000,B0FFHWXGE1,住宿服务,住宿服务相关,住宿服务相关,
116.19394479608434,39.944628350707006,嘉和永泰宾馆,八大处路28-3号,北京市,北京市,香山,住宿服务;宾馆酒店;宾馆酒店,100100,B0FFLBQAMG,住宿服务,宾馆酒店,宾馆酒店,
116.19491207199486,39.94494884759968,阳光美洁快捷宾馆,八大处路11号,北京市,北京市,西山,住宿服务;宾馆酒店;宾馆酒店,100100,B000A9Q7EB,住宿服务,宾馆酒店,宾馆酒店,
116.19843339854715,39.94394221159127,北京木棉树公寓,启迪香山A座454,北京市,北京市,西山,住宿服务;住宿服务相关;住宿服务相关,100000,B0FFKWFUXI,住宿服务,住宿服务相关,住宿服务相关,
116.19833517466927,39.94394406678025,北京枫林人家公寓,香山南路105号,北京市,北京市,西山,住宿服务;住宿服务相关;住宿服务相关,100000,B0FFJ24XEI,住宿服务,住宿服务相关,住宿服务相关,
116.19847750411361,39.94390027815801,爱家公寓(北京香山店),香山南路105号院启迪香山A-483,北京市,北京市,香山,住宿服务;住宿服务相关;住宿服务相关,100000,B0FFJJ6913,住宿服务,住宿服务相关,住宿服务相关,
116.20236909702024,39.943993818659514,北京射击宾馆-中体彩运营中心,福田寺甲3号北京射击场,北京市,北京市,香山,住宿服务;住宿服务相关;住宿服务相关,100000,B0G336UOQL,住宿服务,住宿服务相关,住宿服务相关,
116.19765381376072,39.942354119153734,北京Brittany公寓,启迪·香山,北京市,北京市,西山,住宿服务;住宿服务相关;住宿服务相关,100000,B0FFKXO4LV,住宿服务,住宿服务相关,住宿服务相关,
116.19395015507314,39.93386678430027,北京郑飞飞公寓,八大处路与西井路交叉路口北侧,北京市,北京市,西山,住宿服务;宾馆酒店;宾馆酒店,100100,B0FFKVUALN,住宿服务,宾馆酒店,宾馆酒店,
116.19813678067995,39.94347479219756,蜗牛民宿(北京香山南路店),福田寺西街与香山南路交叉路口东侧(启迪香山),北京市,北京市,西山,住宿服务;住宿服务相关;住宿服务相关,100000,B0FFLEAKJU,住宿服务,住宿服务相关,住宿服务相关,
116.23793606881397,39.94582215942079,南平庄青年公寓,平南庄203号,北京市,北京市,西山,住宿服务;旅馆招待所;青年旅舍,100201,B0FFF5B6WN,住宿服务,旅馆招待所,青年旅舍,
116.19925975523144,39.916017545276794,金涛连锁酒店(北京八角北路店),时代花园东街璟上璟8号院3号楼1层101室,北京市,北京市,石景山,住宿服务;宾馆酒店;宾馆酒店,100100,B0FFH50BPN,住宿服务,宾馆酒店,宾馆酒店,
116.20201381399018,39.95614885198755,依山阁酒店,东下庄路3号,北京市,北京市,香山,住宿服务;宾馆酒店;宾馆酒店,100100,B000AA1XWE,住宿服务,宾馆酒店,宾馆酒店,
116.19289826327109,39.92862433105778,王小童公寓(北京杨庄东街店),首钢黄南苑居民小区3号楼,北京市,北京市,石景山,住宿服务;住宿服务相关;住宿服务相关,100000,B0GKP6RYRR,住宿服务,住宿服务相关,住宿服务相关,
116.22746718020352,39.954536634245635,我的宿舍,四季青杏石口路75号,北京市,北京市,,住宿服务;旅馆招待所;旅馆招待所,100200,B0FFF3XSPD,住宿服务,旅馆招待所,旅馆招待所,
116.23840400701583,39.91628744478111,北京温馨先生公寓,翠谷玉景苑1号楼3单元505,北京市,北京市,石景山,住宿服务;住宿服务相关;住宿服务相关,100000,B0FFLHLOZ5,住宿服务,住宿服务相关,住宿服务相关,
116.24003165781531,39.917829635968104,心归宿民宿(北京玉泉嘉园店),玉田村山南路8号玉泉嘉园33号楼,北京市,北京市,石景山,住宿服务;住宿服务相关;住宿服务相关,100000,B0FFKV6NUG,住宿服务,住宿服务相关,住宿服务相关,
116.24036677453432,39.958363053529624,北京西西里度假庄园,旱河路临枫嘉园北里21号楼,北京市,北京市,,住宿服务;住宿服务相关;住宿服务相关,100000,B0FFGBC48V,住宿服务,住宿服务相关,住宿服务相关,
116.24003165781531,39.917829635968104,上京雅居公寓(玉泉嘉园店),玉泉西街玉泉嘉园33号楼,北京市,北京市,石景山,住宿服务;住宿服务相关;住宿服务相关,100000,B0FFLFC6L3,住宿服务,住宿服务相关,住宿服务相关,
116.19593736776876,39.91398167535925,北京铁骨公寓,八角北里,北京市,北京市,石景山,住宿服务;住宿服务相关;住宿服务相关,100000,B0FFLGMEXJ,住宿服务,住宿服务相关,住宿服务相关,
116.19766359020484,39.912300352082156,北京我的世界公寓(10号店),八角中里24号楼6单元505,北京市,北京市,石景山,住宿服务;住宿服务相关;住宿服务相关,100000,B0FFLGQXGS,住宿服务,住宿服务相关,住宿服务相关,
116.20351751622172,39.928151012371494,北京北方工业大学红叶公寓,晋元庄路5号院,北京市,北京市,石景山,商务住宅;住宅区;宿舍|住宿服务;旅馆招待所;旅馆招待所,120303|100200,B000A87ECO,商务住宅,住宅区,宿舍|住宿服务,旅馆招待所
116.212617096694,39.904417113949776,美居酒店(万商花园店),银河大街1号,北京市,北京市,石景山,住宿服务;宾馆酒店;四星级宾馆,100103,B000A7CP7D,住宿服务,宾馆酒店,四星级宾馆,
116.23342335882933,39.89412501237657,北京大公馆,鲁谷东街甲26号,北京市,北京市,石景山,住宿服务;宾馆酒店;宾馆酒店,100100,B000A85NV4,住宿服务,宾馆酒店,宾馆酒店,
116.23064881760222,39.90310843055283,汉庭酒店(北京石景山万达店),石景山路2号北京台湾街B区1号楼3-E室,北京市,北京市,石景山,住宿服务;宾馆酒店;经济型连锁酒店,100105,B0FFFAE4WE,住宿服务,宾馆酒店,经济型连锁酒店,
116.22704708717433,39.90329847282514,国广公寓,石景山路甲16-2号,北京市,北京市,石景山,住宿服务;宾馆酒店;四星级宾馆,100103,B000A84E2B,住宿服务,宾馆酒店,四星级宾馆,
116.20716743221367,39.908341572600555,维也纳3好酒店(北京石景山八角游乐园店),石景山路23号院15号楼,北京市,北京市,石景山,住宿服务;宾馆酒店;宾馆酒店,100100,B0FFINGLRK,住宿服务,宾馆酒店,宾馆酒店,
116.22142880918601,39.90547441764019,北京富力万达嘉华酒店,石景山路甲18号1号楼,北京市,北京市,石景山,住宿服务;宾馆酒店;五星级宾馆,100102,B000ABBWY0,住宿服务,宾馆酒店,五星级宾馆,
116.21349863046125,39.90442106089272,北京万商花园酒店B座,银河大街1号,北京市,北京市,石景山,住宿服务;宾馆酒店;四星级宾馆,100103,B000ABBWYH,住宿服务,宾馆酒店,四星级宾馆,
116.21735421265295,39.902367006146264,咪咪一方快捷酒店,鲁谷大街永乐西小区9号楼前,北京市,北京市,石景山,住宿服务;宾馆酒店;宾馆酒店,100100,B000A7RGW7,住宿服务,宾馆酒店,宾馆酒店,
116.21837132354526,39.89795413933757,领先00后公寓(北京12号店),五芳园15号楼,北京市,北京市,永乐,住宿服务;住宿服务相关;住宿服务相关,100000,B0FFLGMF4I,住宿服务,住宿服务相关,住宿服务相关,
116.19336213146475,39.906691978659836,全季酒店(北京石景山万达西店),石景山路33号,北京市,北京市,石景山,住宿服务;宾馆酒店;经济型连锁酒店,100105,B0FFHH4OZG,住宿服务,宾馆酒店,经济型连锁酒店,
116.20735479756085,39.90837080469228,中础宾馆,石景山路23号,北京市,北京市,石景山,住宿服务;宾馆酒店;宾馆酒店,100100,B000A7MQZ2,住宿服务,宾馆酒店,宾馆酒店,
116.22331475874192,39.89393338369754,华庭酒店(石景山万达广场店),"鲁谷大街39号(永辉超市对面,近301医院)",北京市,北京市,石景山,住宿服务;宾馆酒店;宾馆酒店,100100,B000A888SY,住宿服务,宾馆酒店,宾馆酒店,
116.21537350821198,39.89861325111697,北京墨迹姐公寓,鲁谷街道六合园3号楼,北京市,北京市,石景山,住宿服务;住宿服务相关;住宿服务相关,100000,B0FFLNANJK,住宿服务,住宿服务相关,住宿服务相关,
116.1973716309943,39.90658715994477,京燕饭店,石景山路29号,北京市,北京市,石景山,住宿服务;宾馆酒店;三星级宾馆,100104,B0FFH432BV,住宿服务,宾馆酒店,三星级宾馆,
116.22718718862512,39.88762926926851,四季苹果酒店,吴家村路3顷地甲2号,北京市,北京市,,住宿服务;宾馆酒店;四星级宾馆,100103,B0FFGY1ZN3,住宿服务,宾馆酒店,四星级宾馆,
116.22706535333695,39.901319571081906,速8酒店(北京石景山眼科医院店),鲁谷东街永乐东区74号楼南侧(石景山眼科医院对面小区内),北京市,北京市,石景山,住宿服务;宾馆酒店;经济型连锁酒店,100105,B0FFFSJ51H,住宿服务,宾馆酒店,经济型连锁酒店,
116.21340016772427,39.898737207103395,北京我的世界公寓(5号店),诗景长安20号院-2号楼,北京市,北京市,石景山,住宿服务;住宿服务相关;住宿服务相关,100000,B0FFKM59JR,住宿服务,住宿服务相关,住宿服务相关,
116.2133260364202,39.898763126995576,北京温馨1983公寓(7号店),诗景长安西区,北京市,北京市,石景山,住宿服务;住宿服务相关;住宿服务相关,100000,B0FFLI5X1C,住宿服务,住宿服务相关,住宿服务相关,
116.21593397591975,39.90220564828511,北京途掌柜精品民宿,银河南街2号院-2号楼,北京市,北京市,石景山,住宿服务;旅馆招待所;旅馆招待所,100200,B0GRYHUOFX,住宿服务,旅馆招待所,旅馆招待所,
116.22154316967274,39.90383858049174,早安酒店,政达路2号CRD银座B座16楼,北京市,北京市,石景山,住宿服务;宾馆酒店;宾馆酒店,100100,B0FFHUS3IF,住宿服务,宾馆酒店,宾馆酒店,
116.24180216501945,39.887688132427,博华酒店,吴家村路甲1号,北京市,北京市,,住宿服务;宾馆酒店;三星级宾馆,100104,B000A856UU,住宿服务,宾馆酒店,三星级宾馆,
116.22485621546419,39.88972467334383,汉庭酒店(石景山万达南店),鲁谷大街51号,北京市,北京市,石景山,住宿服务;宾馆酒店;经济型连锁酒店,100105,B0FFF7LEFQ,住宿服务,宾馆酒店,经济型连锁酒店,
116.22147608774263,39.903756530455404,北京马达公寓CRD银座店,万达广场CRD银座,北京市,北京市,石景山,住宿服务;宾馆酒店;宾馆酒店,100100,B0G3ZAPOK5,住宿服务,宾馆酒店,宾馆酒店,
116.22186250286798,39.90466379762177,北京梵宿主题公寓,政达路2号万达广场F01,北京市,北京市,石景山,住宿服务;旅馆招待所;旅馆招待所,100200,B0FFITNDC8,住宿服务,旅馆招待所,旅馆招待所,
116.22228776977687,39.89102974172133,魔方公寓(莲石东路店),重兴园小区甲2号楼,北京市,北京市,石景山,住宿服务;旅馆招待所;旅馆招待所,100200,B0FFIRT7NV,住宿服务,旅馆招待所,旅馆招待所,
116.2343610724813,39.894291339140246,和颐酒店(万达广场店),鲁谷东街甲26号北京大公馆(莲石东路辅路100m即到),北京市,北京市,石景山,住宿服务;宾馆酒店;四星级宾馆,100103,B0FFG734TK,住宿服务,宾馆酒店,四星级宾馆,
116.22114351592118,39.90465822293563,北京格瑞特公寓,石景山路甲18号院3号万达广场E座,北京市,北京市,石景山,住宿服务;住宿服务相关;住宿服务相关,100000,B0FFGDOK6G,住宿服务,住宿服务相关,住宿服务相关,
116.2271871889979,39.8876262694101,北京苹果酒店,吴家村三顷地甲2号,北京市,北京市,,住宿服务;宾馆酒店;四星级宾馆,100103,B0FFFAELI7,住宿服务,宾馆酒店,四星级宾馆,
116.20651994069753,39.90196903553678,北京宿年民宿,鲁谷路紫御长安一号楼346,北京市,北京市,石景山,住宿服务;住宿服务相关;住宿服务相关,100000,B0G0RK8370,住宿服务,住宿服务相关,住宿服务相关,
116.2210253850986,39.90438713861859,琳琅居的民宿(鲁谷店),石景山路甲18号院万达广场,北京市,北京市,石景山,住宿服务;住宿服务相关;住宿服务相关,100000,B0FFK2CMOL,住宿服务,住宿服务相关,住宿服务相关,
116.20998192177214,39.89959935408693,北京八角地铁之家公寓,依翠园-10号楼(石景山医院东南侧),北京市,北京市,石景山,住宿服务;住宿服务相关;住宿服务相关,100000,B0FFKV6OSO,住宿服务,住宿服务相关,住宿服务相关,
116.21925991393294,39.90388566755119,北京胖小羽公寓,北方中惠国际中心D座,北京市,北京市,石景山,住宿服务;住宿服务相关;住宿服务相关,100000,B0FFLA4FTQ,住宿服务,住宿服务相关,住宿服务相关,
116.22177037702018,39.9046687247245,北京梵宿公寓,石景山路甲十八号院万达广场F座01,北京市,北京市,石景山,住宿服务;住宿服务相关;住宿服务相关,100000,B0FFK1SF1C,住宿服务,住宿服务相关,住宿服务相关,
116.22277018273866,39.90090766326528,北京领先00后公寓(政达路东口分店),永乐西小区-57号楼,北京市,北京市,永乐,住宿服务;住宿服务相关;住宿服务相关,100000,B0FFJ5OH5O,住宿服务,住宿服务相关,住宿服务相关,
116.21604223716419,39.90151278516695,猫托托猫咪酒店·寄养(鲁谷店),银河南街2号紫御国际4号楼512(距石景山万达广场500米),北京市,北京市,石景山,住宿服务;宾馆酒店;经济型连锁酒店,100105,B0FFK6ADCA,住宿服务,宾馆酒店,经济型连锁酒店,
116.23955051568471,39.90902994316034,弘泰酒店,玉泉路玉泉西街8号A座,北京市,北京市,石景山,住宿服务;宾馆酒店;三星级宾馆,100104,B000AAC8VY,住宿服务,宾馆酒店,三星级宾馆,
116.21876810115052,39.90454720418443,北京寓语CuCme公寓,万达广场C座(政达路),北京市,北京市,石景山,住宿服务;住宿服务相关;住宿服务相关,100000,B0FFLIUBVO,住宿服务,住宿服务相关,住宿服务相关,
116.22157622082584,39.9037916089126,早安西云阁酒店(北京石景山万达广场店),政达路2号CRD银座B座16层,北京市,北京市,石景山,住宿服务;宾馆酒店;宾馆酒店,100100,B0FFGHLM2G,住宿服务,宾馆酒店,宾馆酒店,
116.21833137849806,39.905069788891964,北京居安之家普通公寓,万达广场c座19层1913,北京市,北京市,石景山,住宿服务;住宿服务相关;住宿服务相关,100000,B0FFI5NOR9,住宿服务,住宿服务相关,住宿服务相关,
116.21895837521632,39.90462636977593,北京刘锋0057公寓,鲁谷街道石景山路乙18号院-5,北京市,北京市,石景山,住宿服务;住宿服务相关;住宿服务相关,100000,B0FFM1AEG7,住宿服务,住宿服务相关,住宿服务相关,
116.21374906491299,39.90438532713147,美居酒店B座,银河大街1号,北京市,北京市,石景山,住宿服务;住宿服务相关;住宿服务相关,100000,B0G2YAPAEN,住宿服务,住宿服务相关,住宿服务相关,
116.20917560988262,39.89795947666207,北京我的世界公寓(12号店),鲁谷街道七星园3号楼,北京市,北京市,石景山,住宿服务;住宿服务相关;住宿服务相关,100000,B0FFLN5TAX,住宿服务,住宿服务相关,住宿服务相关,
116.21935998107202,39.90453072679352,缘起小筑的民宿(石景山游乐园地区三店),鲁谷石景山路甲18号院3号楼万达广场E座,北京市,北京市,石景山,住宿服务;住宿服务相关;住宿服务相关,100000,B0G04K5AX7,住宿服务,住宿服务相关,住宿服务相关,
116.21969139020393,39.905138987416365,北京付云辉公寓,万达广场石景山店,北京市,北京市,石景山,住宿服务;住宿服务相关;住宿服务相关,100000,B0GUDAPWHH,住宿服务,住宿服务相关,住宿服务相关,
116.21933900815915,39.90406472884545,如家云联盟-斑斓家精品公寓(北京石景山万达广场店),政达路6号北方中惠D座1楼,北京市,北京市,石景山,住宿服务;住宿服务相关;住宿服务相关,100000,B0FFJDY495,住宿服务,住宿服务相关,住宿服务相关,
116.22795574447233,39.88990261415293,北重青年公寓,吴家村路57号,北京市,北京市,石景山,住宿服务;宾馆酒店;宾馆酒店,100100,B0FFFPK81R,住宿服务,宾馆酒店,宾馆酒店,
116.21846664885831,39.90454093418646,汇寓公寓(北京石景山路店),石景山路乙18号院5号楼,北京市,北京市,石景山,住宿服务;住宿服务相关;住宿服务相关,100000,B0FFLOOIZU,住宿服务,住宿服务相关,住宿服务相关,
116.21264814068749,39.90450214400255,北京万商花园酒店A座,银河大街1号,北京市,北京市,石景山,住宿服务;住宿服务相关;住宿服务相关,100000,B0FFFAFWNP,住宿服务,住宿服务相关,住宿服务相关,
116.21265114609271,39.90450114731275,美居酒店A座,银河大街1号,北京市,北京市,石景山,住宿服务;住宿服务相关;住宿服务相关,100000,B0G2BY8J7G,住宿服务,住宿服务相关,住宿服务相关,
116.19725916955096,39.89217463269024,宏伟公寓,景阳大街与景阳中路交叉路口西侧,北京市,北京市,石景山,商务住宅;住宅区;住宅小区|住宿服务;宾馆酒店;宾馆酒店,120302|100100,B0FFF3JL20,商务住宅,住宅区,住宅小区|住宿服务,宾馆酒店
116.22179841318226,39.90468474617561,汇寓公寓(北京政达路店),万达广场F座,北京市,北京市,石景山,住宿服务;住宿服务相关;住宿服务相关,100000,B0GUH9RN0T,住宿服务,住宿服务相关,住宿服务相关,
116.2266818160464,39.902175298475974,北京杨家铺子公寓,永乐小区-75号楼(眼科医院对面),北京市,北京市,永乐,住宿服务;住宿服务相关;住宿服务相关,100000,B0FFKVUAWL,住宿服务,住宿服务相关,住宿服务相关,
116.20817154456708,39.89910221546077,北京我的世界公寓(9号店),七星园5号楼,北京市,北京市,石景山,住宿服务;住宿服务相关;住宿服务相关,100000,B0FFLIUBWC,住宿服务,住宿服务相关,住宿服务相关,
116.22107942289408,39.90468916948096,水云间城宿公寓(北京3号店),石景山万达广场,北京市,北京市,石景山,住宿服务;住宿服务相关;住宿服务相关,100000,B0FFLM3S60,住宿服务,住宿服务相关,住宿服务相关,
116.22934415373986,39.898222995438054,天池商务会馆,鲁谷东街27号,北京市,北京市,永乐,住宿服务;宾馆酒店;经济型连锁酒店,100105,B0FFKSSYND,住宿服务,宾馆酒店,经济型连锁酒店,
116.22930275111656,39.90112984417971,万商如一酒店(鲁谷东街店),鲁谷东街21号,北京市,北京市,石景山,住宿服务;宾馆酒店;宾馆酒店,100100,B0FFK004HP,住宿服务,宾馆酒店,宾馆酒店,
116.27352035514356,40.14546793475748,草原明珠大酒店,沙河镇百沙路南,北京市,北京市,沙河,住宿服务;宾馆酒店;三星级宾馆,100104,B000A640B2,住宿服务,宾馆酒店,三星级宾馆,
116.26464940387842,40.140255781625555,小闫公寓,路小路(北京民康医院西侧约50米),北京市,北京市,沙河,住宿服务;宾馆酒店;宾馆酒店,100100,B0GKS4HF50,住宿服务,宾馆酒店,宾馆酒店,
116.26173663640826,40.130189902611875,汉庭酒店(北京昌平沙河巩华城店),沙河镇巩华城大街88号,北京市,北京市,沙河,住宿服务;宾馆酒店;宾馆酒店,100100,B0G1BA7N56,住宿服务,宾馆酒店,宾馆酒店,
116.26184065358223,40.129548891344065,贝楒酒店(沙河北大桥店),巩华城大街86号(沙河北大桥西侧),北京市,北京市,沙河,住宿服务;宾馆酒店;宾馆酒店,100100,B0FFFRNRWA,住宿服务,宾馆酒店,宾馆酒店,
116.26189179203992,40.12819698205865,金涛酒店(工商街),沙河镇巩华城大街84号4层(麦当劳对面),北京市,北京市,沙河,住宿服务;宾馆酒店;宾馆酒店,100100,B0FFG6A8QP,住宿服务,宾馆酒店,宾馆酒店,
116.26444154875179,40.14032593743373,旺旺公寓,沙河镇路庄村东路南四条7号,北京市,北京市,沙河,住宿服务;旅馆招待所;旅馆招待所,100200,B0H69CMXSG,住宿服务,旅馆招待所,旅馆招待所,
116.2769448385562,40.13244734003539,青年公寓,展思门路1号,北京市,北京市,,住宿服务;旅馆招待所;旅馆招待所,100200,B0FFF5QC2S,住宿服务,旅馆招待所,旅馆招待所,
116.26365417884614,40.13979859343705,润生公寓,路小路,北京市,北京市,沙河,住宿服务;住宿服务相关;住宿服务相关,100000,B0FFKOOQA6,住宿服务,住宿服务相关,住宿服务相关,
116.26462036162245,40.14076375343393,老三公寓,东路南三条2号,北京市,北京市,沙河,住宿服务;旅馆招待所;旅馆招待所,100200,B0FFI5RK89,住宿服务,旅馆招待所,旅馆招待所,
116.26194905102594,40.125854158145316,逸和宾馆,沙河镇巩华大街70号,北京市,北京市,沙河,住宿服务;宾馆酒店;宾馆酒店,100100,B000A8XLO5,住宿服务,宾馆酒店,宾馆酒店,
116.26548766575148,40.14103403136619,欣宁公寓,百沙路(北京民康医院),北京市,北京市,沙河,住宿服务;住宿服务相关;住宿服务相关,100000,B0FFKOEPYR,住宿服务,住宿服务相关,住宿服务相关,
116.26362894973545,40.14176141486851,路庄幸福公寓,路庄村中心东西街甲1号,北京市,北京市,沙河,住宿服务;旅馆招待所;旅馆招待所,100200,B0FFH713JD,住宿服务,旅馆招待所,旅馆招待所,
116.26401091987498,40.13985531716789,8号公寓(一部),百沙路(北京民康医院西北侧约50米),北京市,北京市,沙河,住宿服务;住宿服务相关;住宿服务相关,100000,B0FFL8CKZV,住宿服务,住宿服务相关,住宿服务相关,
116.26313442892035,40.14064289500927,路庄村二级路5号公寓,路小路,北京市,北京市,沙河,住宿服务;住宿服务相关;住宿服务相关,100000,B0FFGLAAJB,住宿服务,住宿服务相关,住宿服务相关,
116.26314021415828,40.14232072115062,鸿运公寓(百沙路),百沙路与路小路交叉口东150米,北京市,北京市,沙河,住宿服务;旅馆招待所;旅馆招待所,100200,B0FFH713R0,住宿服务,旅馆招待所,旅馆招待所,
116.2626155593458,40.14233310022038,华洁公寓,百沙路与路小路交叉口东150米,北京市,北京市,沙河,住宿服务;旅馆招待所;旅馆招待所,100200,B0FFH83AVE,住宿服务,旅馆招待所,旅馆招待所,
116.26220430383906,40.12257527669053,汇友招待所(沙河中西医结合医院南),沙河镇巩华大街28号,北京市,北京市,沙河,住宿服务;旅馆招待所;旅馆招待所,100200,B000A887JP,住宿服务,旅馆招待所,旅馆招待所,
116.25606271445774,40.134841760664315,汇鑫公寓,李庄路附近,北京市,北京市,沙河,住宿服务;旅馆招待所;旅馆招待所,100200,B0FFGHF697,住宿服务,旅馆招待所,旅馆招待所,
116.26394160500874,40.118874332481994,南一宾馆,昌平路189号,北京市,北京市,沙河,住宿服务;宾馆酒店;宾馆酒店,100100,B000A9QSBT,住宿服务,宾馆酒店,宾馆酒店,
116.26471932031181,40.1405057014215,丹丹公寓,路小路(北京民康医院西侧约50米),北京市,北京市,沙河,住宿服务;旅馆招待所;旅馆招待所,100200,B0FFKRZFRD,住宿服务,旅馆招待所,旅馆招待所,
116.26204802746149,40.14147558756668,北京路庄西二巷5号公寓,高教园南三街,北京市,北京市,沙河,住宿服务;住宿服务相关;住宿服务相关,100000,B0FFGHQQOF,住宿服务,住宿服务相关,住宿服务相关,
116.26990263269364,40.1420529923633,简单民宿(北京北沙河西一路店),顺沙路19号院,北京市,北京市,沙河,住宿服务;住宿服务相关;住宿服务相关,100000,B0GK4MNE8K,住宿服务,住宿服务相关,住宿服务相关,
116.25531154788946,40.1300685645756,京和公寓,阳光花苑小区附近,北京市,北京市,沙河,住宿服务;旅馆招待所;旅馆招待所,100200,B0FFFXZGY6,住宿服务,旅馆招待所,旅馆招待所,
116.25505960589203,40.130182666206515,居福公寓,沙河镇京和公寓北大桥北二村,北京市,北京市,沙河,住宿服务;旅馆招待所;旅馆招待所,100200,B0FFJYB4GG,住宿服务,旅馆招待所,旅馆招待所,
116.2545721408785,40.1349314239378,超吉特公寓,京藏高速附近,北京市,北京市,沙河,住宿服务;旅馆招待所;旅馆招待所,100200,B0FFGE4KH3,住宿服务,旅馆招待所,旅馆招待所,
116.25347194611506,40.1305252877461,鸿运家园,沙阳路,北京市,北京市,沙河,住宿服务;旅馆招待所;旅馆招待所,100200,B0FFH6I8W0,住宿服务,旅馆招待所,旅馆招待所,
116.25195558463493,40.13538735951742,金港青年公寓,S216(京藏高速辅路),北京市,北京市,沙河,住宿服务;旅馆招待所;旅馆招待所,100200,B0FFGH6IA6,住宿服务,旅馆招待所,旅馆招待所,
116.26779659677958,40.126218479799554,红都公寓,柴禾市大街44号,北京市,北京市,沙河,住宿服务;旅馆招待所;旅馆招待所|商务住宅;商务住宅相关;商务住宅相关,100200|120000,B0FFIIRQLV,住宿服务,旅馆招待所,旅馆招待所|商务住宅,商务住宅相关
116.25062052620996,40.136837619226235,金鑫公寓,李庄路(沙河北大桥志高公寓东北侧约50米),北京市,北京市,沙河,住宿服务;旅馆招待所;旅馆招待所,100200,B0FFHWXFCA,住宿服务,旅馆招待所,旅馆招待所,
116.25771653300552,40.12342998414578,德彬公寓,沙河火车站西侧站西路,北京市,北京市,沙河,住宿服务;旅馆招待所;旅馆招待所,100200,B0FFFGZO18,住宿服务,旅馆招待所,旅馆招待所,
116.26212331440831,40.122895304701615,丽锦轩宾馆,沙河镇巩华城大街28号,北京市,北京市,沙河,住宿服务;宾馆酒店;宾馆酒店,100100,B000A887JQ,住宿服务,宾馆酒店,宾馆酒店,
116.28374767331304,40.1524235460861,北京向阳公寓,高教园南三街青年创业公寓西门旁,北京市,北京市,沙河,住宿服务;宾馆酒店;经济型连锁酒店,100105,B0FFJEWW5Z,住宿服务,宾馆酒店,经济型连锁酒店,
116.25612603123723,40.12418272727366,文明公寓,站前路11号,北京市,北京市,沙河,住宿服务;旅馆招待所;旅馆招待所,100200,B0FFGBC7BS,住宿服务,旅馆招待所,旅馆招待所,
116.26154280652302,40.12976407454098,全旭达旅馆,沙河镇巩华城大街86号(近福田汽车),北京市,北京市,沙河,住宿服务;旅馆招待所;旅馆招待所,100200,B000A8XKPN,住宿服务,旅馆招待所,旅馆招待所,
116.25765753085504,40.123639996997866,五杰公寓,沙河镇站北路临47号,北京市,北京市,沙河,住宿服务;旅馆招待所;旅馆招待所,100200,B0FFGCSYFN,住宿服务,旅馆招待所,旅馆招待所,
116.26399638319641,40.12033016303238,港湾住房,沙阳路14号,北京市,北京市,沙河,住宿服务;旅馆招待所;旅馆招待所,100200,B0FFFAF12P,住宿服务,旅馆招待所,旅馆招待所,
116.25543846552277,40.14635489510826,佳家公寓(满井店),路小路南150米,北京市,北京市,沙河,住宿服务;旅馆招待所;旅馆招待所,100200,B0FFFDCKBU,住宿服务,旅馆招待所,旅馆招待所,
116.28086333845988,40.141662549003236,北京合伙人民宿(2号店),巩华家园南一村(沙河地铁站附近2公里的附近),北京市,北京市,沙河,住宿服务;住宿服务相关;住宿服务相关,100000,B0FFLGMEMP,住宿服务,住宿服务相关,住宿服务相关,
116.286711925213,40.14455716526536,都市家园,于辛庄村024号,北京市,北京市,沙河,商务住宅;住宅区;住宅小区|住宿服务;住宿服务相关;住宿服务相关,120302|100000,B0FFG85NIH,商务住宅,住宅区,住宅小区|住宿服务,住宿服务相关
116.25566713990649,40.12449491572143,清港湾公寓,站前路临22号附近,北京市,北京市,沙河,住宿服务;旅馆招待所;旅馆招待所,100200,B0FFGG87YP,住宿服务,旅馆招待所,旅馆招待所,
116.25530523408312,40.12461507023538,温馨公寓,站西路(广洋公寓东南侧),北京市,北京市,沙河,住宿服务;住宿服务相关;住宿服务相关,100000,B0FFI7SWYH,住宿服务,住宿服务相关,住宿服务相关,
116.28546287417639,40.14524089763176,宾馆电玩,于善街与032县道交叉口东北100米,北京市,北京市,沙河,住宿服务;宾馆酒店;宾馆酒店,100100,B0FFKTPH3F,住宿服务,宾馆酒店,宾馆酒店,
116.25344398377398,40.14620274539805,友缘公寓,沙河镇七里渠北村车站,北京市,北京市,沙河,住宿服务;旅馆招待所;旅馆招待所,100200,B0FFH70THV,住宿服务,旅馆招待所,旅馆招待所,
116.28673987855056,40.14456112405229,北京都市家园公寓,于辛庄村024号,北京市,北京市,沙河,住宿服务;宾馆酒店;宾馆酒店,100100,B0FFKT2J2D,住宿服务,宾馆酒店,宾馆酒店,
116.26867390182493,40.117445462406664,爱家公寓,京藏高速与安济桥路交叉路口往北约150米,北京市,北京市,沙河,住宿服务;宾馆酒店;宾馆酒店,100100,B0GKH14T1M,住宿服务,宾馆酒店,宾馆酒店,
116.28642689225619,40.148534164458,格林豪泰智选酒店(沙河地铁站店),沙河镇大学城松兰堡村西昌职路富雷1号楼(沙河地铁站向东400米),北京市,北京市,沙河,住宿服务;宾馆酒店;经济型连锁酒店,100105,B000A8XMOJ,住宿服务,宾馆酒店,经济型连锁酒店,
116.27897380326085,40.15106797864164,千屿精选酒店(沙河北航店),沙河镇兆丰家园13栋2(距昌平线沙河地铁站500米),北京市,北京市,沙河,住宿服务;宾馆酒店;宾馆酒店,100100,B0FFKWGXQ3,住宿服务,宾馆酒店,宾馆酒店,
116.28656777749705,40.14760905726169,泰和宾馆(于新庄线),032县道西150米,北京市,北京市,沙河,住宿服务;宾馆酒店;宾馆酒店,100100,B000A9Q7GK,住宿服务,宾馆酒店,宾馆酒店,
116.26808224304862,40.11903986500687,华鑫公寓,沙河地区沙河南一村147号,北京市,北京市,沙河,住宿服务;旅馆招待所;旅馆招待所,100200,B0FFIYVIIG,住宿服务,旅馆招待所,旅馆招待所,
116.2512020793697,40.14802231570231,通达公寓,沙河镇满井西村北路31号通达公寓,北京市,北京市,沙河,住宿服务;住宿服务相关;住宿服务相关,100000,B0FFG96Q2T,住宿服务,住宿服务相关,住宿服务相关,
116.28816486986541,40.141556325518344,66酒店式公寓,沙河地铁亿旺超市十字路口南200米,北京市,北京市,,住宿服务;旅馆招待所;旅馆招待所,100200,B0FFG4UURE,住宿服务,旅馆招待所,旅馆招待所,
116.29166744812568,40.15161689173138,派酒店(沙河地铁站店),沙河镇松兰堡村口西(沙河地铁站东800米),北京市,北京市,沙河,住宿服务;宾馆酒店;宾馆酒店,100100,B000A8828J,住宿服务,宾馆酒店,宾馆酒店,
116.27598316299506,40.115694983493505,怡莱酒店(北京碧水庄园店),回龙观镇定福皇庄75号,北京市,北京市,,住宿服务;宾馆酒店;宾馆酒店,100100,B0GDJC4DNW,住宿服务,宾馆酒店,宾馆酒店,
116.2740672424716,40.14929393596301,北京合伙人民宿(3号店),兆丰家园西区80号楼50单元8907室,北京市,北京市,沙河,住宿服务;住宿服务相关;住宿服务相关,100000,B0FFLA4FMY,住宿服务,住宿服务相关,住宿服务相关,
116.25310109481278,40.145842911369165,北京满井103号公寓,京藏高速与满白路交叉路口往东北约100米,北京市,北京市,沙河,住宿服务;住宿服务相关;住宿服务相关,100000,B0HBRK4CP2,住宿服务,住宿服务相关,住宿服务相关,
116.2837247037822,40.15246357349383,耐斯特快捷酒店,高教园南三街附近,北京市,北京市,沙河,住宿服务;宾馆酒店;经济型连锁酒店,100105,B0FFG96R7N,住宿服务,宾馆酒店,经济型连锁酒店,
116.25367892924703,40.14625064979927,如家公寓(北京神康康复医院东),京藏高速与满白路交叉路口往东北约150米,北京市,北京市,沙河,住宿服务;旅馆招待所;旅馆招待所,100200,B0FFH70UXN,住宿服务,旅馆招待所,旅馆招待所,
116.2606078017874,40.118150740072295,北京芳园and琥珀民宿(3号店),保利·芳园(6号楼),北京市,北京市,沙河,住宿服务;住宿服务相关;住宿服务相关,100000,B0GUH9T4JQ,住宿服务,住宿服务相关,住宿服务相关,
116.28904083386699,40.145788572078295,八达公寓,于新庄线南50米,北京市,北京市,沙河,住宿服务;旅馆招待所;旅馆招待所,100200,B0FFG4UUSN,住宿服务,旅馆招待所,旅馆招待所,
116.2531609549203,40.146868782317185,168公寓,沙河满井西村86号,北京市,北京市,沙河,住宿服务;旅馆招待所;旅馆招待所,100200,B0FFFWD5BH,住宿服务,旅馆招待所,旅馆招待所,
116.25986518420521,40.11826419842639,北京2019感谢相遇公寓(2号店),沙阳路32号院4号楼,北京市,北京市,沙河,住宿服务;住宿服务相关;住宿服务相关,100000,B0GUHLSHSB,住宿服务,住宿服务相关,住宿服务相关,
116.2896598783013,40.14483472790043,蓝天家园(于辛庄路),沙河地铁往东500米于辛庄村内,北京市,北京市,沙河,住宿服务;住宿服务相关;住宿服务相关,100000,B0FFFVMO5A,住宿服务,住宿服务相关,住宿服务相关,
116.28896099485445,40.145605712071244,赛家家园,沙河镇于新庄村村口世纪百汇商贸中心南50米,北京市,北京市,沙河,住宿服务;旅馆招待所;旅馆招待所,100200,B0FFJNMCIR,住宿服务,旅馆招待所,旅馆招待所,
116.29210137931224,40.14592480927243,瑷嘉公寓,于辛庄中心街7号西南方向50米,北京市,北京市,沙河,住宿服务;宾馆酒店;宾馆酒店,100100,B0FFH9HNA7,住宿服务,宾馆酒店,宾馆酒店,
116.2912891744454,40.15127252361084,蓝天宾馆,百沙路,北京市,北京市,沙河,住宿服务;宾馆酒店;宾馆酒店,100100,B000A8XNOD,住宿服务,宾馆酒店,宾馆酒店,
116.26381548219389,40.12056328014257,正华宾馆,S216(京藏高速辅路),北京市,北京市,沙河,住宿服务;旅馆招待所;旅馆招待所,100200,B0FFKVRBB4,住宿服务,旅馆招待所,旅馆招待所,
116.28985041592156,40.14585333011766,北五街8号公寓,桐心家园对面,北京市,北京市,沙河,住宿服务;宾馆酒店;经济型连锁酒店,100105,B0FFG96J2Q,住宿服务,宾馆酒店,经济型连锁酒店,
116.28503814522122,40.116768197936615,九五住墅,碧水庄园33区10号楼,北京市,北京市,,住宿服务;宾馆酒店;宾馆酒店,100100,B0FFHM9WY6,住宿服务,宾馆酒店,宾馆酒店,
116.29230409566775,40.1452395585435,闽辉公寓,沙河中心于辛庄小学(于新庄路),北京市,北京市,沙河,住宿服务;旅馆招待所;旅馆招待所,100200,B0FFG4UUS7,住宿服务,旅馆招待所,旅馆招待所,
116.28970363223938,40.14617652153514,佳和家园,[],北京市,北京市,沙河,住宿服务;旅馆招待所;旅馆招待所,100200,B0FFHK5IOO,住宿服务,旅馆招待所,旅馆招待所,
116.25293583440684,40.148152730017266,温馨出租房(北京神康康复医院北),沙河满井村,北京市,北京市,沙河,住宿服务;旅馆招待所;旅馆招待所,100200,B0FFH70VKY,住宿服务,旅馆招待所,旅馆招待所,
116.29196995998225,40.143225296264845,舒馨家园,沙河于辛庄X032绿城新干线北50米,北京市,北京市,沙河,住宿服务;旅馆招待所;旅馆招待所,100200,B0FFI2FHHP,住宿服务,旅馆招待所,旅馆招待所,
116.29231615905657,40.144563609302566,北京万达公寓,百沙路192号附近,北京市,北京市,沙河,住宿服务;旅馆招待所;旅馆招待所,100200,B0FFKTJCW1,住宿服务,旅馆招待所,旅馆招待所,
116.28653115413606,40.1451033721893,新庄园住宿,于辛庄村,北京市,北京市,沙河,住宿服务;宾馆酒店;宾馆酒店,100100,B000A9QA03,住宿服务,宾馆酒店,宾馆酒店,
116.26922228763048,40.110267556485574,北京定福皇庄白领公寓,回龙观定福黄庄村,北京市,北京市,,住宿服务;旅馆招待所;旅馆招待所,100200,B0FFFVKQCC,住宿服务,旅馆招待所,旅馆招待所,
116.29247863291268,40.15427731604679,壹号公寓,百沙路松兰堡179号,北京市,北京市,沙河,住宿服务;旅馆招待所;旅馆招待所,100200,B0G0PHDGA3,住宿服务,旅馆招待所,旅馆招待所,
116.29257679203037,40.14368628433654,鸿楼9号,于辛庄村中心街西五巷9号,北京市,北京市,沙河,住宿服务;住宿服务相关;住宿服务相关,100000,B0FFILIAZX,住宿服务,住宿服务相关,住宿服务相关,
116.29256236255836,40.155199080989014,鑫梦公寓,沙河松兰堡村君诚彩钢后,北京市,北京市,沙河,住宿服务;旅馆招待所;旅馆招待所,100200,B0FFFCQM45,住宿服务,旅馆招待所,旅馆招待所,
116.28688106372545,40.11746848339098,北京易·墅家度假别墅碧水庄园店,定福皇庄碧水庄园,北京市,北京市,,住宿服务;住宿服务相关;住宿服务相关,100000,B0HB2UVOLL,住宿服务,住宿服务相关,住宿服务相关,
116.29223331862241,40.14449974758807,高照公寓,于辛庄路西150米,北京市,北京市,沙河,住宿服务;旅馆招待所;旅馆招待所,100200,B0FFKVK4HV,住宿服务,旅馆招待所,旅馆招待所,
116.28970964427292,40.15391068549744,祥瑞连锁酒店,昌平区--松兰堡村北祥瑞连锁酒店,北京市,北京市,沙河,住宿服务;宾馆酒店;宾馆酒店,100100,B000AA1BWN,住宿服务,宾馆酒店,宾馆酒店,
116.24554840272448,40.11908517408196,速尚客快捷酒店,沙河镇沙阳路18号,北京市,北京市,,住宿服务;宾馆酒店;宾馆酒店,100100,B0FFF0FE1G,住宿服务,宾馆酒店,宾馆酒店,
116.29136391854242,40.144322138935216,立峰公寓,沙河于辛家园东北(于新庄路南),北京市,北京市,沙河,住宿服务;旅馆招待所;旅馆招待所,100200,B0FFHV1EVL,住宿服务,旅馆招待所,旅馆招待所,
116.29137505674517,40.15098042030434,北京东旭温馨公寓(辅路分店),沙河镇松兰堡村西铁木真楼下一层正东方向40米,北京市,北京市,沙河,住宿服务;宾馆酒店;宾馆酒店,100100,B000A9Q7AN,住宿服务,宾馆酒店,宾馆酒店,
116.29268264023344,40.14334715004087,冉冉家园,于辛庄路25号附近,北京市,北京市,沙河,住宿服务;旅馆招待所;旅馆招待所,100200,B0FFIWWWGW,住宿服务,旅馆招待所,旅馆招待所,
116.28967177374352,40.145497640984935,桐心家园,于新庄路与松兰路交叉路口向东约200米,北京市,北京市,沙河,住宿服务;住宿服务相关;住宿服务相关,100000,B0FFH17BJC,住宿服务,住宿服务相关,住宿服务相关,
116.29273744664476,40.1440799871381,富家家园5号楼,[],北京市,北京市,沙河,住宿服务;住宿服务相关;住宿服务相关,100000,B0FFJ8PP3Y,住宿服务,住宿服务相关,住宿服务相关,
116.29113732729493,40.15222165888987,北京钰馨家园公寓(百沙路分店),百沙路(松兰堡新城公寓),北京市,北京市,沙河,住宿服务;住宿服务相关;住宿服务相关,100000,B0FFJEWW6B,住宿服务,住宿服务相关,住宿服务相关,
116.28948667117461,40.148866570323044,黄元公寓,百沙路142号附近,北京市,北京市,沙河,住宿服务;旅馆招待所;旅馆招待所,100200,B0FFI05WYR,住宿服务,旅馆招待所,旅馆招待所,
116.2922260508678,40.14672252808399,瑞吉公寓,于新庄线与于辛庄路交叉口西南100米,北京市,北京市,沙河,住宿服务;住宿服务相关;住宿服务相关,100000,B0FFH16XDR,住宿服务,住宿服务相关,住宿服务相关,
116.29102090155548,40.15723928841977,Mrzhangfish公寓(北京百沙路店),百沙路11号鑫阳公寓,北京市,北京市,沙河,住宿服务;住宿服务相关;住宿服务相关,100000,B0FFISK10F,住宿服务,住宿服务相关,住宿服务相关,
116.2660528365583,40.09628247671778,泰康商学院,科学园路31号中关村生命科学园内,北京市,北京市,,住宿服务;住宿服务相关;住宿服务相关,100000,B0FFHCPAF4,住宿服务,住宿服务相关,住宿服务相关,
116.27928278396072,40.09226385023231,朗丽兹太和府酒店,北清路5号,北京市,北京市,,住宿服务;宾馆酒店;四星级宾馆,100103,B000A7CM4O,住宿服务,宾馆酒店,四星级宾馆,
116.27878235018608,40.093200407204954,朗丽兹太申祥和酒店-来鹤轩,北清路5号,北京市,北京市,,住宿服务;宾馆酒店;四星级宾馆,100103,B0FFLJEVC5,住宿服务,宾馆酒店,四星级宾馆,
116.25536924866834,40.084463234512825,如家酒店(北京北清路航天城店),友谊路118号燕保辛店家园6号楼301室,北京市,北京市,西北旺,住宿服务;宾馆酒店;经济型连锁酒店,100105,B0FFILG4LQ,住宿服务,宾馆酒店,经济型连锁酒店,
116.27865348446765,40.09352054354856,朗丽兹太申祥和酒店-天润厅,北清路5号,北京市,北京市,,住宿服务;宾馆酒店;四星级宾馆,100103,B0FFLJ6H5I,住宿服务,宾馆酒店,四星级宾馆,
116.26396538047167,40.072696785137964,桔子酒店(北京航天城店),友谊路105号,北京市,北京市,西北旺,住宿服务;宾馆酒店;经济型连锁酒店,100105,B0FFL8TJ10,住宿服务,宾馆酒店,经济型连锁酒店,
116.24619431593925,40.07280158991523,北京应物会议中心,永丰产业基地丰豪东路1号(永嘉南路与丰豪东路交汇口),北京市,北京市,西北旺,住宿服务;宾馆酒店;三星级宾馆,100104,B000A875KL,住宿服务,宾馆酒店,三星级宾馆,
116.27660381387874,40.072486470724186,北京航天城宾馆,邓庄南路9号,北京市,北京市,西北旺,住宿服务;宾馆酒店;宾馆酒店,100100,B0FFH5BWT7,住宿服务,宾馆酒店,宾馆酒店,
116.26325058679487,40.09893848033873,半岛·燕山会议中心,中关村生命科学园医疗产业园5号楼,北京市,北京市,,住宿服务;宾馆酒店;四星级宾馆,100103,B0FFH0VGQL,住宿服务,宾馆酒店,四星级宾馆,
116.2711467232042,40.091541132714326,北京中关村生命园国际会议中心,史各庄街道生命园路20号院3号楼生命科学园,北京市,北京市,,住宿服务;宾馆酒店;宾馆酒店,100100,B0FFJHJUQI,住宿服务,宾馆酒店,宾馆酒店,
116.2800578879252,40.09081097255642,北京北青路开心果公寓,北清路辅路(生命科学园地铁附近大学国际医院附近),北京市,北京市,,住宿服务;住宿服务相关;住宿服务相关,100000,B0FFKV6MDV,住宿服务,住宿服务相关,住宿服务相关,
116.2763816621822,40.10775818023253,泓渡商务酒店,回龙观镇京昌路221号,北京市,北京市,,住宿服务;宾馆酒店;宾馆酒店,100100,B0FFF62Y05,住宿服务,宾馆酒店,宾馆酒店,
116.25313782470812,40.084144173828655,北京奇异谷花园普通公寓分店,友谊嘉园二期小牛坊2期7号楼3单元503,北京市,北京市,西北旺,住宿服务;住宿服务相关;住宿服务相关,100000,B0FFIMY4UO,住宿服务,住宿服务相关,住宿服务相关,
116.2677905305967,40.09493907377759,海诺康会馆,生命园路16号,北京市,北京市,,住宿服务;宾馆酒店;宾馆酒店,100100,B000A9IM4B,住宿服务,宾馆酒店,宾馆酒店,
116.2433164853004,40.06597817199525,朗丽兹西山花园酒店,丰智东路13号,北京市,北京市,西北旺,住宿服务;宾馆酒店;五星级宾馆,100102,B0FFFCMCHK,住宿服务,宾馆酒店,五星级宾馆,
116.26135565525391,40.099980734933034,北京中关村生命科学园亚朵酒店,回龙观镇生命园路4号院1号楼,北京市,北京市,,住宿服务;宾馆酒店;宾馆酒店,100100,B0G23CDMVM,住宿服务,宾馆酒店,宾馆酒店,
116.28097584403633,40.096663352775586,北京悦家影院民宿,北清路1号院7号楼2单元1511室,北京市,北京市,回龙观,住宿服务;住宿服务相关;住宿服务相关,100000,B0FFJDYG9X,住宿服务,住宿服务相关,住宿服务相关,
116.28073620838676,40.09650567685256,北京时空驿站,北清路一号院珠江摩派8号楼(回龙观),北京市,北京市,回龙观,住宿服务;住宿服务相关;住宿服务相关,100000,B0FFI075JN,住宿服务,住宿服务相关,住宿服务相关,
116.28104672160019,40.09682324806514,暖屋民宿北清路店,北清路1号院珠江摩尔大厦8号楼1单元,北京市,北京市,回龙观,住宿服务;住宿服务相关;住宿服务相关,100000,B0FFI072BW,住宿服务,住宿服务相关,住宿服务相关,
116.25237879761993,40.07737790162239,汉庭酒店(北京北清路永丰科技园店),北清路永丰嘉园一区22号楼,北京市,北京市,西北旺,住宿服务;住宿服务相关;住宿服务相关,100000,B0FFKKC1KT,住宿服务,住宿服务相关,住宿服务相关,
116.28338718009219,40.097275076157324,北京壹时代公寓,北清路珠江摩尔大厦6号楼1单元9层904室,北京市,北京市,回龙观,住宿服务;住宿服务相关;住宿服务相关,100000,B0FFKB3FGE,住宿服务,住宿服务相关,住宿服务相关,
116.29005327890785,40.088648989909274,糖果精品公寓,回龙观街道北清路2号园墅51号楼4单元1层,北京市,北京市,回龙观,住宿服务;住宿服务相关;住宿服务相关,100000,B0FFKLWEHN,住宿服务,住宿服务相关,住宿服务相关,
116.28075115073841,40.09679363572648,北京柳川公寓(3号店),北清路1号院-8号楼(二单元),北京市,北京市,回龙观,住宿服务;住宿服务相关;住宿服务相关,100000,B0FFKSUG3S,住宿服务,住宿服务相关,住宿服务相关,
116.25249176045557,40.077539852124815,如家商旅北京北清路永丰产业园中关村壹号店,永丰嘉园一区23号楼,北京市,北京市,西北旺,住宿服务;住宿服务相关;住宿服务相关,100000,B0FFM4HU1V,住宿服务,住宿服务相关,住宿服务相关,
116.27542056343792,40.10212174088178,大方公寓,市场中路附近,北京市,北京市,,住宿服务;宾馆酒店;宾馆酒店,100100,B0FFG9742I,住宿服务,宾馆酒店,宾馆酒店,
116.28324740306635,40.09720227327077,昌兴民宿(北京北清路店),回龙观镇北清路1号院8号楼2单元2300,北京市,北京市,回龙观,住宿服务;住宿服务相关;住宿服务相关,100000,B0FFKRC54Y,住宿服务,住宿服务相关,住宿服务相关,
116.26473888101071,40.064200715943926,美豪酒店(图景店),土井村一街,北京市,北京市,西北旺,住宿服务;宾馆酒店;宾馆酒店,100100,B0FFLA8HUX,住宿服务,宾馆酒店,宾馆酒店,
116.28068227027059,40.096627737702924,悦民宿(北京生态科学园店),永旺西街珠江摩尔公元8号楼二单元305,北京市,北京市,回龙观,住宿服务;住宿服务相关;住宿服务相关,100000,B0FFL118ZY,住宿服务,住宿服务相关,住宿服务相关,
116.26121772556027,40.10006282076244,速8酒店(北京生命园国际医院店),回龙观镇生命园路4号院1号楼2层2-01-002,北京市,北京市,,住宿服务;宾馆酒店;经济型连锁酒店,100105,B0FFK487E7,住宿服务,宾馆酒店,经济型连锁酒店,
116.28328433531958,40.097292215888054,北京卓悦民宿,北清路一号院珠江摩尔国际大厦7号楼1单元1310,北京市,北京市,回龙观,住宿服务;住宿服务相关;住宿服务相关,100000,B0H6K4CRQ7,住宿服务,住宿服务相关,住宿服务相关,
116.2818056244458,40.09674125340116,小住一宿公寓(北京北清路1号院店),回龙观北清路1号院珠江摩尔大厦1号院8号楼珠江摩尔,北京市,北京市,回龙观,住宿服务;住宿服务相关;住宿服务相关,100000,B0FFIV56VV,住宿服务,住宿服务相关,住宿服务相关,
116.28328333684549,40.097292217255735,北京神仙/小哥哥公寓(2号店),珠江摩尔国际大厦-7号楼,北京市,北京市,回龙观,住宿服务;住宿服务相关;住宿服务相关,100000,B0FFKU0M5U,住宿服务,住宿服务相关,住宿服务相关,
116.24819937800552,40.066141716037485,汉庭酒店,[],北京市,北京市,西北旺,住宿服务;宾馆酒店;经济型连锁酒店,100105,B0G0LUIWBS,住宿服务,宾馆酒店,经济型连锁酒店,
116.29225547367072,40.07958217384575,北京山邸轻奢别墅(2号店),静林湾,北京市,北京市,回龙观,住宿服务;住宿服务相关;住宿服务相关,100000,B0HGBAP5Y0,住宿服务,住宿服务相关,住宿服务相关,
116.29077046745562,40.085015136588936,姚艺公寓(北京生命科学园地铁站店),回龙观街道G6辅路龙城花园中一区M20号楼,北京市,北京市,回龙观,住宿服务;住宿服务相关;住宿服务相关,100000,B0FFKOUGHW,住宿服务,住宿服务相关,住宿服务相关,
116.27771720704858,40.105652758335104,中建公寓(二部),市场中路附近,北京市,北京市,沙河,住宿服务;旅馆招待所;旅馆招待所,100200,B0FFFACURZ,住宿服务,旅馆招待所,旅馆招待所,
116.28582122833758,40.098195586650604,北京悟空的花果山公寓,S216(G110辅路),北京市,北京市,回龙观,住宿服务;住宿服务相关;住宿服务相关,100000,B0FFLGQXJH,住宿服务,住宿服务相关,住宿服务相关,
116.29221554390699,40.07960323585842,北京温馨墅语别墅,华远·静林湾,北京市,北京市,回龙观,住宿服务;住宿服务相关;住宿服务相关,100000,B0FFLGMELH,住宿服务,住宿服务相关,住宿服务相关,
116.28628550028482,40.09797893342427,北京美宿123公寓(2号店),珠江·摩尔国际中心(珠江摩尔八号楼二单元),北京市,北京市,回龙观,住宿服务;住宿服务相关;住宿服务相关,100000,B0FFLFAE0P,住宿服务,住宿服务相关,住宿服务相关,
116.282201020795,40.09688471476947,北京薇home公寓(北京吾同基督教会分店),永旺西街珠江摩尔7-1-417,北京市,北京市,回龙观,住宿服务;旅馆招待所;旅馆招待所,100200,B0FFL3GNYD,住宿服务,旅馆招待所,旅馆招待所,
116.27779993463048,40.10695255353845,馨如家公寓,G6辅路附近,北京市,北京市,,住宿服务;旅馆招待所;旅馆招待所,100200,B0FFFZS5PX,住宿服务,旅馆招待所,旅馆招待所,
116.24790348667908,40.065104832316614,北京何仙姑公寓,丰智东路(永旺家园),北京市,北京市,西北旺,住宿服务;住宿服务相关;住宿服务相关,100000,B0FFKVUARL,住宿服务,住宿服务相关,住宿服务相关,
116.2644000962017,40.06448196438396,活出个调调公寓(北京2号店),土井东路2号楼三单元808,北京市,北京市,西北旺,住宿服务;住宿服务相关;住宿服务相关,100000,B0FFLA4FUF,住宿服务,住宿服务相关,住宿服务相关,
116.24488293082715,40.0658091377463,康福瑞连锁酒店(北京西山店),丰智东路13号,北京市,北京市,西北旺,住宿服务;宾馆酒店;四星级宾馆,100103,B0FFFFU4VH,住宿服务,宾馆酒店,四星级宾馆,
116.24380763760968,40.06593117089895,北京西山温泉酒店,西北旺镇丰智东路13号(近永丰路),北京市,北京市,西北旺,住宿服务;住宿服务相关;住宿服务相关,100000,B0FFHX93AG,住宿服务,住宿服务相关,住宿服务相关,
116.24822637982885,40.0661407111238,汉庭优佳酒店(北京永丰科技园店),永丰科技园丰智东路5号,北京市,北京市,西北旺,住宿服务;宾馆酒店;宾馆酒店,100100,B0FFJDNESD,住宿服务,宾馆酒店,宾馆酒店,
116.28560559761148,40.09802890852043,iu酒店(北京回龙观生命科技园地铁站店),回龙观镇北清路1号院珠江摩尔国际大厦3号楼,北京市,北京市,回龙观,住宿服务;宾馆酒店;宾馆酒店,100100,B0FFGW30RN,住宿服务,宾馆酒店,宾馆酒店,
116.26428978082699,40.01969944022583,和颐酒店(北京颐和园店),天秀路9-1号,北京市,北京市,马连洼,住宿服务;宾馆酒店;宾馆酒店,100100,B0FFHVNYHW,住宿服务,宾馆酒店,宾馆酒店,
116.27154122282403,40.02843650964003,农军宾馆(圆明园西路店),圆明园西路百旺商城东侧,北京市,北京市,西北旺,住宿服务;宾馆酒店;宾馆酒店,100100,B000A7EPT5,住宿服务,宾馆酒店,宾馆酒店,
116.2727554757176,40.0319130760954,奥德兹庄园红酒店,马连洼街道马连洼北路西山华府33号楼底商,北京市,北京市,马连洼,住宿服务;宾馆酒店;宾馆酒店,100100,B0HGVCR8NL,住宿服务,宾馆酒店,宾馆酒店,
116.25916223461142,40.02483669823446,黑山扈招待所,黑山扈路33号,北京市,北京市,西北旺,住宿服务;旅馆招待所;旅馆招待所,100200,B000A88292,住宿服务,旅馆招待所,旅馆招待所,
116.26338237387314,40.0360593257451,龙泉家园,兴隆庄49号,北京市,北京市,马连洼,住宿服务;宾馆酒店;宾馆酒店,100100,B0FFH18LRT,住宿服务,宾馆酒店,宾馆酒店,
116.26825913198923,40.03092955291611,海超城招待所,马连洼北路兰园小区12号楼4单元,北京市,北京市,西北旺,住宿服务;旅馆招待所;旅馆招待所,100200,B0FFF605GL,住宿服务,旅馆招待所,旅馆招待所,
116.26344796942116,40.02294192569403,7天酒店(北京农大南路店),天秀路与龙背村路交叉口向北300米,北京市,北京市,马连洼,住宿服务;宾馆酒店;经济型连锁酒店,100105,B000A87VL0,住宿服务,宾馆酒店,经济型连锁酒店,
116.26205602202792,40.02979059469019,麗枫酒店(北京颐和园农业大学店),马连洼北路百旺家苑38号楼,北京市,北京市,西北旺,住宿服务;宾馆酒店;宾馆酒店,100100,B0FFLKLU55,住宿服务,宾馆酒店,宾馆酒店,
116.28103331433441,40.03655402808626,北京田园庄饭店,东北旺西路18号,北京市,北京市,上地,住宿服务;宾馆酒店;宾馆酒店,100100,B0FFFZF682,住宿服务,宾馆酒店,宾馆酒店,
116.27090296498166,40.027810184023096,食品茶酒店(中发百旺商城店),圆明园西路18号中发百旺商城F1,北京市,北京市,马连洼,住宿服务;宾馆酒店;宾馆酒店,100100,B0GUAOFGDG,住宿服务,宾馆酒店,宾馆酒店,
116.25939217752536,40.02439858244114,和利宾馆,黑山扈路37号,北京市,北京市,西北旺,住宿服务;宾馆酒店;宾馆酒店,100100,B0FFFYXPQ9,住宿服务,宾馆酒店,宾馆酒店,
116.2732110810508,40.02301902617756,怡城林快捷酒店,圆明园西路9-5号,北京市,北京市,马连洼,住宿服务;宾馆酒店;宾馆酒店,100100,B000A9Q7DG,住宿服务,宾馆酒店,宾馆酒店,
116.2592662297175,40.02447365404461,玉泉公寓,309医院北门向南200米,北京市,北京市,西北旺,住宿服务;旅馆招待所;旅馆招待所,100200,B0FFH9I3R5,住宿服务,旅馆招待所,旅馆招待所,
116.27354675962111,40.0225486868624,英杰城宾馆,圆明园西路3号院1栋2层,北京市,北京市,马连洼,住宿服务;宾馆酒店;宾馆酒店,100100,B000A9Q7HK,住宿服务,宾馆酒店,宾馆酒店,
116.2845492977502,40.02630777358563,北京万树公寓,厢黄旗路万树园小区内,北京市,北京市,上地,住宿服务;住宿服务相关;住宿服务相关,100000,B0FFF5AYSH,住宿服务,住宿服务相关,住宿服务相关,
116.25930516628102,40.02482961371356,黑山扈招待所客房部,黑山扈路,北京市,北京市,西北旺,住宿服务;旅馆招待所;旅馆招待所,100200,B0FFL5U89Q,住宿服务,旅馆招待所,旅馆招待所,
116.26430041092779,40.022596294901454,桔子酒店(北京颐和园店),天秀北路10号裕隆新村对面工地,北京市,北京市,马连洼,住宿服务;住宿服务相关;住宿服务相关,100000,B0FFJPV84M,住宿服务,住宿服务相关,住宿服务相关,
116.24792039227604,40.041872150187366,香泉湾公寓,黑龙潭路华联超市旁,北京市,北京市,西北旺,住宿服务;旅馆招待所;旅馆招待所,100200,B0FFG76L9N,住宿服务,旅馆招待所,旅馆招待所,
116.2513557564853,40.03871649848184,西北旺青年公寓,百望山北路,北京市,北京市,西北旺,住宿服务;旅馆招待所;青年旅舍,100201,B0FFGX4W95,住宿服务,旅馆招待所,青年旅舍,
116.29001104861764,40.0434168583132,和颐酒店(北京中关村软件园店),中关村软件园东北旺路8号院9号楼,北京市,北京市,西北旺,住宿服务;宾馆酒店;四星级宾馆,100103,B0FFG3GX43,住宿服务,宾馆酒店,四星级宾馆,
116.26590348797374,40.020193122890774,北京云逸宾馆,天秀路天秀花园古月园小区26号楼西侧,北京市,北京市,马连洼,住宿服务;宾馆酒店;宾馆酒店,100100,B0FFI2BBFX,住宿服务,宾馆酒店,宾馆酒店,
116.28075930991089,40.03175862890639,小鹿姑娘的民宿(上地产业园/西三旗三店),竹园东街-道路(竹园小区),北京市,北京市,马连洼,住宿服务;住宿服务相关;住宿服务相关,100000,B0FFK68A1J,住宿服务,住宿服务相关,住宿服务相关,
116.2633868745825,40.02403491876644,如家商旅酒店(北京颐和园农业大学店),龙背村路百旺家苑西区37号,北京市,北京市,西北旺,住宿服务;宾馆酒店;宾馆酒店,100100,B0FFKX88XL,住宿服务,宾馆酒店,宾馆酒店,
116.29232716091443,40.04132934546253,大东北宾馆,唐家岭路57号院3号楼,北京市,北京市,西北旺,住宿服务;宾馆酒店;宾馆酒店,100100,B0FFFEET5U,住宿服务,宾馆酒店,宾馆酒店,
116.24923954448732,40.041123928518594,桔子酒店(西北旺回民公墓路店),西北旺回民公墓路,北京市,北京市,西北旺,住宿服务;宾馆酒店;经济型连锁酒店,100105,B0HACRX58F,住宿服务,宾馆酒店,经济型连锁酒店,
116.26351119836947,40.02076298203496,北京好山水民宿(颐和园店),龙背村路裕禧隆园6号楼6单元502室,北京市,北京市,马连洼,住宿服务;住宿服务相关;住宿服务相关,100000,B0FFGNZZI8,住宿服务,住宿服务相关,住宿服务相关,
116.28395223554432,40.01829498898184,王庄公寓,圆明园西路33号,北京市,北京市,马连洼,住宿服务;宾馆酒店;宾馆酒店,100100,B0FFF9NJSG,住宿服务,宾馆酒店,宾馆酒店,
116.24709824813952,40.04237725292549,北京北宏仑公寓,西北旺镇黑龙潭路58号,北京市,北京市,西北旺,住宿服务;宾馆酒店;宾馆酒店,100100,B0FFLAFAXI,住宿服务,宾馆酒店,宾馆酒店,
116.24941543948971,40.04197384382987,桔子酒店(中关村软件园店),[],北京市,北京市,西北旺,住宿服务;宾馆酒店;宾馆酒店,100100,B0HBMSMBN0,住宿服务,宾馆酒店,宾馆酒店,
116.24354012914431,40.03736778017813,青年创业公寓,韩家川东路临17号临211号,北京市,北京市,西北旺,住宿服务;旅馆招待所;旅馆招待所,100200,B000A8XI72,住宿服务,旅馆招待所,旅馆招待所,
116.27842023407321,40.01835623900159,创客之家青年旅舍(肖家河店),圆明园西路肖家河新村东区2号楼2单元103,北京市,北京市,马连洼,住宿服务;旅馆招待所;青年旅舍,100201,B0FFJD4CHQ,住宿服务,旅馆招待所,青年旅舍,
116.29164453554375,40.032311891571716,青旅生活驿站(上地店),马连洼北路万霖科技大厦C座,北京市,北京市,上地,住宿服务;住宿服务相关;住宿服务相关,100000,B0G0A4RH2K,住宿服务,住宿服务相关,住宿服务相关,
116.2431543219119,40.04287549172861,家兴公寓,黑龙潭路56号,北京市,北京市,西北旺,住宿服务;旅馆招待所;旅馆招待所,100200,B0FFGZV5LK,住宿服务,旅馆招待所,旅馆招待所,
116.26221026251514,40.0110953694397,安河公寓,山西名吃地铁安河桥北站D口,北京市,北京市,马连洼,住宿服务;旅馆招待所;旅馆招待所,100200,B0FFG8UTJP,住宿服务,旅馆招待所,旅馆招待所,
116.24470575768207,40.042859458563385,秋峰阁洗浴宾馆,西北旺付家窑17号,北京市,北京市,西北旺,住宿服务;宾馆酒店;宾馆酒店,100100,B000A9Q9DB,住宿服务,宾馆酒店,宾馆酒店,
116.24281986170357,40.037677759486606,青年公寓,韩家川东路临4号,北京市,北京市,西北旺,住宿服务;旅馆招待所;旅馆招待所,100200,B0FFFOUYK8,住宿服务,旅馆招待所,旅馆招待所,
116.24461077385142,40.04254547995939,鑫兴公寓,秋峰阁洗浴宾馆南侧,北京市,北京市,西北旺,住宿服务;住宿服务相关;住宿服务相关,100000,B0FFK5A0X9,住宿服务,住宿服务相关,住宿服务相关,
116.26468628549493,40.01333242524322,秋果酒店(北京颐和园店),龙背村路101号,北京市,北京市,马连洼,住宿服务;宾馆酒店;宾馆酒店,100100,B0FFJV6XYA,住宿服务,宾馆酒店,宾馆酒店,
116.24750241130917,40.041424242894934,乐乎城市青年社区(西北旺地铁站店),黑龙潭路58号院,北京市,北京市,西北旺,住宿服务;旅馆招待所;青年旅舍,100201,B0G0XC1TQ0,住宿服务,旅馆招待所,青年旅舍,
116.2801138871916,40.018514102986195,北京小杜杜的家公寓(4号店),圆明园西路34号肖家河回迁住宅农科院植保所农大南路,北京市,北京市,马连洼,住宿服务;住宿服务相关;住宿服务相关,100000,B0FFKV6MFI,住宿服务,住宿服务相关,住宿服务相关,
116.28804698320282,40.02314886110249,99优选酒店(北京上地农大南路地铁站店),农大南路厢黄旗博雅西苑2号楼,北京市,北京市,马连洼,住宿服务;宾馆酒店;宾馆酒店,100100,B0FFLFTU1N,住宿服务,宾馆酒店,宾馆酒店,
116.28422806001355,40.01627469928948,龙渊虹光公寓,肖家河桥下北京金马搬家公司北50米路,北京市,北京市,马连洼,住宿服务;住宿服务相关;住宿服务相关,100000,B0FFF5S7IH,住宿服务,住宿服务相关,住宿服务相关,
116.28228699348722,40.016488346147746,北京就住这家公寓(2号店),肖家河东村3号305室,北京市,北京市,马连洼,住宿服务;住宿服务相关;住宿服务相关,100000,B0FFLGQX5M,住宿服务,住宿服务相关,住宿服务相关,
116.26352308451887,40.05358127505904,空管科技交流中心,西北旺北路1号(土井东路),北京市,北京市,西北旺,住宿服务;宾馆酒店;五星级宾馆,100102,B000A9IQPS,住宿服务,宾馆酒店,五星级宾馆,
116.2804884689463,40.017624662553274,鸿缘公寓,万泉河快速路肖家河小学东南,北京市,北京市,马连洼,住宿服务;住宿服务相关;住宿服务相关,100000,B0FFH18NDL,住宿服务,住宿服务相关,住宿服务相关,
116.29062417330407,40.02586480628132,全季酒店,农大南路33号,北京市,北京市,上地,住宿服务;住宿服务相关;住宿服务相关,100000,B0H6XUXBTW,住宿服务,住宿服务相关,住宿服务相关,
116.24476186840417,40.04208049697752,沣圹公寓,黑龙潭路,北京市,北京市,西北旺,住宿服务;旅馆招待所;旅馆招待所,100200,B0FFGBAW7R,住宿服务,旅馆招待所,旅馆招待所,
116.2914011470369,40.04683551237034,和颐至尊酒店(北京中关村软件园国际会议中心店),东北旺西路8号中关村软件园4号楼AB座中关村软件园国际会议中心,北京市,北京市,西北旺,住宿服务;住宿服务相关;住宿服务相关,100000,B0FFJFM7TX,住宿服务,住宿服务相关,住宿服务相关,
116.2805703133951,40.00995890752449,邮乐购生活驿站,上河沿路与圆明园西路交叉口西南方向180米,北京市,北京市,,住宿服务;住宿服务相关;住宿服务相关,100000,B0G2MO2D2U,住宿服务,住宿服务相关,住宿服务相关,
116.27608380984834,39.99796494702437,北京颐和安缦酒店,颐和园宫门前街1号,北京市,北京市,,住宿服务;宾馆酒店;五星级宾馆,100102,B000A85X9P,住宿服务,宾馆酒店,五星级宾馆,
116.2722557428793,39.962186627125305,世纪华天大酒店,蓝靛厂西路11号,北京市,北京市,世纪城,住宿服务;宾馆酒店;四星级宾馆,100103,B000A81FF8,住宿服务,宾馆酒店,四星级宾馆,
116.25931560838677,40.00523850807441,香山颐和,厢红旗东门外1号院,北京市,北京市,,住宿服务;宾馆酒店;四星级宾馆,100103,B0FFFACOWM,住宿服务,宾馆酒店,四星级宾馆,
116.25854200898799,40.00493697198443,成轩酒店,颐和园军事科学院南门外1号楼(上源博大北侧),北京市,北京市,,住宿服务;宾馆酒店;三星级宾馆,100104,B000A8XGSG,住宿服务,宾馆酒店,三星级宾馆,
116.2737201074972,40.00220742393137,崇学山庄宾馆,大有庄100号(中央党校正门东侧),北京市,北京市,,住宿服务;宾馆酒店;四星级宾馆|体育休闲服务;体育休闲服务场所;体育休闲服务场所,100103|080000,B000A81IJ8,住宿服务,宾馆酒店,四星级宾馆|体育休闲服务,体育休闲服务场所
116.27669507581093,39.989693580499384,北京清风徐来公寓(3号店),新建宫门路21号院,北京市,北京市,,住宿服务;住宿服务相关;住宿服务相关,100000,B0FFKV6PC3,住宿服务,住宿服务相关,住宿服务相关,
116.27761786421891,39.98986847108088,北京颐和园租房公寓(4号店),新建宫门路21号院,北京市,北京市,,住宿服务;住宿服务相关;住宿服务相关,100000,B0FFKKN15R,住宿服务,住宿服务相关,住宿服务相关,
116.27615170891143,39.99809486249639,北京颐和安缦酒店安缦馆,颐和园宫门前街1号,北京市,北京市,,住宿服务;宾馆酒店;五星级宾馆,100102,B0FFF67UPH,住宿服务,宾馆酒店,五星级宾馆,
116.29213124350996,39.995788804288495,家乐祥商务宾馆,颐和园路66号,北京市,北京市,西苑,住宿服务;宾馆酒店;宾馆酒店,100100,B000A80X2Z,住宿服务,宾馆酒店,宾馆酒店,
116.25823514936968,40.004901146288766,布丁酒店(北京颐和园北宫门店),香山路75号,北京市,北京市,,住宿服务;宾馆酒店;经济型连锁酒店,100105,B0FFFACQ37,住宿服务,宾馆酒店,经济型连锁酒店,
116.27676502151283,39.9654264810661,德盛轩宾馆,蓝靛厂路17号楼,北京市,北京市,世纪城,住宿服务;宾馆酒店;宾馆酒店,100100,B000A80V8D,住宿服务,宾馆酒店,宾馆酒店,
116.2693766206813,39.97068215357282,汉庭酒店(北京四海桥店),北四环西路89号院37号,北京市,北京市,,住宿服务;宾馆酒店;经济型连锁酒店,100105,B0FFG6PD52,住宿服务,宾馆酒店,经济型连锁酒店,
116.2600313011446,40.004803090963506,红山逸园,香山路甲8号,北京市,北京市,,住宿服务;旅馆招待所;旅馆招待所,100200,B0FFFAJAGV,住宿服务,旅馆招待所,旅馆招待所,
116.28970784100983,39.99358167579991,苹果宾馆(万泉河路辅路),万泉河路12号虎城55号,北京市,北京市,西苑,住宿服务;宾馆酒店;宾馆酒店,100100,B000A39B07,住宿服务,宾馆酒店,宾馆酒店,
116.29010887739025,39.99566297159348,北京吉祥瑞旅馆,颐和园路西苑虎城13号平房,北京市,北京市,西苑,住宿服务;旅馆招待所;旅馆招待所,100200,B000A9Q79D,住宿服务,旅馆招待所,旅馆招待所,
116.27884860144773,39.970869735585666,空军指挥学院招待所(昆玉大厦A座西),北四环西路88号院,北京市,北京市,世纪城,住宿服务;旅馆招待所;旅馆招待所,100200,B0FFHYBAUA,住宿服务,旅馆招待所,旅馆招待所,
116.29002231520495,39.99338620136541,北京万苑公寓,西苑挂甲屯虎城72号(红苹果洗浴门口),北京市,北京市,西苑,住宿服务;住宿服务相关;住宿服务相关,100000,B0FFFVJ3T3,住宿服务,住宿服务相关,住宿服务相关,
116.24954756332579,39.96883808553793,福之光招待所,闵航路16号(近颐和园景区),北京市,北京市,,住宿服务;旅馆招待所;旅馆招待所,100200,B000A9Q7KA,住宿服务,旅馆招待所,旅馆招待所,
116.27522841923447,40.001489777702304,北京温馨家园公寓(大有庄店),颐和园路大有庄72号,北京市,北京市,,住宿服务;旅馆招待所;旅馆招待所,100200,B0FFFGZ0WG,住宿服务,旅馆招待所,旅馆招待所,
116.26743065291252,40.00067069514042,老酒店,新建宫门路19号,北京市,北京市,,住宿服务;宾馆酒店;宾馆酒店,100100,B0FFF56JT0,住宿服务,宾馆酒店,宾馆酒店,
116.2898773869593,39.9948383626381,爱家公寓,颐和园路挂甲屯18号,北京市,北京市,西苑,住宿服务;旅馆招待所;旅馆招待所,100200,B0FFFDP2LY,住宿服务,旅馆招待所,旅馆招待所,
116.28973679436747,39.993550632766635,合心酒店式公寓,万泉河路挂甲屯虎成55号(西苑医院东侧马路正对面),北京市,北京市,西苑,住宿服务;宾馆酒店;宾馆酒店,100100,B0FFFA0K0W,住宿服务,宾馆酒店,宾馆酒店,
116.27833881875341,40.00657787499113,青年公馆(颐和园店),圆明园西路骚子营二区52号,北京市,北京市,,住宿服务;旅馆招待所;旅馆招待所,100200,B0FFFANE8P,住宿服务,旅馆招待所,旅馆招待所,
116.28984950114398,39.99431742752323,四海公寓,西苑虎城甲35号,北京市,北京市,西苑,住宿服务;旅馆招待所;旅馆招待所,100200,B0FFF5K0XZ,住宿服务,旅馆招待所,旅馆招待所,
116.27549797722035,40.002402430787406,大友宾馆(颐和园八分店),大有庄街北上坡3号,北京市,北京市,,住宿服务;宾馆酒店;宾馆酒店,100100,B0FFF6W8T0,住宿服务,宾馆酒店,宾馆酒店,
116.24993181198376,39.998894760185436,御园汇,厢红旗路功德寺桥南100米(御园北侧),北京市,北京市,,住宿服务;住宿服务相关;住宿服务相关,100000,B000A9R60Z,住宿服务,住宿服务相关,住宿服务相关,
116.29048088896553,39.9664285931431,零距离,市街道万柳中路11号派顿大厦8曾层,北京市,北京市,万柳,住宿服务;宾馆酒店;宾馆酒店,100100,B0FFL5KM9J,住宿服务,宾馆酒店,宾馆酒店,
116.25221645939084,40.008259684954396,部招待所,香山路2-003号附近,北京市,北京市,,住宿服务;住宿服务相关;住宿服务相关,100000,B0FFGCZAR5,住宿服务,住宿服务相关,住宿服务相关,
116.29091855793705,39.99475475529991,颐和园租房公寓(5号店),挂甲屯教养局1号院(1号楼3单元),北京市,北京市,西苑,住宿服务;住宿服务相关;住宿服务相关,100000,B0FFKKN19H,住宿服务,住宿服务相关,住宿服务相关,
116.28060779119768,40.00572004789215,北京大学燕欣宾馆,圆明园西路燕北园335号楼(近北京大学),北京市,北京市,,住宿服务;住宿服务相关;住宿服务相关,100000,B0FFFGF5TX,住宿服务,住宿服务相关,住宿服务相关,
116.29093755720332,39.99449073687006,北京清风徐来公寓(5号店),挂甲屯教养局1号院1号楼,北京市,北京市,西苑,住宿服务;住宿服务相关;住宿服务相关,100000,B0FFKTET5M,住宿服务,住宿服务相关,住宿服务相关,
116.29088461591881,39.99477480735366,蜗牛的蜗公寓(2号店),挂甲屯教养局1号院,北京市,北京市,西苑,住宿服务;住宿服务相关;住宿服务相关,100000,B0FFKKN0HE,住宿服务,住宿服务相关,住宿服务相关,
116.27672550433097,40.00194102358234,颐和国际青年公寓,颐和园北宫门大有庄蜈蚣街21号,北京市,北京市,,住宿服务;旅馆招待所;青年旅舍,100201,B000AA9OB0,住宿服务,旅馆招待所,青年旅舍,
116.26698888736284,39.96178967287596,一时光忆时光青年之家,四季青镇常青园北里旁边权品对面,北京市,北京市,,住宿服务;住宿服务相关;住宿服务相关,100000,B0G31UZE2B,住宿服务,住宿服务相关,住宿服务相关,
116.2698318060038,39.96567091831359,如家快捷酒店(北京中关村蓝靛厂店),西四环北路10号,北京市,北京市,,住宿服务;宾馆酒店;经济型连锁酒店,100105,B000A9MXYZ,住宿服务,宾馆酒店,经济型连锁酒店,
116.28974585307948,39.96106193855226,城宿公寓(北京十七店),泉宗路10号康桥水郡1号楼5单元,北京市,北京市,万柳,住宿服务;住宿服务相关;住宿服务相关,100000,B0GUDAPA56,住宿服务,住宿服务相关,住宿服务相关,
116.29099309538273,39.96550083365374,宅小妹之家民宿(中关村/五道口五店),汇新家园西区,北京市,北京市,万柳,住宿服务;住宿服务相关;住宿服务相关,100000,B0FFKV6OS0,住宿服务,住宿服务相关,住宿服务相关,
116.27755639893101,40.00221601958163,青年公寓,大有庄蜈蚣街18号(紧邻颐和园和北大),北京市,北京市,,住宿服务;旅馆招待所;旅馆招待所,100200,B0FFF2SW3C,住宿服务,旅馆招待所,旅馆招待所,
116.24304895634613,40.005476291492364,9号公寓,青龙桥街道东小府1号中国林业科学研究院,北京市,北京市,香山,住宿服务;住宿服务相关;住宿服务相关,100000,B0FFIY05DK,住宿服务,住宿服务相关,住宿服务相关,
116.26718898222813,39.93559753631059,美泉宫饭店,西四环北路125号,北京市,北京市,四季青,住宿服务;宾馆酒店;五星级宾馆,100102,B000A85UNE,住宿服务,宾馆酒店,五星级宾馆,
116.26913908664092,39.936694724613254,金泰海博大酒店,西四环北路136号,北京市,北京市,四季青,住宿服务;宾馆酒店;四星级宾馆,100103,B000A840EL,住宿服务,宾馆酒店,四星级宾馆,
116.26828876145912,39.929578797834935,桔子酒店(五棵松店),八里庄街道五孔桥35号,北京市,北京市,,住宿服务;宾馆酒店;经济型连锁酒店,100105,B000A85WQR,住宿服务,宾馆酒店,经济型连锁酒店,
116.26363752708606,39.9292596768701,7天酒店(北京定慧寺五路居地铁站店),五孔桥56号1幢,北京市,北京市,,住宿服务;宾馆酒店;经济型连锁酒店,100105,B000A8VTM3,住宿服务,宾馆酒店,经济型连锁酒店,
116.27415847146096,39.93921649684474,西荣阁酒店,彰化路138号院1号楼,北京市,北京市,四季青,住宿服务;宾馆酒店;四星级宾馆,100103,B000A8W0XK,住宿服务,宾馆酒店,四星级宾馆,
116.27416990391029,39.95166899042553,世纪金源大饭店,板井路69号,北京市,北京市,世纪城,住宿服务;宾馆酒店;五星级宾馆,100102,B000A7C3G9,住宿服务,宾馆酒店,五星级宾馆,
116.2810613751973,39.923904786528595,永兴花园饭店,阜成路101号,北京市,北京市,,住宿服务;宾馆酒店;四星级宾馆,100103,B000A7C1M1,住宿服务,宾馆酒店,四星级宾馆,
116.26580395585034,39.93696565854196,美逸商务酒店,西四环北路125号(近通汇路),北京市,北京市,四季青,住宿服务;宾馆酒店;宾馆酒店,100100,B0FFG4CH0Q,住宿服务,宾馆酒店,宾馆酒店,
116.27577824492941,39.94150757971449,和家宾馆(北京四季青店),金庄村2号院,北京市,北京市,四季青,住宿服务;宾馆酒店;宾馆酒店,100100,B000A84C7U,住宿服务,宾馆酒店,宾馆酒店,
116.27477351480677,39.92505038567337,永兴花园商务酒店,阜成路定慧北里18号楼(近西八里庄路),北京市,北京市,,住宿服务;宾馆酒店;三星级宾馆,100104,B000A85K5I,住宿服务,宾馆酒店,三星级宾馆,
116.26913729101241,39.93506879147448,乐居民宿(北京7号店),美丽西园-13号楼西四环北路140号,北京市,北京市,四季青,住宿服务;住宿服务相关;住宿服务相关,100000,B0GUHLSHR1,住宿服务,住宿服务相关,住宿服务相关,
116.29241511977649,39.92087138077113,裕龙国际酒店,阜成路40号,北京市,北京市,,住宿服务;宾馆酒店;三星级宾馆,100104,B000A85DO9,住宿服务,宾馆酒店,三星级宾馆,
116.278584069813,39.92996569099028,北京漳州宾馆,恩济西街46号G区1幢,北京市,北京市,,住宿服务;宾馆酒店;宾馆酒店,100100,B000A6FFCF,住宿服务,宾馆酒店,宾馆酒店,
116.2767419917804,39.91784341772889,瑞成大酒店,西翠路9号,北京市,北京市,五棵松,住宿服务;宾馆酒店;三星级宾馆,100104,B000A5C9AA,住宿服务,宾馆酒店,三星级宾馆,
116.28721646550225,39.91069377912069,万寿宾馆,万寿路甲12号,北京市,北京市,五棵松,住宿服务;宾馆酒店;宾馆酒店,100100,B0FFG7G99I,住宿服务,宾馆酒店,宾馆酒店,
116.2709646789979,39.93354208124243,北京京西的美丽花园住宿,营慧寺美丽园25-3-202,北京市,北京市,四季青,住宿服务;住宿服务相关;住宿服务相关,100000,B0FFHFL5KK,住宿服务,住宿服务相关,住宿服务相关,
116.27115582694381,39.93077500128173,玲珑天地酒店式公寓,西四环北路160号玲珑天地A座622室,北京市,北京市,四季青,住宿服务;宾馆酒店;经济型连锁酒店,100105,B0FFI65F2I,住宿服务,宾馆酒店,经济型连锁酒店,
116.27216600973921,39.92876605018631,达鑫招待所,西四环定慧北桥东约100米八里庄路61号院,北京市,北京市,,住宿服务;旅馆招待所;旅馆招待所,100200,B000A85DPZ,住宿服务,旅馆招待所,旅馆招待所,
116.2814773542782,39.927254102711245,隆屋精品酒店,恩济东街恩济里35号,北京市,北京市,,住宿服务;宾馆酒店;宾馆酒店,100100,B000A80YA4,住宿服务,宾馆酒店,宾馆酒店,
116.25922925210912,39.92820668288578,如家快捷酒店(北京定慧北桥田村路店),田村路23号,北京市,北京市,,住宿服务;宾馆酒店;经济型连锁酒店,100105,B0FFFAIMNM,住宿服务,宾馆酒店,经济型连锁酒店,
116.26867415651762,39.939623040728215,亮庭宾馆,营慧寺75号,北京市,北京市,四季青,住宿服务;宾馆酒店;宾馆酒店,100100,B000A85LPD,住宿服务,宾馆酒店,宾馆酒店,
116.27308250354204,39.9568119674538,北京海淀雅乐轩酒店,远大路25号2座,北京市,北京市,世纪城,住宿服务;宾馆酒店;四星级宾馆,100103,B000A81FCI,住宿服务,宾馆酒店,四星级宾馆,
116.26761292132882,39.91707892075813,北京五棵松饭店,西四环中路19号,北京市,北京市,,住宿服务;宾馆酒店;三星级宾馆,100104,B000A7IUGK,住宿服务,宾馆酒店,三星级宾馆,
116.27123973784066,39.93079191608616,小柠檬公寓(北京玲珑路店),西四环北路160号玲珑天地A座,北京市,北京市,四季青,住宿服务;住宿服务相关;住宿服务相关,100000,B0FFKV6QZ3,住宿服务,住宿服务相关,住宿服务相关,
116.26011281692102,39.92812514807784,长荣酒店(半壁店),田村路23号3号楼,北京市,北京市,,住宿服务;宾馆酒店;宾馆酒店,100100,B000A879T8,住宿服务,宾馆酒店,宾馆酒店,
116.260677989008,39.932329618913734,福永公寓,永定河路西200米,北京市,北京市,,住宿服务;旅馆招待所;旅馆招待所|商务住宅;商务住宅相关;商务住宅相关,100200|120000,B0FFLBF8BA,住宿服务,旅馆招待所,旅馆招待所|商务住宅,商务住宅相关
116.28261010970863,39.93182040466496,怡家自助公寓(北京慈寿寺店),玲珑路琨钰府7号楼1单元104室,北京市,北京市,,住宿服务;住宿服务相关;住宿服务相关,100000,B0FFHS8Q7O,住宿服务,住宿服务相关,住宿服务相关,
116.28854123384426,39.910708808217485,天天假日饭店,万寿路17号(万寿路地铁站A口北500米),北京市,北京市,五棵松,住宿服务;宾馆酒店;三星级宾馆,100104,B000A7BBZ5,住宿服务,宾馆酒店,三星级宾馆,
116.27030941732927,39.91689041255054,鸿府大厦,五棵松路北甲8号,北京市,北京市,五棵松,住宿服务;宾馆酒店;四星级宾馆|商务住宅;楼宇;商务写字楼,100103|120201,B000A835JC,住宿服务,宾馆酒店,四星级宾馆|商务住宅,楼宇
116.27366209069781,39.9388430548684,西荣阁酒店式高档公寓,四季青桥南彰化路138号西荣阁B555,北京市,北京市,四季青,住宿服务;宾馆酒店;宾馆酒店,100100,B0FFJGERAZ,住宿服务,宾馆酒店,宾馆酒店,
116.28205619919535,39.92169456294344,坤澜宾馆,定慧东里15号楼(近恩济东街),北京市,北京市,五棵松,住宿服务;宾馆酒店;宾馆酒店,100100,B000A7I4B8,住宿服务,宾馆酒店,宾馆酒店,
116.27395873654652,39.938948727006384,北京拾蒹公寓(6号店),西荣阁-A座,北京市,北京市,四季青,住宿服务;住宿服务相关;住宿服务相关,100000,B0FFKRZT4P,住宿服务,住宿服务相关,住宿服务相关,
116.27245554649653,39.92996169959237,金润酒店,阜外亮甲店1号恩济西园产业园6、7、8、9号楼,北京市,北京市,,住宿服务;住宿服务相关;住宿服务相关,100000,B0FFI6RYKI,住宿服务,住宿服务相关,住宿服务相关,
116.27513527694379,39.92348504242532,新开元大酒店(阜成路店),阜成路111号,北京市,北京市,五棵松,住宿服务;宾馆酒店;宾馆酒店,100100,B0FFHFIIA6,住宿服务,宾馆酒店,宾馆酒店,
116.2777325661272,39.92703685243701,君恩招待所,恩济庄西八里庄路57号院,北京市,北京市,,住宿服务;旅馆招待所;旅馆招待所,100200,B0FFGBJF9X,住宿服务,旅馆招待所,旅馆招待所,
116.27374037496398,39.94386077003138,红菜苔(四季青店),紫竹院路128号4号楼(西四环四季青桥东200米路南),北京市,北京市,四季青,餐饮服务;中餐厅;综合酒楼|住宿服务;宾馆酒店;宾馆酒店,050101|100100,B000A8W2B4,餐饮服务,中餐厅,综合酒楼|住宿服务,宾馆酒店
116.28187370318676,39.919813884358305,7天酒店(北京航天桥店),定慧东里18号楼,北京市,北京市,五棵松,住宿服务;宾馆酒店;宾馆酒店,100100,B0FFFAGYXJ,住宿服务,宾馆酒店,宾馆酒店,
116.28415489822397,39.93063733349905,梦游世界主题酒店,八里庄北里21号楼,北京市,北京市,,住宿服务;宾馆酒店;宾馆酒店,100100,B0FFHC96Z4,住宿服务,宾馆酒店,宾馆酒店,
116.27366903534973,39.93922303215725,北京京西小憩公寓(彰化路分店),彰化路138号院-1号楼,北京市,北京市,四季青,住宿服务;住宿服务相关;住宿服务相关,100000,B0FFLN5XE7,住宿服务,住宿服务相关,住宿服务相关,
116.27093448967278,39.92728736481115,北京刘立公寓(永定河路分店),八里庄街道八里庄路62号院-1,北京市,北京市,,住宿服务;住宿服务相关;住宿服务相关,100000,B0FFLN5XG1,住宿服务,住宿服务相关,住宿服务相关,
116.26548241760314,39.94331566949595,如家商旅酒店(北京四季青桥店),西四环北路117号,北京市,北京市,四季青,住宿服务;宾馆酒店;宾馆酒店,100100,B0FFITOBJ4,住宿服务,宾馆酒店,宾馆酒店,
116.28468959158222,39.926396757942804,速8酒店(北京海淀西八里庄路店),西八里庄路53号楼,北京市,北京市,,住宿服务;宾馆酒店;经济型连锁酒店,100105,B0FFIA3JMI,住宿服务,宾馆酒店,经济型连锁酒店,
116.27181957318172,39.927223470864476,北京雪儿民宿(21号店),定慧福里-2号楼,北京市,北京市,,住宿服务;住宿服务相关;住宿服务相关,100000,B0FFKV6NL9,住宿服务,住宿服务相关,住宿服务相关,
116.2709844944483,39.92683733320737,北京舟舟公寓,八里庄路62号院-1号楼,北京市,北京市,,住宿服务;住宿服务相关;住宿服务相关,100000,B0GUH9RMYV,住宿服务,住宿服务相关,住宿服务相关,
116.28773655216277,39.911052995320865,万寿宾馆B座,万寿路甲12号,北京市,北京市,五棵松,住宿服务;宾馆酒店;四星级宾馆,100103,B000A59615,住宿服务,宾馆酒店,四星级宾馆,
116.27778390400688,39.91577425730299,西翠宾馆(西翠路店),万寿路2号(五棵松体育馆东侧西翠路向北900米),北京市,北京市,五棵松,住宿服务;宾馆酒店;宾馆酒店,100100,B000A810MV,住宿服务,宾馆酒店,宾馆酒店,
116.2738163008462,39.927724335154494,速8酒店(北京海淀五路居地铁站店),永安东里3号楼5层,北京市,北京市,,住宿服务;宾馆酒店;经济型连锁酒店,100105,B0FFKXO48T,住宿服务,宾馆酒店,经济型连锁酒店,
116.26964010269589,39.91666806905875,鸿府宾馆(暂停营业),西四环五棵松路北甲8号,北京市,北京市,五棵松,住宿服务;宾馆酒店;宾馆酒店,100100,B000A84IXU,住宿服务,宾馆酒店,宾馆酒店,
116.27128417916184,39.926881030221494,北京设计师的文艺范整家乐福公寓,八里庄62号定慧福里小区,北京市,北京市,,住宿服务;住宿服务相关;住宿服务相关,100000,B0FFHVEW7U,住宿服务,住宿服务相关,住宿服务相关,
116.28055810255304,39.93185611680766,北京琨御府短租公寓(7号店),玲珑路9号院-7号楼(东区),北京市,北京市,,住宿服务;住宿服务相关;住宿服务相关,100000,B0FFIG3QHW,住宿服务,住宿服务相关,住宿服务相关,
116.27375478315241,39.95648025536758,北京海淀永泰福朋喜来登酒店及服务公寓,远大路25号1座,北京市,北京市,世纪城,住宿服务;宾馆酒店;五星级宾馆,100102,B000A81FF6,住宿服务,宾馆酒店,五星级宾馆,
116.2827593464436,39.92012668215893,锦江之星酒店(北京西钓鱼台地铁站店),阜成路八宝庄小区40号楼,北京市,北京市,五棵松,住宿服务;宾馆酒店;经济型连锁酒店,100105,B0FFGTQ66A,住宿服务,宾馆酒店,经济型连锁酒店,
116.28371191348143,39.91999438476269,百时快捷酒店(北京西钓鱼台地铁站店),八宝庄小区36号楼对面,北京市,北京市,五棵松,住宿服务;宾馆酒店;经济型连锁酒店,100105,B0FFFAH5Z4,住宿服务,宾馆酒店,经济型连锁酒店,
116.2860763000661,39.91099242720639,万寿宾馆A座,万寿路甲12号,北京市,北京市,五棵松,住宿服务;宾馆酒店;四星级宾馆,100103,B000A8U9WO,住宿服务,宾馆酒店,四星级宾馆,
116.25427209626217,39.9277901900294,橡胶院招待所,双槐树路与田村路交叉口东南50米,北京市,北京市,,住宿服务;旅馆招待所;旅馆招待所,100200,B0FFIRVT15,住宿服务,旅馆招待所,旅馆招待所,
116.25531626165346,39.91619021978782,汉庭酒店(北京永定路新店),金沟河路10号院1号综合楼,北京市,北京市,,住宿服务;宾馆酒店;经济型连锁酒店,100105,B0FFHTNRLN,住宿服务,宾馆酒店,经济型连锁酒店,
116.25359425119069,39.91971579168953,和和快捷酒店,采石北路玉海园五里20号楼,北京市,北京市,,住宿服务;宾馆酒店;宾馆酒店,100100,B000A85T04,住宿服务,宾馆酒店,宾馆酒店,
116.28184253612177,39.92151885495541,北京小布丁家庭宾馆,定慧寺定慧东里13号楼3单元,北京市,北京市,五棵松,住宿服务;住宿服务相关;住宿服务相关,100000,B0FFH6K60V,住宿服务,住宿服务相关,住宿服务相关,
116.29172455449888,39.93539988170917,临水居宾馆,北洼西里48号院,北京市,北京市,,住宿服务;宾馆酒店;宾馆酒店,100100,B0FFG2NA5T,住宿服务,宾馆酒店,宾馆酒店,
116.2582881102769,39.916747697686766,安德宾馆(五棵松店),金沟河路15号(永定路与金沟河路交叉路口西北角),北京市,北京市,,住宿服务;宾馆酒店;宾馆酒店,100100,B0FFFAH293,住宿服务,宾馆酒店,宾馆酒店,
116.27678934735525,39.914509502142145,汉庭酒店(北京五棵松体育馆店),西翠路17号院24号楼(近五棵松体育馆),北京市,北京市,五棵松,住宿服务;宾馆酒店;经济型连锁酒店,100105,B0FFH97MK5,住宿服务,宾馆酒店,经济型连锁酒店,
116.27094342318073,39.92774733713535,北京定慧寺服务公寓(西八里庄路分店),八里庄路62号院定慧福里小区1号楼,北京市,北京市,,住宿服务;住宿服务相关;住宿服务相关,100000,B0FFJIL0HA,住宿服务,住宿服务相关,住宿服务相关,
116.25822594072409,39.91832866620673,北京23号快捷酒店,永定路23号1号楼(糖业烟酒公司院内),北京市,北京市,,住宿服务;住宿服务相关;住宿服务相关,100000,B0FFIL0CKF,住宿服务,住宿服务相关,住宿服务相关,
116.27994736667601,39.92061936175666,北京雪松家庭旅馆,西翠路定慧寺东里内,北京市,北京市,五棵松,住宿服务;旅馆招待所;旅馆招待所,100200,B0FFG2NBE4,住宿服务,旅馆招待所,旅馆招待所,
116.26858598060237,39.949706722246134,信远酒店,常青园中街,北京市,北京市,,住宿服务;宾馆酒店;宾馆酒店,100100,B0G39RQT79,住宿服务,宾馆酒店,宾馆酒店,
116.29226214352721,39.93887989128748,大友宾馆(车道沟店),车道沟南路B座商业楼,北京市,北京市,,住宿服务;宾馆酒店;宾馆酒店,100100,B000A8VYN5,住宿服务,宾馆酒店,宾馆酒店,
116.27311747542683,39.916640548390625,康缘快捷酒店,金沟河东路金和嘉园9号院8号楼,北京市,北京市,五棵松,住宿服务;宾馆酒店;宾馆酒店,100100,B0FFFAJ3YH,住宿服务,宾馆酒店,宾馆酒店,
116.26354074906551,39.92801379996231,白领公寓,田村路甲11号院,北京市,北京市,,住宿服务;住宿服务相关;住宿服务相关,100000,B000A85V6C,住宿服务,住宿服务相关,住宿服务相关,
116.28476312381827,39.92121086818427,北京小巩家庭旅馆,阜成路八宝庄小区34号楼,北京市,北京市,五棵松,住宿服务;旅馆招待所;旅馆招待所,100200,B0FFFXTGSV,住宿服务,旅馆招待所,旅馆招待所,
116.27500404681965,39.95063410088646,域见文旅,板井路69号世纪金源国际公寓东区商务中心二层,北京市,北京市,世纪城,住宿服务;住宿服务相关;住宿服务相关,100000,B0FFKRV2BI,住宿服务,住宿服务相关,住宿服务相关,
116.24581237784847,39.93547001475697,北京厚德载物周家公寓,椿楸嘉园,北京市,北京市,,住宿服务;住宿服务相关;住宿服务相关,100000,B0FFK2CO3Q,住宿服务,住宿服务相关,住宿服务相关,
116.27509392496334,39.95074499495926,世纪金源酒店集团,板井路69号金源商务楼二层,北京市,北京市,四季青,住宿服务;住宿服务相关;住宿服务相关,100000,B0FFL7O6F4,住宿服务,住宿服务相关,住宿服务相关,
116.28476401794701,39.92204683226864,家温家庭旅馆,阜成路八宝庄35号楼,北京市,北京市,五棵松,住宿服务;旅馆招待所;旅馆招待所,100200,B0FFLJ1VAV,住宿服务,旅馆招待所,旅馆招待所,
116.28393546600844,39.92081504131707,北京肿瘤医院舒适家庭旅馆,[],北京市,北京市,五棵松,住宿服务;住宿服务相关;住宿服务相关,100000,B0FFHRBRKZ,住宿服务,住宿服务相关,住宿服务相关,
116.28316275082454,39.92001313811165,康泰短租公寓(阜成路店),阜成路52号院6号,北京市,北京市,五棵松,住宿服务;宾馆酒店;经济型连锁酒店,100105,B0FFH505IS,住宿服务,宾馆酒店,经济型连锁酒店,
116.29057077926122,39.918128393773564,梦桃源,翠微路,北京市,北京市,五棵松,住宿服务;宾馆酒店;宾馆酒店,100100,B0FFHG7RK7,住宿服务,宾馆酒店,宾馆酒店,
116.28646809653057,39.923516333798354,huashengmi的民宿(航天桥店),阜成路95号院,北京市,北京市,五棵松,住宿服务;旅馆招待所;旅馆招待所,100200,B0FFK6L673,住宿服务,旅馆招待所,旅馆招待所,
116.2815061994855,39.92014935747657,定慧戴纳酒店式公寓,定慧寺东16号楼101室/定慧东街,北京市,北京市,五棵松,住宿服务;旅馆招待所;旅馆招待所,100200,B0FFFGWX70,住宿服务,旅馆招待所,旅馆招待所,
116.28462642283367,39.92054008834396,悦客之家,阜成路八宝庄小区35号楼,北京市,北京市,五棵松,住宿服务;住宿服务相关;住宿服务相关,100000,B0FFK5Q45S,住宿服务,住宿服务相关,住宿服务相关,
116.24500762735767,39.932135210799544,北京kurt公寓旱河路店,田村旱河路阜石路交叉口碧森里,北京市,北京市,,住宿服务;住宿服务相关;住宿服务相关,100000,B0FFJ5KOGE,住宿服务,住宿服务相关,住宿服务相关,
116.28525538099066,39.920910184185495,北京小何家庭旅馆,"阜成路52号(北京肿瘤医院附近)八宝庄小区27,28号楼",北京市,北京市,五棵松,住宿服务;住宿服务相关;住宿服务相关,100000,B0FFGY4ME9,住宿服务,住宿服务相关,住宿服务相关,
116.25781614260484,39.91810190066503,如家精选酒店(北京五棵松店),永定路23号院,北京市,北京市,,住宿服务;宾馆酒店;经济型连锁酒店,100105,B0FFJOU9TY,住宿服务,宾馆酒店,经济型连锁酒店,
116.28691559062551,39.93767110682875,白银市人民政府驻北京联络处客房部(暂停营业),彰化南路玲珑花园4号楼2单元(西直门及北京展览馆地区),北京市,北京市,,住宿服务;住宿服务相关;住宿服务相关,100000,B0FFHG4IW7,住宿服务,住宿服务相关,住宿服务相关,
116.28470029863533,39.920603981829856,北京好来屋客栈(万寿庄路北口分店),阜成路八宝庄35号楼(梦想公寓南20米),北京市,北京市,五棵松,住宿服务;住宿服务相关;住宿服务相关,100000,B0FFI2SPNY,住宿服务,住宿服务相关,住宿服务相关,
116.26748738981915,39.91419715338477,叙缘快捷酒店(雅园情店),西四环中路33号,北京市,北京市,,住宿服务;宾馆酒店;宾馆酒店,100100,B000A85RIT,住宿服务,宾馆酒店,宾馆酒店,
116.28192170183712,39.95926623642319,世纪星豪酒店,远大路1号B座5楼(世纪金源购物中心旁),北京市,北京市,世纪城,住宿服务;宾馆酒店;三星级宾馆,100104,B000A9QNOC,住宿服务,宾馆酒店,三星级宾馆,
116.28118460416793,39.920646759937156,北京平安家庭公寓(5号店),定慧东里11号楼,北京市,北京市,五棵松,住宿服务;住宿服务相关;住宿服务相关,100000,B0FFKKN0RA,住宿服务,住宿服务相关,住宿服务相关,
116.28658128766796,39.92050429400846,北京爱宅家庭旅馆,阜成路八宝庄10号楼1单元,北京市,北京市,五棵松,住宿服务;旅馆招待所;旅馆招待所,100200,B0FFFQ1N5X,住宿服务,旅馆招待所,旅馆招待所,
116.28250877012138,39.919743036778705,北京大宝公寓(11号店),八宝庄39号楼,北京市,北京市,五棵松,住宿服务;住宿服务相关;住宿服务相关,100000,B0GKBYE4TE,住宿服务,住宿服务相关,住宿服务相关,
116.28673896733197,39.92899271513481,北京爱生活爱美食的老梁公寓(3号店),八里庄北里17号楼,北京市,北京市,,住宿服务;住宿服务相关;住宿服务相关,100000,B0FFLGMEQF,住宿服务,住宿服务相关,住宿服务相关,
116.28508728138796,39.92384730121909,克子的家公寓(北京阜成路店),阜成路95号院1号楼5单元101,北京市,北京市,,住宿服务;住宿服务相关;住宿服务相关,100000,B0FFKRZTJL,住宿服务,住宿服务相关,住宿服务相关,
116.28942334418178,39.91369234535174,北京富士精选酒店,翠微中里14号楼2层,北京市,北京市,五棵松,住宿服务;宾馆酒店;宾馆酒店,100100,B0FFL5RDB9,住宿服务,宾馆酒店,宾馆酒店,
116.29249681405369,39.9221211987829,裕龙大酒店,阜成路40号空军总医院旁,北京市,北京市,,住宿服务;住宿服务相关;住宿服务相关,100000,B0FFH0CEQ5,住宿服务,住宿服务相关,住宿服务相关,
116.26688906264413,39.91291273044242,大象民宿(北京五棵松店),金沟河2号院912号楼,北京市,北京市,,住宿服务;旅馆招待所;旅馆招待所,100200,B0FFIP6218,住宿服务,旅馆招待所,旅馆招待所,
116.24320218641131,39.91565093768139,北京航天家庭旅馆,玉泉路16号院328号楼,北京市,北京市,石景山,住宿服务;住宿服务相关;住宿服务相关,100000,B0FFIARTVS,住宿服务,住宿服务相关,住宿服务相关,
116.24521411535395,39.92052967034912,北京房友之家公寓,玉泉新城北里A区6栋,北京市,北京市,,住宿服务;住宿服务相关;住宿服务相关,100000,B0FFLGMF41,住宿服务,住宿服务相关,住宿服务相关,
116.28542914400204,39.920585950304805,义薄云天的家公寓(北京20号店),八宝庄28号楼,北京市,北京市,五棵松,住宿服务;住宿服务相关;住宿服务相关,100000,B0FFLMBFF2,住宿服务,住宿服务相关,住宿服务相关,
116.2792896550855,39.95762870947092,金可儿酒店(世纪金源购物中心),远大路1号世纪金源购物中心B1,北京市,北京市,世纪城,住宿服务;宾馆酒店;宾馆酒店,100100,B0FFL04TQA,住宿服务,宾馆酒店,宾馆酒店,
116.24287978106905,39.910020172478085,中科院高能物理研究所专家招待所,玉泉路19号乙,北京市,北京市,石景山,住宿服务;旅馆招待所;旅馆招待所,100200,B000A9FBNM,住宿服务,旅馆招待所,旅馆招待所,
116.28561475907622,39.92128465619004,祝我佳行者无疆公寓(北京阜成路店),八宝庄26号楼,北京市,北京市,五棵松,住宿服务;住宿服务相关;住宿服务相关,100000,B0G2BK8G0J,住宿服务,住宿服务相关,住宿服务相关,
116.26669538260786,39.911647950881466,温馨儿民宿,五棵松路113号院-3号楼(西四环中路41号院),北京市,北京市,,住宿服务;住宿服务相关;住宿服务相关,100000,B0FFKRZT9U,住宿服务,住宿服务相关,住宿服务相关,
116.29016518801376,39.912584255320326,万寿路乙十五号招待所,万寿路乙15号A座5层,北京市,北京市,,住宿服务;旅馆招待所;旅馆招待所,100200,B0FFIOTN30,住宿服务,旅馆招待所,旅馆招待所,
116.27079890263377,39.9571593088248,倪氏温泉休闲酒店,远大路39-2号院,北京市,北京市,世纪城,住宿服务;宾馆酒店;宾馆酒店,100100,B0FFHJ8Z58,住宿服务,宾馆酒店,宾馆酒店,
116.24314228422452,39.92275864189717,玉潭楼,玉泉路7号,北京市,北京市,,住宿服务;宾馆酒店;宾馆酒店,100100,B0FFF57NG2,住宿服务,宾馆酒店,宾馆酒店,
116.2919171668822,39.95965261398748,桔子北京苏州桥酒店,万柳中路29号院3号楼,北京市,北京市,万柳,住宿服务;宾馆酒店;宾馆酒店,100100,B0G3LUIH89,住宿服务,宾馆酒店,宾馆酒店,
116.26683103520993,39.91352575443008,峰泉宾馆,金沟河路2号院910号楼北侧,北京市,北京市,,住宿服务;宾馆酒店;宾馆酒店,100100,B000AAB2BJ,住宿服务,宾馆酒店,宾馆酒店,
116.29237918398498,39.92088243750384,北京裕龙大酒店(紫荆裕龙康乐部),阜成路40号裕龙国际酒店地下1层,北京市,北京市,,住宿服务;住宿服务相关;住宿服务相关,100000,B0FFHLMNRX,住宿服务,住宿服务相关,住宿服务相关,
116.28846426633244,39.91149789001183,龙水山大酒楼C座客房,万寿路,北京市,北京市,五棵松,住宿服务;宾馆酒店;宾馆酒店,100100,B0FFMA2BDH,住宿服务,宾馆酒店,宾馆酒店,
116.28606946500828,39.95773654005314,腾冲高尔夫豪华私家别墅,世纪金源度假村腾吉苑227号,北京市,北京市,世纪城,住宿服务;住宿服务相关;住宿服务相关,100000,B0FFF62DS2,住宿服务,住宿服务相关,住宿服务相关,
116.27195639692808,39.959530042516654,艾小雪公寓(北京宽街分店),金夕园-2号楼,北京市,北京市,世纪城,住宿服务;住宿服务相关;住宿服务相关,100000,B0GK1R1YEL,住宿服务,住宿服务相关,住宿服务相关,
116.24391855181317,39.91443198384118,北京福娃之家公寓,玉泉路15号院709号楼,北京市,北京市,石景山,住宿服务;住宿服务相关;住宿服务相关,100000,B0FFKV6N4F,住宿服务,住宿服务相关,住宿服务相关,
116.26694708109376,39.912370703377796,美美的小家公寓(北京玉渊潭南路西口店),西四环中路41号院1号楼1门,北京市,北京市,,住宿服务;住宿服务相关;住宿服务相关,100000,B0GUDGPVCF,住宿服务,住宿服务相关,住宿服务相关,
116.25251147230978,39.951649904856254,冬雪小栈-菜鸟驿站(德顺圆店),四季青镇西冉村德顺圆东门向东约30米处,北京市,北京市,,住宿服务;住宿服务相关;住宿服务相关,100000,B0GUMY5PEN,住宿服务,住宿服务相关,住宿服务相关,
116.29208772102035,39.92083090247715,裕龙国际酒店-大宴会厅,阜成路40号裕龙大酒店1层(航天桥西侧),北京市,北京市,,住宿服务;住宿服务相关;住宿服务相关,100000,B000A8ZG2C,住宿服务,住宿服务相关,住宿服务相关,
116.24311815986353,39.91564893709583,王小童民宿(北京梁公庵路店),玉泉路11号院3号楼,北京市,北京市,石景山,住宿服务;住宿服务相关;住宿服务相关,100000,B0FFM1O59Y,住宿服务,住宿服务相关,住宿服务相关,
116.28849322115411,39.91146484794167,北京万寿宾馆C座,万寿路甲12号(近1号线万寿路站AB出口),北京市,北京市,五棵松,住宿服务;住宿服务相关;住宿服务相关,100000,B000A9Q769,住宿服务,住宿服务相关,住宿服务相关,
116.29271981390467,39.91087031703747,北京雪儿民宿(公主坟/五棵松/石景山游乐园地区13店),翠微南里社区11号楼翠微南里社区号5-3,北京市,北京市,公主坟,住宿服务;住宿服务相关;住宿服务相关,100000,B0FFKSHJI9,住宿服务,住宿服务相关,住宿服务相关,
116.26648787566876,39.89299395467852,锦江之星酒店(北京五棵松店),西四环中路77号,北京市,北京市,青塔,住宿服务;宾馆酒店;经济型连锁酒店,100105,B0FFG72NIQ,住宿服务,宾馆酒店,经济型连锁酒店,
116.262700878971,39.89933263435095,君颐东方饭店,太平路27号院,北京市,北京市,,住宿服务;宾馆酒店;五星级宾馆,100102,B000A8VRLH,住宿服务,宾馆酒店,五星级宾馆,
116.26732645048254,39.898760967827165,北京亚泰饭店,太平路甲34号,北京市,北京市,,住宿服务;宾馆酒店;五星级宾馆,100102,B000A8VRTT,住宿服务,宾馆酒店,五星级宾馆,
116.26542925350387,39.88872803330845,全季酒店(北京五棵松店),大成路3号,北京市,北京市,青塔,住宿服务;宾馆酒店;经济型连锁酒店,100105,B0FFIRDYO0,住宿服务,宾馆酒店,经济型连锁酒店,
116.2628920291265,39.889075967072664,大成路九号,大成路9号,北京市,北京市,青塔,住宿服务;宾馆酒店;五星级宾馆,100102,B000A7ZBSJ,住宿服务,宾馆酒店,五星级宾馆,
116.25931757852152,39.901114777496886,四环招待所,永定路100号(永定路与北太平路交汇处南150米处),北京市,北京市,,住宿服务;宾馆酒店;三星级宾馆,100104,B000A798ED,住宿服务,宾馆酒店,三星级宾馆,
116.26653964015051,39.89454383942335,青塔招待所,西四环中路71号,北京市,北京市,郑常庄村,住宿服务;宾馆酒店;宾馆酒店,100100,B000A84OF5,住宿服务,宾馆酒店,宾馆酒店,
116.26391437743666,39.888714225419065,天利酒店,西四环郑常庄大成路7号天利大厦,北京市,北京市,青塔,住宿服务;宾馆酒店;四星级宾馆,100103,B000A8VOS6,住宿服务,宾馆酒店,四星级宾馆,
116.25923975308473,39.908058519388874,北京长峰假日酒店,永定路66号,北京市,北京市,,住宿服务;宾馆酒店;四星级宾馆,100103,B000A7C1AE,住宿服务,宾馆酒店,四星级宾馆,
