lon,lat,name,address,pname,cityname,business_area,type,typecode,id,type1,type2,type3,type4
116.08161534918352,40.08108422102636,开心工作室,海淀区苏家坨镇大西山书院村2-2,北京市,北京市,,医疗保健服务;诊所;诊所,090300,B0GRAU4YB1,医疗保健服务,诊所,诊所,
116.08496639301548,40.09510791028472,苏家坨镇车耳营社区卫生服务站,苏家坨镇车耳营路2号,北京市,北京市,,医疗保健服务;综合医院;卫生院,090102,B000A9Q4XO,医疗保健服务,综合医院,卫生院,
116.09085954763083,40.080887822653864,国科健康院,,北京市,北京市,,医疗保健服务;医疗保健服务场所;医疗保健服务场所,090000,B0G0775SFX,医疗保健服务,医疗保健服务场所,医疗保健服务场所,
116.08102026766268,39.981719597460106,龙泉雾医务室,S209(石担路),北京市,北京市,龙泉,医疗保健服务;诊所;诊所,090300,B0G23AA21M,医疗保健服务,诊所,诊所,
116.08013394399019,39.97007552027066,琉璃渠村医务室,琉璃渠大街(琉璃渠小学西北侧约200米),北京市,北京市,龙泉,医疗保健服务;诊所;诊所,090300,B0FFL98TUF,医疗保健服务,诊所,诊所,
116.08687710895289,39.99824978314192,军庄镇社区卫生服务中心,京拉线(白楼小区东北侧约200米),北京市,北京市,军庄镇,医疗保健服务;综合医院;卫生院,090102,B000A7PQDH,医疗保健服务,综合医院,卫生院,
116.08414530317246,40.0026983933147,北京市门头沟区军庄镇灰峪村卫生室,军庄镇灰峪村,北京市,北京市,军庄镇,医疗保健服务;诊所;诊所,090300,B0FFJRW46B,医疗保健服务,诊所,诊所,
116.09092898087036,39.93806261507697,北京京煤集团总医院,黑山大街18号,北京市,北京市,门头沟,医疗保健服务;综合医院;综合医院,090100,B000A7I0XV,医疗保健服务,综合医院,综合医院,
116.0816843720896,39.94124987851616,北京市门头沟区龙泉医院,门头沟路42号,北京市,北京市,门头沟,医疗保健服务;综合医院;综合医院,090100,B000A07F25,医疗保健服务,综合医院,综合医院,
116.055431384535,39.92807100058188,北京市门头沟区医院,圈门外大街73号,北京市,北京市,门头沟,医疗保健服务;综合医院;综合医院,090100,B0FFKXFPPJ,医疗保健服务,综合医院,综合医院,
116.07323849362369,39.94195838911105,门矿医院防保科,龙门居住区西三区B9南区,北京市,北京市,东辛房村,医疗保健服务;综合医院;卫生院,090102,B0FFM0NUFF,医疗保健服务,综合医院,卫生院,
116.0732454895119,39.941956383272526,东辛房社区卫生服务中心,龙门居住区西三区B9南区,北京市,北京市,东辛房村,医疗保健服务;综合医院;卫生院,090102,B0FFM0O3O4,医疗保健服务,综合医院,卫生院,
116.05858213342728,39.93129897199588,博松益康平价药店,惠泽家园20,北京市,北京市,门头沟,医疗保健服务;医药保健销售店;药房,090601,B0FFFPWKTV,医疗保健服务,医药保健销售店,药房,
116.09005078048132,39.93710571684084,京煤集团总医院发热门诊,黑山大街18号,北京市,北京市,大峪村,医疗保健服务;综合医院;综合医院,090100,B0G0R9EJ5J,医疗保健服务,综合医院,综合医院,
116.0730573593354,39.94389046680868,全民体质健康科普体验厅,和平街,北京市,北京市,龙泉,医疗保健服务;医疗保健服务场所;医疗保健服务场所,090000,B0FFM522LB,医疗保健服务,医疗保健服务场所,医疗保健服务场所,
116.08860617802812,39.938393844675,北京医保中洋大药房(新桥分店),惠民家园二区26号楼底商104-2号,北京市,北京市,门头沟,医疗保健服务;医药保健销售店;药房,090601,B000A8XEA4,医疗保健服务,医药保健销售店,药房,
116.0853237830252,39.91382359559316,国家心血管病中心,永定镇冯村西里,北京市,北京市,门头沟,医疗保健服务;医疗保健服务场所;医疗保健服务场所,090000,B0FFFR11FM,医疗保健服务,医疗保健服务场所,医疗保健服务场所,
116.07521139238662,39.94181081330283,达慧堂药房(第五十五分店),和平街龙门居住区西三区B9南区,北京市,北京市,龙泉,医疗保健服务;医药保健销售店;药房,090601,B0HBXUS3DI,医疗保健服务,医药保健销售店,药房,
116.08857863771166,39.942542685012704,北京京煤集团总医院门矿医院,门头沟路10号,北京市,北京市,龙泉,医疗保健服务;综合医院;综合医院,090100,B0FFK300IJ,医疗保健服务,综合医院,综合医院,
116.08144805284417,39.92843450126393,中门花园社区卫生服务站,中门寺南路与中门寺街交叉路口往南约100米,北京市,北京市,门头沟,医疗保健服务;诊所;诊所,090300,B0FFM4C1EN,医疗保健服务,诊所,诊所,
116.07796592676185,39.94397681295001,北京旺妙动物医院,龙门二区西侧底商1号,北京市,北京市,龙泉,医疗保健服务;动物医疗场所;宠物诊所,090701,B0HADGBNGF,医疗保健服务,动物医疗场所,宠物诊所,
116.0844356066152,39.93821788839928,就好生活宣传中心,增产路43号附近,北京市,北京市,门头沟,医疗保健服务;医疗保健服务场所;医疗保健服务场所,090000,B0FFL69LXS,医疗保健服务,医疗保健服务场所,医疗保健服务场所,
116.08592509385265,39.93518754949203,养生堂药店(中门寺店),中门寺街8号院3号楼1层101,北京市,北京市,门头沟,医疗保健服务;医药保健销售店;药房,090601,B0FFHXQUCA,医疗保健服务,医药保健销售店,药房,
116.08252203039947,39.94318042829903,京明口腔,龙泉镇龙门新区二区B4地段商铺8号楼底商7门,北京市,北京市,龙泉,医疗保健服务;专科医院;口腔医院,090202,B0FFJGK974,医疗保健服务,专科医院,口腔医院,
116.08853362760881,39.942530692596826,东辛房社区卫生服务中心,门头沟路10号,北京市,北京市,门头沟,医疗保健服务;综合医院;卫生院,090102,B0FFLG4760,医疗保健服务,综合医院,卫生院,
116.08988868805255,39.937397720738836,核酸检测门诊,[],北京市,北京市,大峪村,医疗保健服务;诊所;诊所,090300,B0G30CJFD1,医疗保健服务,诊所,诊所,
116.08809211688974,39.937881950916214,仁源之家(门头沟店),黑山一西街46排8号附近,北京市,北京市,门头沟,医疗保健服务;医疗保健服务场所;医疗保健服务场所,090000,B0FFL79LRQ,医疗保健服务,医疗保健服务场所,医疗保健服务场所,
116.08814959015157,39.93430308307371,安无忧(龙山里分店),大峪村黑山地块A2-3一层103号,北京市,北京市,大峪村,医疗保健服务;医药保健销售店;药房,090601,B0G1SRBE8K,医疗保健服务,医药保健销售店,药房,
116.07784892696192,39.94429787466923,弘济药店(福源路店),福源路石泉小区,北京市,北京市,龙泉,医疗保健服务;医药保健销售店;药房,090601,B0FFFXJOM0,医疗保健服务,医药保健销售店,药房,
116.0892905045476,39.93734878986718,周林频谱,黑山一西街4排6号附近,北京市,北京市,门头沟,医疗保健服务;医药保健销售店;医疗保健用品,090602,B0FFK7P9CX,医疗保健服务,医药保健销售店,医疗保健用品,
116.08594610937871,39.935084547824836,惠民口腔,中门寺街龙山家园二区中门寺街8号院3号楼,北京市,北京市,大峪村,医疗保健服务;专科医院;口腔医院,090202,B0FFIUQJP2,医疗保健服务,专科医院,口腔医院,
116.09004895982713,39.935704772687195,老北京修脚(门头沟总店),大峪二小路与黑山大街交叉路口西南侧,北京市,北京市,大峪村,医疗保健服务;医疗保健服务场所;医疗保健服务场所,090000,B0G3XCFJB7,医疗保健服务,医疗保健服务场所,医疗保健服务场所,
116.0900689528281,39.935812766558726,安湃声助听器(门头沟店),惠民家园2区32号楼1-2层104-1号底商,北京市,北京市,门头沟,医疗保健服务;医药保健销售店;医疗保健用品,090602,B0FFMHHPWQ,医疗保健服务,医药保健销售店,医疗保健用品,
116.08994399895018,39.94290549758409,艾灸堂,桥西街(中昂时代),北京市,北京市,门头沟,医疗保健服务;医疗保健服务场所;医疗保健服务场所,090000,B0FFLA7LBN,医疗保健服务,医疗保健服务场所,医疗保健服务场所,
116.08868021926115,39.93822483995942,皓月医疗器械(黑山大街),增产路与黑山北小街交叉口东南150米,北京市,北京市,门头沟,医疗保健服务;医药保健销售店;医疗保健用品,090602,B0FFFA2JM0,医疗保健服务,医药保健销售店,医疗保健用品,
116.09070626587297,39.94295743465162,欢乐童年小儿推拿,大峪街道中昂广场3号楼麦当劳后面1012,北京市,北京市,门头沟,医疗保健服务;医疗保健服务场所;医疗保健服务场所,090000,B0FFLHKL6R,医疗保健服务,医疗保健服务场所,医疗保健服务场所,
116.09033412153671,39.93522576729047,四季颐和健康管理中心,大峪二小路与黑山大街交叉路口南侧,北京市,北京市,门头沟,医疗保健服务;医药保健销售店;医疗保健用品,090602,B0G3LPEU35,医疗保健服务,医药保健销售店,医疗保健用品,
116.08975793200854,39.942945514755124,三道和中医小儿推拿,中昂时代4号楼1203,北京市,北京市,门头沟,医疗保健服务;医药保健销售店;医疗保健用品,090602,B0HAZH73B7,医疗保健服务,医药保健销售店,医疗保健用品,
116.09196370651763,39.93581267265859,景康平价大药房,大峪二小路与黑山大街交叉路口往东约100米,北京市,北京市,门头沟,医疗保健服务;医药保健销售店;药房,090601,B0FFM8XC8F,医疗保健服务,医药保健销售店,药房,
116.08938309345143,39.94076664311878,帅贝贝动物医院,惠民家园1区1号楼1层,北京市,北京市,门头沟,医疗保健服务;动物医疗场所;宠物诊所,090701,B000A9TARA,医疗保健服务,动物医疗场所,宠物诊所,
116.08859153299105,39.9433836498526,金象大药房(门头沟店),门头沟路11号院中昂时代广场5号楼底商,北京市,北京市,门头沟,医疗保健服务;医药保健销售店;药房,090601,B0FFJZ2RFJ,医疗保健服务,医药保健销售店,药房,
116.08868421402742,39.938273837408346,口腔诊所,增产路与黑山北小街交叉口东南150米,北京市,北京市,门头沟,医疗保健服务;专科医院;口腔医院,090202,B0FFH7TE8H,医疗保健服务,专科医院,口腔医院,
116.0918517467047,39.92732201428131,医保中洋大药房,龙泉镇,北京市,北京市,门头沟,医疗保健服务;医药保健销售店;药房,090601,B0FFJZJABU,医疗保健服务,医药保健销售店,药房,
116.08547003935665,39.91191563249272,北京市门头沟区环境卫生服务中心,增产路,北京市,北京市,,医疗保健服务;综合医院;卫生院,090102,B000A8XKN9,医疗保健服务,综合医院,卫生院,
116.08780728096222,39.88936206397642,北京希福蜂顺蜂产品消售中心,[],北京市,北京市,,医疗保健服务;医疗保健服务场所;医疗保健服务场所,090000,B0FFHZTI5I,医疗保健服务,医疗保健服务场所,医疗保健服务场所,
116.12322842731082,40.12809856030213,门诊部,后二路,北京市,北京市,阳坊村,医疗保健服务;诊所;诊所,090300,B0FFL54VBN,医疗保健服务,诊所,诊所,
116.11780156281962,40.125655804093476,鑫玉盛康源药店,聂各庄路(后白虎涧村村委会东南侧约50米),北京市,北京市,阳坊村,医疗保健服务;医药保健销售店;药房,090601,B0FFL921UE,医疗保健服务,医药保健销售店,药房,
116.13406214753822,40.13529342713836,艾草堂,阳坊镇温南路西贯市商业街南临47号,北京市,北京市,阳坊村,医疗保健服务;医疗保健服务场所;医疗保健服务场所,090000,B0G1SA9CAT,医疗保健服务,医疗保健服务场所,医疗保健服务场所,
116.11550157956658,40.126017532184896,北京市昌平区阳坊镇后白虎涧村卫生室,阳坊镇后白虎涧村聂各庄路电话机房北侧平房,北京市,北京市,阳坊村,医疗保健服务;诊所;诊所,090300,B0FFJK0943,医疗保健服务,诊所,诊所,
116.13505958205894,40.134803967110855,金象大药房(阳坊店),西贯市村西一巷一号,北京市,北京市,阳坊村,医疗保健服务;医药保健销售店;药房,090601,B000A7PM8R,医疗保健服务,医药保健销售店,药房,
116.13381293013776,40.1401925759884,北京惠春中医诊所,温南路294附近,北京市,北京市,阳坊,医疗保健服务;诊所;诊所,090300,B0FFJOTUTX,医疗保健服务,诊所,诊所,
116.13788705226756,40.137982011349095,颐瑞口腔诊所,阳坊镇西贯市商业街57号,北京市,北京市,阳坊村,医疗保健服务;专科医院;口腔医院,090202,B0G2L4KLN3,医疗保健服务,专科医院,口腔医院,
116.13554218964167,40.13909027823901,汉方道口腔科,阳坊村西大街57号附近,北京市,北京市,阳坊村,医疗保健服务;专科医院;口腔医院,090202,B0FFHENNVJ,医疗保健服务,专科医院,口腔医院,
116.13886334405234,40.13902445180243,大槐树诊所,中顺街28号,北京市,北京市,阳坊,医疗保健服务;诊所;诊所,090300,B000A9Q5SL,医疗保健服务,诊所,诊所,
116.13549306980333,40.13910320235935,汉方道医馆,阳坊村西大街12附近,北京市,北京市,阳坊村,医疗保健服务;诊所;诊所,090300,B0FFIXDZB0,医疗保健服务,诊所,诊所,
116.1355987293196,40.13594767280089,福喜修脚(四分店),西贯市村北街与西贯市村横街交叉口西150米,北京市,北京市,阳坊,医疗保健服务;医疗保健服务场所;医疗保健服务场所,090000,B0FFJOFNQN,医疗保健服务,医疗保健服务场所,医疗保健服务场所,
116.13725169718856,40.13634717783985,北京崔保山诊所,阳坊村西大街,北京市,北京市,阳坊,医疗保健服务;诊所;诊所,090300,B0FFL54VWY,医疗保健服务,诊所,诊所,
116.13729380517421,40.13631124692961,北京惠仁诊所,阳坊村西大街,北京市,北京市,阳坊,医疗保健服务;诊所;诊所,090300,B0G2M103TK,医疗保健服务,诊所,诊所,
116.13581081334766,40.139275668759694,汉方道门诊部,阳坊村西大街1号,北京市,北京市,阳坊村,医疗保健服务;诊所;诊所,090300,B000A9Q5UJ,医疗保健服务,诊所,诊所,
116.13484492680153,40.13591253655661,金象大药房(学院路店),温南路附近,北京市,北京市,阳坊村,医疗保健服务;医药保健销售店;药房,090601,B0FFI655TJ,医疗保健服务,医药保健销售店,药房,
116.13512011448825,40.139572591117805,头疗养生馆,[],北京市,北京市,阳坊村,医疗保健服务;医疗保健服务场所;医疗保健服务场所,090000,B0HBOAKAND,医疗保健服务,医疗保健服务场所,医疗保健服务场所,
116.13633650950263,40.13598079753491,阳坊牙科,西贯市村临11号,北京市,北京市,阳坊村,医疗保健服务;医疗保健服务场所;医疗保健服务场所,090000,B0FFL8OKVJ,医疗保健服务,医疗保健服务场所,医疗保健服务场所,
116.1339020947888,40.14054667251793,北京市昌平区阳坊镇卫生院,阳坊镇中心北街13号,北京市,北京市,,医疗保健服务;综合医院;卫生院,090102,B0FFGT35B5,医疗保健服务,综合医院,卫生院,
116.13642370599652,40.13610091996634,北京优乐诊所,西贯市村商业街临11号,北京市,北京市,阳坊,医疗保健服务;医疗保健服务场所;医疗保健服务场所,090000,B0FFL0CYB2,医疗保健服务,医疗保健服务场所,医疗保健服务场所,
116.13644476323314,40.13605395694845,优乐口腔,西贯市村商业街临11号,北京市,北京市,阳坊村,医疗保健服务;专科医院;口腔医院,090202,B0FFL0K6BG,医疗保健服务,专科医院,口腔医院,
116.13780686084306,40.13792989058938,颐瑞诊所,阳坊镇西贯市商业街57号,北京市,北京市,阳坊村,医疗保健服务;诊所;诊所,090300,B0GDCR7OIR,医疗保健服务,诊所,诊所,
116.13824777302108,40.1393264463234,太阳神,中顺街与阳坊村西大街交叉口西北50米,北京市,北京市,阳坊,医疗保健服务;医疗保健服务场所;医疗保健服务场所,090000,B0FFIAXY7E,医疗保健服务,医疗保健服务场所,医疗保健服务场所,
116.1382809825816,40.138335596881454,双林门诊,阳坊镇阳坊西大街5号(新世纪商城对面),北京市,北京市,阳坊村,医疗保健服务;诊所;诊所,090300,B0GRO76PLW,医疗保健服务,诊所,诊所,
116.13849657791404,40.13787098359239,北京皓康堂诊所,阳坊镇西贯市村北街6号,北京市,北京市,阳坊,医疗保健服务;诊所;诊所,090300,B0HB1CGKZ8,医疗保健服务,诊所,诊所,
116.133474312071,40.14658942408317,北京市昌平区阳坊镇动物卫生防疫站,阳坊村中心北街4号附近,北京市,北京市,阳坊村,医疗保健服务;疾病预防机构;疾病预防,090500,B0FFHCA902,医疗保健服务,疾病预防机构,疾病预防,
116.13782000082244,40.13709199348632,福喜修脚(三分店),西河滩街38号附近,北京市,北京市,阳坊村,医疗保健服务;医疗保健服务场所;医疗保健服务场所,090000,B0FFL5CL6O,医疗保健服务,医疗保健服务场所,医疗保健服务场所,
116.1379913863507,40.1373892336204,伦易全球购通经络,阳坊村西大街,北京市,北京市,阳坊,医疗保健服务;医疗保健服务场所;医疗保健服务场所,090000,B0G17CWJMN,医疗保健服务,医疗保健服务场所,医疗保健服务场所,
116.1372244256952,40.137940979246096,亿健蜂产品(阳坊店),西河滩街与西贯市村北街交叉口北150米,北京市,北京市,阳坊村,医疗保健服务;医药保健销售店;医疗保健用品,090602,B0FFJOFNQX,医疗保健服务,医药保健销售店,医疗保健用品,
116.13375779930375,40.14020049370582,北京风云巨鼎平价大药房,温南路与祥和路交叉口西北100米,北京市,北京市,阳坊,医疗保健服务;医药保健销售店;药房,090601,B0FFFVAE5X,医疗保健服务,医药保健销售店,药房,
116.1388676457348,40.13675668187558,晓成太极针灸馆,西河滩街13号附近,北京市,北京市,阳坊,医疗保健服务;医疗保健服务场所;医疗保健服务场所,090000,B0FFHWND5Z,医疗保健服务,医疗保健服务场所,医疗保健服务场所,
116.10096083018726,40.12337614182587,北京市红十字会999急救中心阳坊急救站,后二路北50米,北京市,北京市,,医疗保健服务;急救中心;急救中心,090400,B0FFFS7YS2,医疗保健服务,急救中心,急救中心,
116.13367153405788,40.140685317815795,北京市昌平区阳坊社区卫生服务中心-门诊楼,温南路与阳坊村西大街交叉路口往东南约50米,北京市,北京市,阳坊,医疗保健服务;医疗保健服务场所;医疗保健服务场所,090000,B0FFMEE50N,医疗保健服务,医疗保健服务场所,医疗保健服务场所,
116.13628794803664,40.13943538323924,北京鑫玉盛康源大药房,阳坊村西大街3号,北京市,北京市,阳坊村,医疗保健服务;医药保健销售店;药房,090601,B000A7RIX3,医疗保健服务,医药保健销售店,药房,
116.13737699682798,40.13641036696227,黑玛国际24小时成人用品自助店,西贯市村北街与西贯市村横街交叉口东北50米,北京市,北京市,阳坊村,医疗保健服务;医药保健销售店;医疗保健用品,090602,B0FFJOFOM8,医疗保健服务,医药保健销售店,医疗保健用品,
116.13850545823504,40.138975888517315,宋京方膏体验馆,S218(温南路),北京市,北京市,阳坊村,医疗保健服务;医药保健销售店;医疗保健用品,090602,B0FFL818K1,医疗保健服务,医药保健销售店,医疗保健用品,
116.14053590450345,40.13630640812121,宝树堂大药房,东河滩街与西河滩街交叉口北50米,北京市,北京市,阳坊村,医疗保健服务;医药保健销售店;药房,090601,B0FFKTF193,医疗保健服务,医药保健销售店,药房,
116.14186216437182,40.11388761018022,后沙涧社区卫生服务站,苏家坨镇后沙涧村温阳路,北京市,北京市,,医疗保健服务;综合医院;卫生院,090102,B0FFJIJ2DU,医疗保健服务,综合医院,卫生院,
116.1117589167394,40.11647013151409,鑫玉盛康源大药房(前白分店),北安河路西50米,北京市,北京市,,医疗保健服务;医药保健销售店;药房,090601,B000A7R5JW,医疗保健服务,医药保健销售店,药房,
116.11530276392875,40.08324674172475,西埠头社区卫生服务站,河路38号,北京市,北京市,,医疗保健服务;综合医院;卫生院,090102,B000A95CIF,医疗保健服务,综合医院,卫生院,
116.11480946965405,40.07925255930747,北京安河民康堂药房,苏家坨镇草厂村361号,北京市,北京市,,医疗保健服务;医药保健销售店;药房,090601,B0G3VLF429,医疗保健服务,医药保健销售店,药房,
116.11388840427333,40.07603094997812,口腔科诊所,北安河路34附近,北京市,北京市,,医疗保健服务;专科医院;口腔医院,090202,B0FFLHNDO3,医疗保健服务,专科医院,口腔医院,
116.11461978498187,40.089939647785634,北京市海淀区爱丽斯残疾人康复中心,北安河路甲71号,北京市,北京市,,医疗保健服务;医疗保健服务场所;医疗保健服务场所,090000,B0FFIKB9B6,医疗保健服务,医疗保健服务场所,医疗保健服务场所,
116.11459135477067,40.077395485141054,小儿推拿,[],北京市,北京市,,医疗保健服务;医疗保健服务场所;医疗保健服务场所,090000,B0HBA5MXKB,医疗保健服务,医疗保健服务场所,医疗保健服务场所,
116.11380827386168,40.07605787811947,中西医门诊,苏家坨镇草厂村190号平房,北京市,北京市,,医疗保健服务;诊所;诊所,090300,B0G3C46AJO,医疗保健服务,诊所,诊所,
116.11364707374464,40.075635765367096,苏家坨镇草场村卫生室,北安河路36号,北京市,北京市,,医疗保健服务;诊所;诊所,090300,B000A882ES,医疗保健服务,诊所,诊所,
116.11389842428764,40.075998960851145,北京丁喜才诊所,坨草厂村190号,北京市,北京市,,医疗保健服务;医疗保健服务场所;医疗保健服务场所,090000,B0FFK4HZAZ,医疗保健服务,医疗保健服务场所,医疗保健服务场所,
116.1148094692671,40.07925555910677,药店,苏家坨镇草厂村苏家坨镇草厂村361号,北京市,北京市,,医疗保健服务;医药保健销售店;药房,090601,B000A87VRH,医疗保健服务,医药保健销售店,药房,
116.13342946675405,40.08224282429494,柳林村社区卫生服务站,北部新区苏家坨艺术幼儿园西,北京市,北京市,,医疗保健服务;综合医院;卫生院,090102,B0FFKHZJP4,医疗保健服务,综合医院,卫生院,
116.11474256338435,40.077679603073456,北京杨剑诊所,苏家坨镇北安河路草厂村346号,北京市,北京市,,医疗保健服务;诊所;诊所,090300,B000A8XM8W,医疗保健服务,诊所,诊所,
116.11950163774621,40.07114973237888,平价药房,通和路(安河家园三里),北京市,北京市,,医疗保健服务;医药保健销售店;药房,090601,B0HB3A6F28,医疗保健服务,医药保健销售店,药房,
116.11173049446249,40.103916139953895,北京市海淀区聂各庄卫生院,聂各庄路26号,北京市,北京市,,医疗保健服务;综合医院;卫生院,090102,B000A882H7,医疗保健服务,综合医院,卫生院,
116.13197748158777,40.102648228658516,同泽园社区卫生服务站,后沙涧路西50米,北京市,北京市,,医疗保健服务;综合医院;卫生院,090102,B0FFG83VGU,医疗保健服务,综合医院,卫生院,
116.12683829973756,40.07009449241041,天保堂平价大药房,苏家坨镇安河家园六里10号楼一层106,北京市,北京市,,医疗保健服务;医药保健销售店;药房,090601,B0H617RV9O,医疗保健服务,医药保健销售店,药房,
116.11100504795803,40.0991159429243,薛氏,[],北京市,北京市,,医疗保健服务;医疗保健服务场所;医疗保健服务场所,090000,B0H655OA6U,医疗保健服务,医疗保健服务场所,医疗保健服务场所,
116.13844325182657,40.100379169808846,李苗牙科,苏家坨凤仪佳苑八里南门底商李苗牙科,北京市,北京市,,医疗保健服务;专科医院;口腔医院,090202,B0G297Q88T,医疗保健服务,专科医院,口腔医院,
116.11155819483957,40.10425897600896,嘉事堂药店(聂各庄路店),聂各庄路24号,北京市,北京市,,医疗保健服务;医药保健销售店;药房,090601,B000A882H9,医疗保健服务,医药保健销售店,药房,
116.13320115101428,40.10393390079862,宠到家动物诊所,苏家坨镇同泽园东里102-1(稻香村旁),北京市,北京市,,医疗保健服务;动物医疗场所;宠物诊所,090701,B0FFL029GL,医疗保健服务,动物医疗场所,宠物诊所,
116.11185041012543,40.10595407431614,方之轩养生馆,凤凰岭路与聂各庄路交叉路口东北侧,北京市,北京市,,医疗保健服务;医疗保健服务场所;医疗保健服务场所,090000,B0G0AMRRC4,医疗保健服务,医疗保健服务场所,医疗保健服务场所,
116.13341943532032,40.08230480533638,苏家坨镇柳林社区卫生站,北部新区苏家坨艺术幼儿园西,北京市,北京市,,医疗保健服务;诊所;诊所,090300,B000A9V69E,医疗保健服务,诊所,诊所,
116.13194928258513,40.103694106368806,金象大药房(后沙涧金象店),苏家坨镇同泽园西里1号楼10号,北京市,北京市,,医疗保健服务;医药保健销售店;药房,090601,B0FFFADJGM,医疗保健服务,医药保健销售店,药房,
116.13337154823179,40.103943149870474,铭嘉口腔(苏家坨店),苏家坨镇苏二路同泽园东里3号楼102-1号,北京市,北京市,,医疗保健服务;专科医院;口腔医院,090202,B0FFHOB8XU,医疗保健服务,专科医院,口腔医院,
116.12347277355143,40.06698849240828,北京康益生大药房(安河家园店),苏家坨镇安河家园九里13号楼1层9-,北京市,北京市,,医疗保健服务;医药保健销售店;药房,090601,B0HGK5IRUI,医疗保健服务,医药保健销售店,药房,
116.11182562936105,40.103968211920765,聂各庄社区卫生服务站-预防接种门诊,聂各庄路26号,北京市,北京市,,医疗保健服务;诊所;诊所,090300,B0FFKXF2P3,医疗保健服务,诊所,诊所,
116.11107190723924,40.10871023890645,沪德堂门诊,[],北京市,北京市,,医疗保健服务;诊所;诊所,090300,B0G2UP1T4H,医疗保健服务,诊所,诊所,
116.14015254633085,40.10811129458593,北京妙医堂大药房,苏一路与苏三路交叉口北150米,北京市,北京市,,医疗保健服务;医药保健销售店;药房,090601,B0FFFACQ1T,医疗保健服务,医药保健销售店,药房,
116.11306110020881,40.09936858671606,北京东方红百姓大药房,苏家坨镇聂各庄东路1号,北京市,北京市,,医疗保健服务;医药保健销售店;药房,090601,B000A884R9,医疗保健服务,医药保健销售店,药房,
116.14025394918505,40.106968550713454,苏家坨镇前沙涧社区卫生服务站,苏三路6,北京市,北京市,,医疗保健服务;综合医院;卫生院,090102,B0FFFADL4T,医疗保健服务,综合医院,卫生院,
116.10274139402068,40.06300933414187,北京增年野生动物保护中心,秀峰寺路(北京市第四十七中学西南侧约100米),北京市,北京市,,医疗保健服务;动物医疗场所;宠物诊所,090701,B0FFLAA3BT,医疗保健服务,动物医疗场所,宠物诊所,
116.1400280456919,40.06267126446641,北京市海淀区温泉乡高里掌村卫生室,温泉镇高里掌路高里掌村,北京市,北京市,,医疗保健服务;诊所;诊所,090300,B0FFJJZHKF,医疗保健服务,诊所,诊所,
116.12735063313006,40.052614198513474,卫生服务站,温泉路116号,北京市,北京市,,医疗保健服务;综合医院;卫生院,090102,B000A7VIJV,医疗保健服务,综合医院,卫生院,
116.11748457959438,40.05908237786476,北安河社区卫生服务中心,北安河路22号苏家坨镇政务中心西平房,北京市,北京市,,医疗保健服务;综合医院;卫生院,090102,B0FFL69NZN,医疗保健服务,综合医院,卫生院,
116.13281314276063,40.05013489459352,苏家坨镇新冠疫苗临时接种点,苏家坨镇南安河路1号狂飙乐园会议中心,北京市,北京市,,医疗保健服务;医疗保健服务场所;医疗保健服务场所,090000,B0HACGUM0Y,医疗保健服务,医疗保健服务场所,医疗保健服务场所,
116.11749259255815,40.05909038542468,北京市海淀区北安河社区卫生服务中心(北安河卫生院),北安河路8号,北京市,北京市,,医疗保健服务;综合医院;卫生院,090102,B0FFIPR0NB,医疗保健服务,综合医院,卫生院,
116.11731332518876,40.0587402268083,北安河社区卫生服务站-预防接种门诊,北安河路8号,北京市,北京市,,医疗保健服务;诊所;诊所,090300,B0G3VPCXFF,医疗保健服务,诊所,诊所,
116.11887935199583,40.01005730067376,北京市门头沟区军庄镇孟悟村卫生室,军庄镇孟悟村村委会院内,北京市,北京市,军庄镇,医疗保健服务;诊所;诊所,090300,B0FFJRWHJW,医疗保健服务,诊所,诊所,
116.10288669539706,39.96082415558384,三家店社区卫生服务站(三家店南街),三家店东街56号,北京市,北京市,,医疗保健服务;综合医院;卫生院,090102,B000A85TI8,医疗保健服务,综合医院,卫生院,
116.11714245109039,39.96193051103432,乐乐牙口腔,隆恩寺路17号院2号楼2-22,北京市,北京市,,医疗保健服务;专科医院;口腔医院,090202,B0FFLCVNW3,医疗保健服务,专科医院,口腔医院,
116.11867934945333,39.96825082431009,恒世健康产品(隆恩寺路),隆恩寺路3号院底商,北京市,北京市,,医疗保健服务;医药保健销售店;医疗保健用品,090602,B0FFGK7QOO,医疗保健服务,医药保健销售店,医疗保健用品,
116.11915540215861,39.9667393834929,瑞福安康大药房,隆恩寺路28号院,北京市,北京市,,医疗保健服务;医药保健销售店;药房,090601,B0FFIJYX3X,医疗保健服务,医药保健销售店,药房,
116.10249206049677,39.96259391027086,北京门头沟钟顺珍诊所,三家店村东街89号,北京市,北京市,,医疗保健服务;诊所;诊所,090300,B0FFJRTKKC,医疗保健服务,诊所,诊所,
116.09785868392359,40.003063673306904,北京市门头沟区军庄镇社区卫生服务中心,军庄镇三温路镇政府东100米处,北京市,北京市,军庄镇,医疗保健服务;综合医院;卫生院,090102,B0FFJJY7O7,医疗保健服务,综合医院,卫生院,
116.12119489533329,39.961228824557544,南宫嘉园社区卫生服务站,秀府南路与秀府西街交叉口南100米,北京市,北京市,,医疗保健服务;医疗保健服务场所;医疗保健服务场所,090000,B0FFJ5LEDA,医疗保健服务,医疗保健服务场所,医疗保健服务场所,
116.09766457183007,40.0027706390976,军庄镇卫生院免疫预防接种门诊,三温路(军庄镇人民政府东侧),北京市,北京市,军庄镇,医疗保健服务;诊所;诊所,090300,B0FFJ3VUXL,医疗保健服务,诊所,诊所,
116.10540150699872,39.96062943192164,圆梦养生馆,石门路,北京市,北京市,,医疗保健服务;医疗保健服务场所;医疗保健服务场所,090000,B0FFM4GF3T,医疗保健服务,医疗保健服务场所,医疗保健服务场所,
116.10189547265225,39.96249266030947,诚润堂平价药房,三家店东街88号2室,北京市,北京市,,医疗保健服务;医药保健销售店;药房,090601,B000A9V5JQ,医疗保健服务,医药保健销售店,药房,
116.09813865269889,40.00501265896254,吕家传贴剂体验馆,军温路20附近,北京市,北京市,军庄镇,医疗保健服务;医药保健销售店;医疗保健用品,090602,B0FFJHVA7V,医疗保健服务,医药保健销售店,医疗保健用品,
116.10242698763858,39.96264387990748,中西医诊所,三家店中街89号附近,北京市,北京市,,医疗保健服务;诊所;诊所,090300,B0FFH13ASE,医疗保健服务,诊所,诊所,
116.12047669877344,39.9600020735961,百康药房,隆恩寺路18号院南宫家园十号楼,北京市,北京市,,医疗保健服务;医药保健销售店;药房,090601,B0FFM36N0F,医疗保健服务,医药保健销售店,药房,
116.10225784706073,39.96240181638144,慧心堂,龙泉镇三家店东街86号,北京市,北京市,,医疗保健服务;医药保健销售店;药房,090601,B0G2RPIFMP,医疗保健服务,医药保健销售店,药房,
116.12097846364063,39.96139757544837,厚德安康大药房(隆恩寺店),隆恩寺路18号院1号楼1至2层1-5,北京市,北京市,,医疗保健服务;医药保健销售店;药房,090601,B0GK7DZ1IX,医疗保健服务,医药保健销售店,药房,
116.10566089749172,39.95996960298419,北京门头沟艳丽保健品商店,三家店东街38号附近,北京市,北京市,,医疗保健服务;医药保健销售店;医疗保健用品,090602,B0FFJGLFN7,医疗保健服务,医药保健销售店,医疗保健用品,
116.09559225175269,40.001594288895255,北京医保中洋大药房(军庄分店),军庄镇杨坨车站,北京市,北京市,军庄镇,医疗保健服务;医药保健销售店;药房,090601,B000A7REQI,医疗保健服务,医药保健销售店,药房,
116.09784742968874,40.004970587588346,众博康健医药有限公司(第十分店),[],北京市,北京市,军庄镇,医疗保健服务;医药保健销售店;药房,090601,B0FFLM4FSY,医疗保健服务,医药保健销售店,药房,
116.09865332113176,39.93301469632373,门头沟区中医医院,新桥南大街3号,北京市,北京市,龙泉,医疗保健服务;综合医院;综合医院,090100,B000A7BPY8,医疗保健服务,综合医院,综合医院,
116.11061635938478,39.92112042009904,门头沟区妇幼保健院,石龙北路10号,北京市,北京市,永定,医疗保健服务;专科医院;专科医院,090200,B0FFGMYTM9,医疗保健服务,专科医院,专科医院,
116.09542053007974,39.94413157557089,北京市门头沟区医院,河滩桥东街10号(近新桥大街),北京市,北京市,门头沟,医疗保健服务;综合医院;综合医院,090100,B000A07F23,医疗保健服务,综合医院,综合医院,
116.12225563293428,39.93227517151908,麻峪社区卫生服务站,麻峪南街与麻峪村路交叉口南100米,北京市,北京市,广宁,医疗保健服务;综合医院;卫生院,090102,B0FFHACOAC,医疗保健服务,综合医院,卫生院,
116.11021961205329,39.93037074810645,北京灵泰药店第一分店(承泽苑路店),"承泽苑路滨河承泽苑2号楼底商1层7-7,7-8,7-9,7-10号",北京市,北京市,永定,医疗保健服务;医药保健销售店;药房,090601,B000A8XBXP,医疗保健服务,医药保健销售店,药房,
116.10337128166088,39.93686332059821,京门医院,滨河路龙泉花园1号楼,北京市,北京市,门头沟,医疗保健服务;综合医院;综合医院,090100,B000A87BX6,医疗保健服务,综合医院,综合医院,
116.11345752903317,39.93737406255416,北京康利友利民药店,双峪路,北京市,北京市,门头沟,医疗保健服务;医药保健销售店;药房,090601,B0FFFAET49,医疗保健服务,医药保健销售店,药房,
116.122358687574,39.93341524551262,百康汇丰大药房,麻峪村南街一号,北京市,北京市,广宁,医疗保健服务;医药保健销售店;药房,090601,B0FFHACMDG,医疗保健服务,医药保健销售店,药房,
116.11023961388145,39.93057675467179,口腔中老年镶牙中心,滨河路7号,北京市,北京市,永定,医疗保健服务;专科医院;口腔医院,090202,B0FFJAFE79,医疗保健服务,专科医院,口腔医院,
116.12223297588153,39.93707495457629,北京全新同旭堂大药房,双峪路11号(燕广友加油站东侧),北京市,北京市,广宁,医疗保健服务;医药保健销售店;药房,090601,B000A85THW,医疗保健服务,医药保健销售店,药房,
116.09706862368552,39.93665916221793,北京同仁堂善和医药有限公司(大峪药店),新桥大街74号,北京市,北京市,门头沟,医疗保健服务;医药保健销售店;药房,090601,B0FFFAELV3,医疗保健服务,医药保健销售店,药房,
116.10672454727458,39.93376525591685,瑞蚨龙跃营养与体重管理中心,双峪路35号院西贸国际大厦A座1510室,北京市,北京市,门头沟,医疗保健服务;医疗保健服务场所;医疗保健服务场所,090000,B000AAEXTM,医疗保健服务,医疗保健服务场所,医疗保健服务场所,
116.10949821481624,39.93343710086577,北京康益友药店,双峪路39号,北京市,北京市,永定,医疗保健服务;医药保健销售店;药房,090601,B0FFHDSBMB,医疗保健服务,医药保健销售店,药房,
116.10544907902035,39.933215535916354,北京久爱久爱动物医院有限公司,"滨河路123-2号,滨河西区皓月园底商",北京市,北京市,门头沟,医疗保健服务;动物医疗场所;宠物诊所,090701,B000A9V90G,医疗保健服务,动物医疗场所,宠物诊所,
116.11057721334535,39.92963604492645,北京鑫美达动物医院,滨河承泽苑6号楼1层11,北京市,北京市,永定,医疗保健服务;动物医疗场所;宠物诊所,090701,B0HB4H927Z,医疗保健服务,动物医疗场所,宠物诊所,
116.1086444631859,39.930278631799695,绮霞苑社区卫生服务站,承泽苑路滨河小区承泽苑1楼甲1号,北京市,北京市,永定,医疗保健服务;综合医院;卫生院,090102,B0FFG8UJZH,医疗保健服务,综合医院,卫生院,
116.10897359610632,39.93268776161627,无极限,绮霞苑路(滨河居住区-绮霞苑),北京市,北京市,大峪村,医疗保健服务;医药保健销售店;医疗保健用品,090602,B0HG6MBY0J,医疗保健服务,医药保健销售店,医疗保健用品,
116.1105642066984,39.92954303885551,雷氧氧疗,[],北京市,北京市,永定,医疗保健服务;医疗保健服务场所;医疗保健服务场所,090000,B0G0S93NH7,医疗保健服务,医疗保健服务场所,医疗保健服务场所,
116.11127084712396,39.924694776716635,叮当智慧药房(门头沟店),葡东小区20号楼底商叮当智慧药房,北京市,北京市,门头沟,医疗保健服务;医药保健销售店;药房,090601,B000A7OU3V,医疗保健服务,医药保健销售店,药房,
116.10932737293327,39.9303741019793,健康管理,承泽苑路与绮霞苑路交叉路口往西北约50米,北京市,北京市,门头沟,医疗保健服务;医疗保健服务场所;医疗保健服务场所,090000,B0G0JOJ4EH,医疗保健服务,医疗保健服务场所,医疗保健服务场所,
116.11130156085137,39.92728169589298,德露苑社区卫生服务站,德露苑路德露苑小区3-2室,北京市,北京市,永定,医疗保健服务;综合医院;卫生院,090102,B000A7K0MY,医疗保健服务,综合医院,卫生院,
116.11022761398762,39.930443751108164,北京王志虎口腔诊所,承泽苑2号楼7-4号,北京市,北京市,门头沟,医疗保健服务;专科医院;口腔医院,090202,B0FFFAE0EI,医疗保健服务,专科医院,口腔医院,
116.10545805559403,39.93348053034367,优贝口腔北京门头沟旗舰店,滨河西区皓月园3号楼滨河路117号,北京市,北京市,门头沟,医疗保健服务;专科医院;口腔医院,090202,B0FFM8WYLV,医疗保健服务,专科医院,口腔医院,
116.10703989195869,39.934142434166446,北京同仁堂专柜,双峪路与绮霞苑路交叉口西南100米,北京市,北京市,永定,医疗保健服务;医疗保健服务场所;医疗保健服务场所,090000,B0FFKBW5CO,医疗保健服务,医疗保健服务场所,医疗保健服务场所,
116.12721842850196,39.934726191932306,广润堂动物诊所(石景山店),高井路29号院2-4,北京市,北京市,广宁,医疗保健服务;动物医疗场所;宠物诊所,090701,B000A8XMIE,医疗保健服务,动物医疗场所,宠物诊所,
116.10903867711609,39.93274180468303,无限极专卖店(绮霞苑店),绮霞苑路丙1号楼1层3号,北京市,北京市,龙泉,医疗保健服务;医药保健销售店;医疗保健用品,090602,B0FFKDY6YZ,医疗保健服务,医药保健销售店,医疗保健用品,
116.11034881367044,39.93022185011216,医保定点药店北京银泰药店,承泽苑路与绮霞苑路交叉路口往北约50米,北京市,北京市,永定,医疗保健服务;医药保健销售店;药房,090601,B0HB7X2CB6,医疗保健服务,医药保健销售店,药房,
116.11531411463534,39.92481822416244,北京市大峪中学医务室,滨河德露苑18号,北京市,北京市,永定,医疗保健服务;诊所;诊所,090300,B0FFJRVOLE,医疗保健服务,诊所,诊所,
116.12990920311158,39.935372779873816,汇安堂药店,高井路1号,北京市,北京市,广宁,医疗保健服务;医药保健销售店;药房,090601,B0FFG6UX2G,医疗保健服务,医药保健销售店,药房,
116.10687270759178,39.93395033886633,北京美好视力健康服务中心,熙望中心A座1022,北京市,北京市,永定,医疗保健服务;医疗保健服务场所;医疗保健服务场所,090000,B0H665CJKU,医疗保健服务,医疗保健服务场所,医疗保健服务场所,
116.10602093456302,39.93184391542567,宝芝林,滨河路153-4号附近,北京市,北京市,大峪村,医疗保健服务;医疗保健服务场所;医疗保健服务场所,090000,B0FFL4DKT5,医疗保健服务,医疗保健服务场所,医疗保健服务场所,
116.1061773279778,39.93024707045634,百康药房(霁月园药店),霁月园8号楼滨河路153-33号一层,北京市,北京市,门头沟,医疗保健服务;医药保健销售店;药房,090601,B0FFI02DHC,医疗保健服务,医药保健销售店,药房,
116.10648368488124,39.93037524645582,龙鑫缘全民康,月季园路与滨河路交叉口西北50米,北京市,北京市,大峪村,医疗保健服务;医疗保健服务场所;医疗保健服务场所,090000,B0FFKUS349,医疗保健服务,医疗保健服务场所,医疗保健服务场所,
116.10637656547773,39.930284186352985,龙鑫缘养生会所,滨河霁月园8号楼2层滨河路153甲29-1号,北京市,北京市,龙泉,医疗保健服务;医疗保健服务场所;医疗保健服务场所,090000,B0FFL69OH7,医疗保健服务,医疗保健服务场所,医疗保健服务场所,
116.10165985011704,39.93436966904226,北京达因仁大药房(双峪路店)(暂停营业),双峪路4-5号,北京市,北京市,门头沟,医疗保健服务;医药保健销售店;药房,090601,B000A0406F,医疗保健服务,医药保健销售店,药房,
116.10740226318373,39.927012947000044,仟亿健康管理中心,"滨河路159-6号(门头沟区人民法院对面,工商银行南200米)",北京市,北京市,门头沟,医疗保健服务;医疗保健服务场所;医疗保健服务场所,090000,B0G31HVHU5,医疗保健服务,医疗保健服务场所,医疗保健服务场所,
116.10529929721362,39.91453621522249,石龙医院,永定镇石龙北路27号,北京市,北京市,永定,医疗保健服务;综合医院;综合医院,090100,B000A7IKDB,医疗保健服务,综合医院,综合医院,
116.13059470686693,39.93559272304291,北京急救,[],北京市,北京市,广宁,医疗保健服务;医疗保健服务场所;医疗保健服务场所,090000,B0HDNAD1PJ,医疗保健服务,医疗保健服务场所,医疗保健服务场所,
116.10483926490893,39.934054170489865,沐迪康健康管理平台,国信滨河大厦405,北京市,北京市,大峪村,医疗保健服务;医药保健销售店;医疗保健用品,090602,B0GR6SYA4M,医疗保健服务,医药保健销售店,医疗保健用品,
116.10629346676322,39.93026413800806,龙源堂中医专家门诊,月季园路霁月园7号楼底商153-32号,北京市,北京市,门头沟,医疗保健服务;诊所;诊所,090300,B0FFGNGQS9,医疗保健服务,诊所,诊所,
116.11932805905589,39.94060858950308,北京市石景山区广宁街道寿山福海社区卫生服务站,双峪路23号,北京市,北京市,,医疗保健服务;诊所;诊所,090300,B0FFF3NN55,医疗保健服务,诊所,诊所,
116.09902462432964,39.9330498013549,北京市门头沟区老年病医院,新桥南大街3号附近,北京市,北京市,大峪村,医疗保健服务;专科医院;专科医院,090200,B0FFKV8VYO,医疗保健服务,专科医院,专科医院,
116.13476925465551,39.93642474431432,广宁街道社区卫生服务中心,广宁村阜石路石景山火车站西,北京市,北京市,广宁,医疗保健服务;综合医院;卫生院,090102,B0G3AHEN9A,医疗保健服务,综合医院,卫生院,
116.10933905615215,39.93297200631803,欢乐前程口腔滨河居住区·分院,绮霞苑路临镜苑1号商业楼1层,北京市,北京市,永定,医疗保健服务;专科医院;口腔医院,090202,B0FFI911ZA,医疗保健服务,专科医院,口腔医院,
116.10335001231259,39.93098854469807,北京百姓万康大药房,大峪梨园楼23排,北京市,北京市,大峪村,医疗保健服务;医药保健销售店;药房,090601,B000A876Z8,医疗保健服务,医药保健销售店,药房,
116.10736418519375,39.92724391358582,益康健康管理中心,石担路与德露苑路交叉路口北侧(倚山嘉园),北京市,北京市,门头沟,医疗保健服务;医疗保健服务场所;医疗保健服务场所,090000,B0FFM6SNO9,医疗保健服务,医疗保健服务场所,医疗保健服务场所,
116.10383765766363,39.93005981716441,情趣屋,月季园路与新桥大街交叉路口往东约200米,北京市,北京市,门头沟,医疗保健服务;医疗保健服务场所;医疗保健服务场所,090000,B0FFLCH9PF,医疗保健服务,医疗保健服务场所,医疗保健服务场所,
116.0951329963748,39.93907873588073,煤炭科学研究总院石龙医院,新桥大街36号附近,北京市,北京市,门头沟,医疗保健服务;综合医院;综合医院,090100,B0FFJ1TU9X,医疗保健服务,综合医院,综合医院,
116.10099132434534,39.94125413563736,钰浩口腔诊所,剧场东街8号绿岛家园36号楼底商,北京市,北京市,门头沟,医疗保健服务;专科医院;口腔医院,090202,B0FFLPTHVF,医疗保健服务,专科医院,口腔医院,
116.10350488054985,39.90990148752123,北京同仁堂(京西药店),冯石环路6号院3号楼Plus365购物中心1层,北京市,北京市,门头沟,医疗保健服务;医药保健销售店;药房,090601,B0FFG8URAX,医疗保健服务,医药保健销售店,药房,
116.10880066243783,39.930353735634206,绮霞苑卫生服务中心,[],北京市,北京市,永定,医疗保健服务;医疗保健服务场所;医疗保健服务场所,090000,B0FFIPRZ6S,医疗保健服务,医疗保健服务场所,医疗保健服务场所,
116.1073892263654,39.927170932364106,灵芝康健大药房,滨河路159-3号,北京市,北京市,门头沟,医疗保健服务;医药保健销售店;药房,090601,B0FFFAEOXW,医疗保健服务,医药保健销售店,药房,
116.10372848083244,39.93051174553212,后宫情趣工坊,月季园路与新桥大街交叉路口往东北约200米,北京市,北京市,门头沟,医疗保健服务;医药保健销售店;医疗保健用品,090602,B0FFLC75OM,医疗保健服务,医药保健销售店,医疗保健用品,
116.1022945593627,39.933764957602754,大峪村卫生室,双峪路9号,北京市,北京市,大峪村,医疗保健服务;诊所;诊所,090300,B000A7ORWS,医疗保健服务,诊所,诊所,
116.13472214235068,39.93642767351008,高井社区卫生服务站,高井路东150米,北京市,北京市,广宁,医疗保健服务;综合医院;卫生院,090102,B0FFFYTUFR,医疗保健服务,综合医院,卫生院,
116.09966542789938,39.931061078182545,北京爵冠口腔医院京尔门诊,新桥南大街13号院附近,北京市,北京市,大峪村,医疗保健服务;专科医院;口腔医院,090202,B0FFKUXSBF,医疗保健服务,专科医院,口腔医院,
116.10674350771106,39.93425724783025,北京益家唐星保健食品专卖店,双欲路物美大卖场A座26层2616,北京市,北京市,永定,医疗保健服务;医药保健销售店;医疗保健用品,090602,B0FFGFZ8AS,医疗保健服务,医药保健销售店,医疗保健用品,
116.09586092873337,39.951059370361975,门头沟区疾病预防控制中心(城子东街),城子东街甲40号,北京市,北京市,门头沟,医疗保健服务;疾病预防机构;疾病预防,090500,B000A878TF,医疗保健服务,疾病预防机构,疾病预防,
116.09958537589769,39.93092305813859,动物医院,新桥南大街13号院1南-3,北京市,北京市,门头沟,医疗保健服务;动物医疗场所;宠物诊所,090701,B0FFGHT86R,医疗保健服务,动物医疗场所,宠物诊所,
116.1212959456985,39.95451820044074,五里坨医院,石门路322号,北京市,北京市,,医疗保健服务;综合医院;卫生院,090102,B000A7QQZ6,医疗保健服务,综合医院,卫生院,
116.10335904566884,39.930803556384085,北京好运达来健康管理中心,[],北京市,北京市,门头沟,医疗保健服务;医疗保健服务场所;医疗保健服务场所,090000,B0HAT50UW2,医疗保健服务,医疗保健服务场所,医疗保健服务场所,
116.1032430671418,39.92967354718091,王文敬诊所,月季园路1号梨园小楼14排6号,北京市,北京市,大峪村,医疗保健服务;诊所;诊所,090300,B0FFILL7CN,医疗保健服务,诊所,诊所,
116.10071583794783,39.935241271600695,宝芝林,双峪路(门头沟区大峪街道双峪社区东北侧),北京市,北京市,大峪村,医疗保健服务;医疗保健服务场所;医疗保健服务场所,090000,B0FFLECWBA,医疗保健服务,医疗保健服务场所,医疗保健服务场所,
116.12158859051573,39.95384455795588,嘉事堂药店(五里坨店),五里坨商业楼1层,北京市,北京市,,医疗保健服务;医药保健销售店;药房,090601,B000A7HVTR,医疗保健服务,医药保健销售店,药房,
116.09966201103568,39.934286948165,北京皓齿医疗投资有限公司口腔诊所,新桥大街102号,北京市,北京市,大峪村,医疗保健服务;专科医院;口腔医院,090202,B0FFJRW9U8,医疗保健服务,专科医院,口腔医院,
116.09309733384752,39.94297440822906,同仁堂(河滩店),门头沟路1-2号,北京市,北京市,门头沟,医疗保健服务;医药保健销售店;药房,090601,B000A5D639,医疗保健服务,医药保健销售店,药房,
116.09875139668026,39.93305372231626,门头沟区疾病预防控制中心结核科卡介苗室,门头沟中医院,北京市,北京市,大峪村,医疗保健服务;疾病预防机构;疾病预防,090500,B0FFLI67UC,医疗保健服务,疾病预防机构,疾病预防,
116.09955790506814,39.934406910187306,郑远元修脚肉刺灰指甲,[],北京市,北京市,大峪村,医疗保健服务;医疗保健服务场所;医疗保健服务场所,090000,B0G31L910G,医疗保健服务,医疗保健服务场所,医疗保健服务场所,
116.10109049271942,39.94067319605891,宠缘宠物诊所,绿岛水岸36号楼,北京市,北京市,门头沟,医疗保健服务;动物医疗场所;宠物诊所,090701,B0HBTX52VM,医疗保健服务,动物医疗场所,宠物诊所,
116.10618322106112,39.93113703822205,周林频谱(滨河路店),滨河路153-19号,北京市,北京市,门头沟,医疗保健服务;医药保健销售店;医疗保健用品,090602,B0FFFAEC01,医疗保健服务,医药保健销售店,医疗保健用品,
116.09724589054314,39.9355992425684,向东社区卫生服务站,葡东小区27号楼平房,北京市,北京市,门头沟,医疗保健服务;综合医院;卫生院,090102,B000A8X5ET,医疗保健服务,综合医院,卫生院,
116.12119777774885,39.95437209564816,北京市石景山区精神卫生保健所,石门路322号,北京市,北京市,,医疗保健服务;专科医院;专科医院,090200,B0FFJRWHUT,医疗保健服务,专科医院,专科医院,
116.09934218021911,39.93081398644711,回收茅台酒冬虫夏草,成教路与新桥南大街交叉口西100米,北京市,北京市,门头沟,医疗保健服务;医疗保健服务场所;医疗保健服务场所,090000,B0FFKFROC3,医疗保健服务,医疗保健服务场所,医疗保健服务场所,
116.0986246227656,39.938273479260715,仁源之家,政法路(新桥路中学东北侧),北京市,北京市,门头沟,医疗保健服务;医疗保健服务场所;医疗保健服务场所,090000,B0FFL1A7AC,医疗保健服务,医疗保健服务场所,医疗保健服务场所,
116.09931487449299,39.93301488996977,门头沟区老年健康指导中心,新桥大街3附近,北京市,北京市,大峪村,医疗保健服务;医疗保健服务场所;医疗保健服务场所,090000,B0FFKV8VYT,医疗保健服务,医疗保健服务场所,医疗保健服务场所,
116.10125366156441,39.94056926275985,百康药房(滨河路店),大峪街道绿岛家园36号楼底商,北京市,北京市,门头沟,医疗保健服务;医药保健销售店;药房,090601,B0FFIR74Y8,医疗保健服务,医药保健销售店,药房,
116.10145188494883,39.94031535030277,北京美鑫致远护理站,绿岛家园36号楼底商05,北京市,北京市,门头沟,医疗保健服务;医药保健销售店;医疗保健用品,090602,B0FFL69N8J,医疗保健服务,医药保健销售店,医疗保健用品,
116.10659929694847,39.91109210947311,北京仁圣医院,石担路永兴嘉园12号楼底商1层,北京市,北京市,永定,医疗保健服务;综合医院;综合医院,090100,B000A85U39,医疗保健服务,综合医院,综合医院,
116.11176123704857,39.92728605875961,至尚优宠物动物医院(门头沟店),滨河路德露苑小区3-6底商,北京市,北京市,门头沟,医疗保健服务;动物医疗场所;宠物诊所,090701,B0FFF2P8Q4,医疗保健服务,动物医疗场所,宠物诊所,
116.09907194903705,39.93082890422469,平价大药房,新桥南大街49号-4层附近,北京市,北京市,门头沟,医疗保健服务;医药保健销售店;药房,090601,B0G2BH8NDO,医疗保健服务,医药保健销售店,药房,
116.10100115915965,39.927023706813664,门头沟区大峪街道永新社区卫生服务站,永新社区7号楼附近,北京市,北京市,门头沟,医疗保健服务;综合医院;卫生院,090102,B0FFGPG288,医疗保健服务,综合医院,卫生院,
116.1138263013538,39.951486827994394,宝芝林,新马路,北京市,北京市,,医疗保健服务;医疗保健服务场所;医疗保健服务场所,090000,B0FFILG6OE,医疗保健服务,医疗保健服务场所,医疗保健服务场所,
116.12123484381827,39.954406136004074,五星坨社区卫生服务中心,石门路322号附近,北京市,北京市,,医疗保健服务;综合医院;卫生院,090102,B0GK567QHY,医疗保健服务,综合医院,卫生院,
116.09840029940959,39.947164067896814,素履之往养生馆,蓝龙家园1号楼一层底商1-6室,北京市,北京市,门头沟,医疗保健服务;医疗保健服务场所;医疗保健服务场所,090000,B0FFL695GN,医疗保健服务,医疗保健服务场所,医疗保健服务场所,
116.09710366044159,39.936573173084255,北京同仁堂中医诊所(新桥大街),新桥大街76号楼附近,北京市,北京市,大峪村,医疗保健服务;诊所;诊所,090300,B0FFHC9CTQ,医疗保健服务,诊所,诊所,
116.09477099095633,39.92959207016375,北京左京利诊所,成教路与规划路交叉口西100米,北京市,北京市,门头沟,医疗保健服务;诊所;诊所,090300,B0FFFADVLR,医疗保健服务,诊所,诊所,
116.10477110529118,39.950286494657036,三家店村卫生所,龙泉镇西六环,北京市,北京市,门头沟,医疗保健服务;诊所;诊所,090300,B0FFHC4VQL,医疗保健服务,诊所,诊所,
116.09382975783998,39.93493676832568,高层社区卫生服务站,大峪南路2区35楼旁平房,北京市,北京市,门头沟,医疗保健服务;综合医院;卫生院,090102,B0FFF0AOIN,医疗保健服务,综合医院,卫生院,
116.0969485328367,39.93668413607709,助听器医疗器械,新桥大街76号附近,北京市,北京市,龙泉,医疗保健服务;医药保健销售店;医疗保健用品,090602,B0FFFP2IHT,医疗保健服务,医药保健销售店,医疗保健用品,
116.09958995675602,39.934220927769985,牙科诊所,新桥大街102号,北京市,北京市,门头沟,医疗保健服务;专科医院;口腔医院|医疗保健服务;诊所;诊所,090202|090300,B000A9LV1E,医疗保健服务,专科医院,口腔医院|医疗保健服务,诊所
116.09937262519801,39.94313450686973,悦康送百姓平安大药房(河滩路),大峪街道大峪剧场东街8-1-2号,北京市,北京市,门头沟,医疗保健服务;医药保健销售店;药房,090601,B0FFHCO9SV,医疗保健服务,医药保健销售店,药房,
116.11190592541635,39.954823086883685,宝芝林,[],北京市,北京市,,医疗保健服务;医疗保健服务场所;医疗保健服务场所,090000,B0G3YRU5FT,医疗保健服务,医疗保健服务场所,医疗保健服务场所,
116.09388749976684,39.94498237546793,健康咨询,城子大街132-12号附近,北京市,北京市,门头沟,医疗保健服务;医疗保健服务场所;医疗保健服务场所,090000,B0G23OGMWN,医疗保健服务,医疗保健服务场所,医疗保健服务场所,
116.1134650517725,39.91774986195164,北京乐顺堂惠康大药房有限公司,曹各庄惠康嘉园二区2号楼底商102,北京市,北京市,永定,医疗保健服务;医药保健销售店;药房,090601,B0GUOA369K,医疗保健服务,医药保健销售店,药房,
116.12361617394055,39.91767436791991,侯庄子村卫生室,019县道东50米,北京市,北京市,永定,医疗保健服务;诊所;诊所,090300,B000A888B1,医疗保健服务,诊所,诊所,
116.11002372024957,39.95079379736961,北京昆泰仙草堂医药有限公司,华北路与新建路交叉口东100米,北京市,北京市,,医疗保健服务;医药保健销售店;药房,090601,B0FFFAD8V6,医疗保健服务,医药保健销售店,药房,
116.09660910066209,39.938154010026864,门头沟区残疾人职业康复中心,新桥大街56号,北京市,北京市,门头沟,医疗保健服务;医疗保健服务场所;医疗保健服务场所,090000,B000AA1GTB,医疗保健服务,医疗保健服务场所,医疗保健服务场所,
116.09798898030392,39.94710496342405,北京民盛康大药房,水厂北路与水厂路交叉口东50米,北京市,北京市,门头沟,医疗保健服务;医药保健销售店;药房,090601,B000A7Q0LR,医疗保健服务,医药保健销售店,药房,
116.09292627736758,39.94273541120174,北京京西华台口腔门诊部,门头沟路1号石龙商业大厦7层,北京市,北京市,门头沟,医疗保健服务;医疗保健服务场所;医疗保健服务场所,090000,B0FFL0WHWJ,医疗保健服务,医疗保健服务场所,医疗保健服务场所,
116.09312339852943,39.9425754250391,京西华台口腔,门头沟路1-4号龙泰丰商城,北京市,北京市,门头沟,医疗保健服务;专科医院;口腔医院,090202,B0FFFAE9VQ,医疗保健服务,专科医院,口腔医院,
116.10614118281767,39.9544350953514,平价药店,河西路与西六环交叉口东北150米,北京市,北京市,门头沟,医疗保健服务;医药保健销售店;药房,090601,B0FFFADXLL,医疗保健服务,医药保健销售店,药房,
116.1128051311663,39.95602177758769,亿力阳康大药房(五里坨店),五里坨西街9号院6号楼一层,北京市,北京市,,医疗保健服务;医药保健销售店;药房,090601,B0FFKSGLZ5,医疗保健服务,医药保健销售店,药房,
116.10912026083109,39.952459084971665,门城地区社区卫生服务中心华新建门诊-预防接种门诊,三家店新建路甲7号,北京市,北京市,,医疗保健服务;诊所;诊所,090300,B0FFJRVVYQ,医疗保健服务,诊所,诊所,
116.12985923400785,39.957781832496316,石景山区西山社区卫生服务站,黑石头路西山机械厂社区居委会隔壁,北京市,北京市,,医疗保健服务;综合医院;卫生院,090102,B000A7VKWE,医疗保健服务,综合医院,卫生院,
116.0928355867231,39.93997251731963,门头门城地区社区卫生服务中心滨河地区免疫预防门诊,门头沟公安分局出入境接待大厅北侧道路向西走100米右拐10米处,北京市,北京市,大峪村,医疗保健服务;诊所;诊所,090300,B0FFL222E9,医疗保健服务,诊所,诊所,
116.11891589550203,39.95949841487177,清废呼吸馆,隆恩寺路附近,北京市,北京市,,医疗保健服务;医疗保健服务场所;医疗保健服务场所,090000,B0FFL59XK7,医疗保健服务,医疗保健服务场所,医疗保健服务场所,
116.11917436240398,39.9595056869925,刁氏口腔诊所,隆恩寺路18号院13号楼13-13号,北京市,北京市,,医疗保健服务;专科医院;口腔医院,090202,B0FFJ1UYA8,医疗保健服务,专科医院,口腔医院,
116.11907718388663,39.95952358361409,KAVASS体验馆,隆恩寺路(南宫嘉园),北京市,北京市,,医疗保健服务;医疗保健服务场所;医疗保健服务场所,090000,B0FFL54W7I,医疗保健服务,医疗保健服务场所,医疗保健服务场所,
116.1064224868367,39.95473324951553,北京仁益德康医药有限公司,三家店京西兴顺农贸市场正门,北京市,北京市,门头沟,医疗保健服务;医药保健销售店;药房,090601,B0FFFADUB0,医疗保健服务,医药保健销售店,药房,
116.10524179446102,39.95693548836879,同仁堂,三家店东老店六号楼,北京市,北京市,门头沟,医疗保健服务;医药保健销售店;药房,090601,B0HB3A8ICR,医疗保健服务,医药保健销售店,药房,
116.09581621039924,39.93306007344554,北京市计划生育免费药具发放点,大峪南路与规划路交叉口西南100米,北京市,北京市,门头沟,医疗保健服务;医疗保健服务场所;医疗保健服务场所,090000,B0FFHG7NO9,医疗保健服务,医疗保健服务场所,医疗保健服务场所,
116.11554610297722,39.95915908325809,南宫社区卫生服务站,石门路368号,北京市,北京市,,医疗保健服务;诊所;诊所,090300,B0FFF3NN2W,医疗保健服务,诊所,诊所,
116.10682437094874,39.91268917835468,友邻平安医药,永兴小区15号楼1层01底商,北京市,北京市,门头沟,医疗保健服务;医药保健销售店;药房,090601,B000A85U3E,医疗保健服务,医药保健销售店,药房,
116.10360198009613,39.90994053252526,同仁堂中医门诊部,冯石环路6号院3号楼一层L108A号商铺,北京市,北京市,门头沟,医疗保健服务;诊所;诊所,090300,B0FFG8UQHD,医疗保健服务,诊所,诊所,
116.09912343094535,39.9585708263677,厚德安康大药房(水闸路店),水闸路16号院1幢1层,北京市,北京市,门头沟,医疗保健服务;医药保健销售店;药房,090601,B0FFKVG4HQ,医疗保健服务,医药保健销售店,药房,
116.0938574954984,39.94488537703061,骏丰频谱(城子大街店),城子大街132-14号,北京市,北京市,门头沟,医疗保健服务;医药保健销售店;医疗保健用品,090602,B000A7WWFL,医疗保健服务,医药保健销售店,医疗保健用品,
116.11797633617302,39.95858147926076,瑞安堂平价药店,隆恩寺路20号附近,北京市,北京市,,医疗保健服务;医药保健销售店;药房,090601,B000A8XKKW,医疗保健服务,医药保健销售店,药房,
116.09650132824983,39.94357777547459,120门头沟急救分中心,桥东街10号,北京市,北京市,门头沟,医疗保健服务;急救中心;急救中心,090400,B000A8X6Q1,医疗保健服务,急救中心,急救中心,
116.09633129929308,39.95066546604212,北京门头沟利民堂大药房,阳光绿苑底商,北京市,北京市,门头沟,医疗保健服务;医药保健销售店;药房,090601,B0FFHWGMEK,医疗保健服务,医药保健销售店,药房,
116.1302861615901,39.95797141592909,峰苡康安大药房,五里坨黑石头7312工厂院内,北京市,北京市,,医疗保健服务;医药保健销售店;药房,090601,B000A8XLGG,医疗保健服务,医药保健销售店,药房,
116.1058759884962,39.914455542662544,石龙医院-急诊,永定镇石龙北路27号院,北京市,北京市,门头沟,医疗保健服务;医疗保健服务场所;医疗保健服务场所,090000,B000A9Q5CE,医疗保健服务,医疗保健服务场所,医疗保健服务场所,
116.09299490248551,39.95370598318406,北京市门头沟区中小学卫生保健所,城子大街10号,北京市,北京市,门头沟,医疗保健服务;医疗保健服务场所;医疗保健服务场所,090000,B0FFFAEC0L,医疗保健服务,医疗保健服务场所,医疗保健服务场所,
116.09922583637136,39.93272087458496,门头沟区中医医院南楼,新桥大街5附近,北京市,北京市,门头沟,医疗保健服务;综合医院;综合医院,090100,B0FFL6D8R3,医疗保健服务,综合医院,综合医院,
116.10551489442776,39.91184544813652,门头沟区动物疫病预防控制中心,石龙北路33号农林大厦(档案馆北),北京市,北京市,永定,医疗保健服务;动物医疗场所;动物医疗场所,090700,B0FFH12X6L,医疗保健服务,动物医疗场所,动物医疗场所,
116.09598291195321,39.94404166555879,北京市门头沟区医院门诊,河滩桥东街10号北京市门头沟区医院内,北京市,北京市,门头沟,医疗保健服务;综合医院;综合医院,090100,B000A9V5G5,医疗保健服务,综合医院,综合医院,
116.11071748847715,39.921242491704426,妇幼保健大厦,永定石龙北路10,北京市,北京市,永定,医疗保健服务;医疗保健服务场所;医疗保健服务场所,090000,B0FFGH4T0Y,医疗保健服务,医疗保健服务场所,医疗保健服务场所,
116.09537153434373,39.94385357961541,北京市门头沟区医院-肾内科,河滩桥东街10号,北京市,北京市,门头沟,医疗保健服务;综合医院;综合医院,090100,B0G39NK757,医疗保健服务,综合医院,综合医院,
116.09864531573433,39.93300569445224,北京市门头沟区中医医院方舱式核酸检测实验室,新桥南大街3号,北京市,北京市,门头沟,医疗保健服务;医疗保健服务场所;医疗保健服务场所,090000,B0G0X51K6Z,医疗保健服务,医疗保健服务场所,医疗保健服务场所,
116.11016771743503,39.92116608295848,北京市门头沟区妇幼保健院方舱式核酸检测实验室,石龙北路10号院,北京市,北京市,永定,医疗保健服务;医疗保健服务场所;医疗保健服务场所,090000,B0G0KYSSNM,医疗保健服务,医疗保健服务场所,医疗保健服务场所,
116.09486422569726,39.943782517129364,北京市门头沟区医院健康管理中心,河滩桥东街10号附近,北京市,北京市,门头沟,医疗保健服务;综合医院;综合医院,090100,B0FFGI897B,医疗保健服务,综合医院,综合医院,
116.10347238282769,39.93691836648062,北京京门医院口腔门诊,龙泉花园1号楼北京京门医院1层,北京市,北京市,门头沟,医疗保健服务;专科医院;口腔医院,090202,B0FFF9XJNE,医疗保健服务,专科医院,口腔医院,
116.09598291195321,39.94404166555879,北京市门头沟区医院-住院部,河滩桥东街10号北京市门头沟区医院,北京市,北京市,门头沟,医疗保健服务;综合医院;综合医院,090100,B000A9V5QZ,医疗保健服务,综合医院,综合医院,
116.09550657906588,39.94418258591484,门头沟区医院-急诊,桥东街10号,北京市,北京市,门头沟,医疗保健服务;综合医院;三级甲等医院,090101,B000A9V5A9,医疗保健服务,综合医院,三级甲等医院,
116.11596994100259,39.8955740862802,亚峰诊所,石龙经济开发区永安路14号1幢105室,北京市,北京市,永定,医疗保健服务;诊所;诊所,090300,B0FFHUUUGW,医疗保健服务,诊所,诊所,
116.12201013480457,39.901115187826235,京煤集团总医院(上岸)综合医疗部,泰安路东50米,北京市,北京市,永定,医疗保健服务;综合医院;综合医院,090100,B000A27EC0,医疗保健服务,综合医院,综合医院,
116.12202315930892,39.90112020258141,北京京煤集团总医院职业病科,泰安路东100米,北京市,北京市,永定,医疗保健服务;综合医院;综合医院,090100,B0FFHB91IG,医疗保健服务,综合医院,综合医院,
116.11693166317012,39.902692698654796,雅仕美口腔,新城东街19号院1号楼1-15,北京市,北京市,永定,医疗保健服务;专科医院;口腔医院,090202,B0G3GCTQ7H,医疗保健服务,专科医院,口腔医院,
116.11749264119688,39.90263225780651,北京雅仕美口腔(上岸店),新城东街19号院1号楼1-15号,北京市,北京市,永定,医疗保健服务;专科医院;口腔医院,090202,B0G3D72I39,医疗保健服务,专科医院,口腔医院,
116.11776501684649,39.90341849750217,北京嘉悦口腔天街店,永定镇新城东街17号院4号楼132,北京市,北京市,永定,医疗保健服务;专科医院;口腔医院,090202,B0FFLN8X64,医疗保健服务,专科医院,口腔医院,
116.12030763632428,39.89540053165516,同顺堂平价药店,永安路20号,北京市,北京市,永定,医疗保健服务;医药保健销售店;药房,090601,B0FFJSTT8C,医疗保健服务,医药保健销售店,药房,
116.11832221302627,39.90175513883494,聚朋友采耳,[],北京市,北京市,永定,医疗保健服务;医疗保健服务场所;医疗保健服务场所,090000,B0G25O0PX4,医疗保健服务,医疗保健服务场所,医疗保健服务场所,
116.11935096039112,39.9025681800546,京鹏堂中医诊所,金沙西街19号院2号楼1层109室,北京市,北京市,永定,医疗保健服务;诊所;诊所,090300,B0G367O87T,医疗保健服务,诊所,诊所,
116.1205773336191,39.90171854668241,益优堂大药房,金沙西街19号院6号楼1单元,北京市,北京市,永定,医疗保健服务;医药保健销售店;药房,090601,B0FFIV05FT,医疗保健服务,医药保健销售店,药房,
116.12051621507214,39.90175147782527,平价大药房,泰安路与金沙西街交叉路口往西北约50米,北京市,北京市,永定,医疗保健服务;医药保健销售店;药房,090601,B0HAXMN8YU,医疗保健服务,医药保健销售店,药房,
116.1171420236045,39.90270690545555,福益堂大药房,新城大街19号院1-19,北京市,北京市,永定,医疗保健服务;医药保健销售店;药房,090601,B0FFL4FUBI,医疗保健服务,医药保健销售店,药房,
116.11667666403038,39.907097258117176,扬州七星修脚,曹各庄路34号院4号楼底商110,北京市,北京市,永定,医疗保健服务;医疗保健服务场所;医疗保健服务场所,090000,B0FFMC9NZZ,医疗保健服务,医疗保健服务场所,医疗保健服务场所,
116.11647066245375,39.904365176431746,金象大药房(新城东街店),新城东街17号院2号楼长安天街地下1层,北京市,北京市,永定,医疗保健服务;医药保健销售店;药房,090601,B0FFLJTNIC,医疗保健服务,医药保健销售店,药房,
116.11803500969538,39.90719460807893,京合上岸口腔门诊部,曹格庄路32号院6号楼11室,北京市,北京市,永定,医疗保健服务;专科医院;口腔医院,090202,B0GR7AG12K,医疗保健服务,专科医院,口腔医院,
116.12155481199416,39.90462751401902,北京恩平中医诊所,金沙西街10号院2号楼1层105室,北京市,北京市,永定,医疗保健服务;医疗保健服务场所;医疗保健服务场所,090000,B0FFKC8B9V,医疗保健服务,医疗保健服务场所,医疗保健服务场所,
116.11902316927706,39.90410676592713,北京华兴瑞达生物科技发展有限,金沙西街17号院3号楼4层408室,北京市,北京市,永定,医疗保健服务;医药保健销售店;医疗保健用品,090602,B0HB2YUUDW,医疗保健服务,医药保健销售店,医疗保健用品,
116.12100776577444,39.90467689560946,阳光百益大药房(金沙西街店),金安路(华润悦景湾),北京市,北京市,永定,医疗保健服务;医药保健销售店;药房,090601,B0H6PANCGA,医疗保健服务,医药保健销售店,药房,
116.10187927286731,39.89374047466156,京尔口腔,冯石环路416号院10-16,北京市,北京市,永定,医疗保健服务;专科医院;口腔医院,090202,B0G254RHUA,医疗保健服务,专科医院,口腔医院,
116.12957475351176,39.90168171721658,东方养生会所,[],北京市,北京市,永定,医疗保健服务;医疗保健服务场所;医疗保健服务场所,090000,B0HB1UFF3A,医疗保健服务,医疗保健服务场所,医疗保健服务场所,
116.11416300529056,39.88760779522228,小园善和药店,永定镇上园路惠润九地块商业1,北京市,北京市,永定,医疗保健服务;医药保健销售店;药房,090601,B0FFL5V9OA,医疗保健服务,医药保健销售店,药房,
116.13531635972052,39.898679140285616,永定镇卫生院,规划三路附近,北京市,北京市,永定,医疗保健服务;综合医院;卫生院,090102,B0FFHXE57R,医疗保健服务,综合医院,卫生院,
116.12937330510317,39.90171144036471,厚德安康大药房(同熙堂店),龙兴路15号院翡翠长安10号楼,北京市,北京市,永定,医疗保健服务;医药保健销售店;药房,090601,B0GUL5R62B,医疗保健服务,医药保健销售店,药房,
116.1057603661693,39.90261898372216,北京门头沟郭景芬中医诊所,石龙南路10号,北京市,北京市,永定,医疗保健服务;诊所;诊所,090300,B0FFGRDV2L,医疗保健服务,诊所,诊所,
116.10336130501643,39.88976631368327,永定紫金口腔,京西紫金新园一区6号楼,北京市,北京市,永定,医疗保健服务;专科医院;口腔医院|医疗保健服务;诊所;诊所,090202|090300,B0FFLQ4Y1P,医疗保健服务,专科医院,口腔医院|医疗保健服务,诊所
116.13660163956109,39.897238168703424,爱屋动物医院(梧桐苑店),永定龙兴南二路梧桐苑小区8号院2号楼106底商,北京市,北京市,永定,医疗保健服务;动物医疗场所;宠物诊所,090701,B0FFLK476O,医疗保健服务,动物医疗场所,宠物诊所,
116.13539358765388,39.89833927237917,北京市门头沟区永定镇社区卫生服务中心,永定镇梧桐苑玉带西路301号院1号楼,北京市,北京市,永定,医疗保健服务;综合医院;卫生院,090102,B0FFJJZOFJ,医疗保健服务,综合医院,卫生院,
116.10329121312702,39.889901274375895,北京紫金园药店,小园路与紫金北路交叉口东100米,北京市,北京市,永定,医疗保健服务;医药保健销售店;药房,090601,B0FFHBBTO3,医疗保健服务,医药保健销售店,药房,
116.09907401837829,39.90690689637987,北岭社区卫生服务站,北京市门头沟区永定镇冯村新园小区11号楼南侧（冯村医务室院内,北京市,北京市,永定,医疗保健服务;综合医院;卫生院,090102,B0GUZAFR80,医疗保健服务,综合医院,卫生院,
116.1180228595231,39.908202552433615,达慧堂药房(笫四十八分店),曹各庄路32号院4号楼1层109.110.111,北京市,北京市,永定,医疗保健服务;医药保健销售店;药房,090601,B0FFKBKMO3,医疗保健服务,医药保健销售店,药房,
116.10481473307799,39.90676728330827,云康养智慧健康岛,石龙北路55号,北京市,北京市,永定,医疗保健服务;医疗保健服务场所;医疗保健服务场所,090000,B0FFKURJGB,医疗保健服务,医疗保健服务场所,医疗保健服务场所,
116.10484672467182,39.90711828519935,蓝天康裕养生馆,石龙北路53号,北京市,北京市,门头沟,医疗保健服务;医疗保健服务场所;医疗保健服务场所,090000,B0FFL9XY3M,医疗保健服务,医疗保健服务场所,医疗保健服务场所,
116.10362429955237,39.90763464197404,北京门头沟贾翠芬诊所,冯村第二区2号楼101室,北京市,北京市,永定,医疗保健服务;诊所;诊所,090300,B000A9Q6DX,医疗保健服务,诊所,诊所,
116.10001294617504,39.89820657485753,永和瑞祥大药房,冯石环路408号院永和新苑小区5号楼,北京市,北京市,永定,医疗保健服务;医药保健销售店;药房,090601,B0FFJ07YW0,医疗保健服务,医药保健销售店,药房,
116.13874783635053,39.89783250234457,久晟华清池修脚(梧桐汇店),白庄子路与龙兴南二路交叉口西100米,北京市,北京市,永定,医疗保健服务;医疗保健服务场所;医疗保健服务场所,090000,B0FFIUQ6D8,医疗保健服务,医疗保健服务场所,医疗保健服务场所,
116.10663941066676,39.88714620095281,北京乐顺堂康乐大药房,紫金新园2区9号楼底商101,北京市,北京市,永定,医疗保健服务;医药保健销售店;药房,090601,B0FFL0F8L6,医疗保健服务,医药保健销售店,药房,
116.10358066920065,39.9043807616491,百姓平安药房(石担路店),石龙南路3号院1号楼1层102,北京市,北京市,永定,医疗保健服务;医药保健销售店;药房,090601,B0FFL4Q3TE,医疗保健服务,医药保健销售店,药房,
116.10485571228183,39.90729528236836,郑桂英口腔诊所,石担路冯村商业街1005号,北京市,北京市,永定,医疗保健服务;专科医院;口腔医院|医疗保健服务;诊所;诊所,090202|090300,B0FFFAC78Q,医疗保健服务,专科医院,口腔医院|医疗保健服务,诊所
116.10302044825393,39.90926128770125,永兴社区卫生服务站,冯石环线,北京市,北京市,永定,医疗保健服务;诊所;诊所,090300,B0FFKZVH4I,医疗保健服务,诊所,诊所,
116.13630687295645,39.89764969656998,平价大药房,玉带西街与龙兴南二路交叉路口东北侧(清露园),北京市,北京市,永定,医疗保健服务;医药保健销售店;药房,090601,B0GUCC8HKT,医疗保健服务,医药保健销售店,药房,
116.13815217858722,39.89926749607039,百康药房(梧桐苑店),龙兴南二路5号院1号楼1层102-103,北京市,北京市,永定,医疗保健服务;医药保健销售店;药房,090601,B0FFIC82A5,医疗保健服务,医药保健销售店,药房,
116.14111955107431,39.89979723808563,门头沟龙兴急救工作站,龙兴南一路与玉带东一街交叉路口东侧,北京市,北京市,永定,医疗保健服务;急救中心;急救中心,090400,B0FFMBDILQ,医疗保健服务,急救中心,急救中心,
116.13634997368959,39.89767776153834,福优堂大药房,龙兴南二街7号院7号楼1层115室,北京市,北京市,永定,医疗保健服务;医药保健销售店;药房,090601,B0FFHB908G,医疗保健服务,医药保健销售店,药房,
116.10024868663774,39.886267203730085,计划免疫门诊,石园中路与紫金路交叉口西北50米,北京市,北京市,永定,医疗保健服务;诊所;诊所,090300,B0FFJH5RA4,医疗保健服务,诊所,诊所,
116.10359768627083,39.90439076941633,北京厚德安康大药房(丽景长安店),石龙南路3号院1号楼1层102,北京市,北京市,永定,医疗保健服务;医药保健销售店;药房,090601,B0GRG5RB1B,医疗保健服务,医药保健销售店,药房,
116.1001694230117,39.903383399048955,达慧堂药房(第五十一分店),何各庄中街1号院13号楼101-1,北京市,北京市,永定,医疗保健服务;医药保健销售店;药房,090601,B0FFKE0MHT,医疗保健服务,医药保健销售店,药房,
116.10369537748946,39.907626676781994,贾氏非物质文化遗产医馆,石龙北路西150米,北京市,北京市,永定,医疗保健服务;诊所;诊所,090300,B0FFG34GXI,医疗保健服务,诊所,诊所,
116.10469543889252,39.9080041670211,盛年堂平价大药房,冯村嘉园2号楼2单元,北京市,北京市,永定,医疗保健服务;医药保健销售店;药房,090601,B000A8U8CQ,医疗保健服务,医药保健销售店,药房,
116.13764111436703,39.89773676160409,龚庭鼻炎馆(门头沟店),龙兴南二路7号院6号楼1层118铺,北京市,北京市,永定,医疗保健服务;医药保健销售店;医疗保健用品,090602,B0FFKQAKXH,医疗保健服务,医药保健销售店,医疗保健用品,
116.1387980223897,39.897349603668275,北京爱宠怡康动物医院(梧桐店),龙兴南二路6号院1号楼底商209,北京市,北京市,永定,医疗保健服务;动物医疗场所;宠物诊所,090701,B0FFIUQ6CW,医疗保健服务,动物医疗场所,宠物诊所,
116.10484469687297,39.90731727555512,惜梦宠物动物医院,石龙北路51号,北京市,北京市,门头沟,医疗保健服务;动物医疗场所;宠物诊所,090701,B0FFI13T98,医疗保健服务,动物医疗场所,宠物诊所,
116.13739973893205,39.88815482219908,卧龙岗村卫生室,京原路与西六环入口交叉口东南50米,北京市,北京市,,医疗保健服务;诊所;诊所,090300,B0FFF9OXL5,医疗保健服务,诊所,诊所,
116.1004218499629,39.88621926640362,永定镇卫生院石门营社区卫生服务中心,紫金路西北永定石门营新区七区北苑,北京市,北京市,永定,医疗保健服务;综合医院;卫生院,090102,B0FFKF64F2,医疗保健服务,综合医院,卫生院,
116.13900660710895,39.896832958764826,品尚口腔门诊部,龙兴南二街6号院2,北京市,北京市,永定,医疗保健服务;专科医院;口腔医院,090202,B0FFHB907F,医疗保健服务,专科医院,口腔医院,
116.09815156342566,39.88897344428214,药房,石门营a4小区,北京市,北京市,永定,医疗保健服务;医药保健销售店;药房,090601,B0FFLKTX8L,医疗保健服务,医药保健销售店,药房,
116.09556114908686,39.88544208558979,善和药店(石门营店),紫金北路10号楼附近,北京市,北京市,永定,医疗保健服务;医药保健销售店;药房,090601,B0FFFACXSD,医疗保健服务,医药保健销售店,药房,
116.14222766062286,39.89761415833721,安笑仁康大药房(中铁西城店),龙兴南二路2号院108-109号,北京市,北京市,永定,医疗保健服务;医药保健销售店;药房,090601,B0FFKSKIBS,医疗保健服务,医药保健销售店,药房,
116.09590801374027,39.888284005261234,鑫康济堂大药房(二十三分店),门头沟区石门营地块新四区5号楼1层5-2,北京市,北京市,永定,医疗保健服务;医药保健销售店;药房,090601,B0FFL2VMDK,医疗保健服务,医药保健销售店,药房,
116.16692182116506,40.1399842988715,西辛力屯社区卫生服务站,上庄镇西辛力屯村,北京市,北京市,,医疗保健服务;综合医院;卫生院,090102,B000A8XE0L,医疗保健服务,综合医院,卫生院,
116.17242844515438,40.12346811217265,前章村社区卫生服务站,上庄镇前章村路东(前章村小学西),北京市,北京市,,医疗保健服务;综合医院;卫生院,090102,B000A8XEBH,医疗保健服务,综合医院,卫生院,
116.16111260936482,40.145941849249745,北京市昌平区阳坊镇八口村卫生室,阳坊镇八口村南小街62号,北京市,北京市,,医疗保健服务;诊所;诊所,090300,B0FFJRXEJE,医疗保健服务,诊所,诊所,
116.17413139313594,40.12199138801863,北京市海淀区海伦聋儿康复园,前章村74号,北京市,北京市,,医疗保健服务;医疗保健服务场所;医疗保健服务场所,090000,B0FFHBRG41,医疗保健服务,医疗保健服务场所,医疗保健服务场所,
116.17267926884419,40.12251466143604,德广瑞民大药房,前章村路东50米,北京市,北京市,,医疗保健服务;医药保健销售店;药房,090601,B0FFKEQQ7I,医疗保健服务,医药保健销售店,药房,
116.17288290032354,40.12203108097146,24小时成人用品,前章村路,北京市,北京市,,医疗保健服务;医药保健销售店;医疗保健用品,090602,B0GKYHIKAG,医疗保健服务,医药保健销售店,医疗保健用品,
116.17858121087697,40.12577616557353,北京市海淀区上庄镇后章村社区卫生服务站,上庄镇后章村沙阳路西村委会西侧马路对面,北京市,北京市,,医疗保健服务;诊所;诊所,090300,B0FFJRVODK,医疗保健服务,诊所,诊所,
116.18218061721862,40.11268473275532,八家村社区卫生服务站,八家北路与八家路交叉口东100米,北京市,北京市,,医疗保健服务;医疗保健服务场所;医疗保健服务场所,090000,B0FFK9RKJB,医疗保健服务,医疗保健服务场所,医疗保健服务场所,
116.15197167453684,40.07831874818764,苏家坨中心医院,苏家坨乡西小营集镇北侧路东,北京市,北京市,,医疗保健服务;综合医院;综合医院,090100,B0FFFWDCNS,医疗保健服务,综合医院,综合医院,
116.15284813766742,40.07793535138388,海淀区精神卫生防治院,苏家坨镇西小营村温阳路,北京市,北京市,,医疗保健服务;专科医院;精神病医院|医疗保健服务;疾病预防机构;疾病预防,090210|090500,B000A8XP1G,医疗保健服务,专科医院,精神病医院|医疗保健服务,疾病预防机构
116.1529212805766,40.078398452745915,苏家坨急救站,温阳路(苏家坨新村),北京市,北京市,,医疗保健服务;急救中心;急救中心,090400,B0FFL5APXE,医疗保健服务,急救中心,急救中心,
116.15133022905859,40.07584576119975,北京武桂云内科诊所,温阳路与苏家坨路交叉口西150米,北京市,北京市,,医疗保健服务;诊所;诊所,090300,B0FFIXZCDT,医疗保健服务,诊所,诊所,
116.15300653559471,40.078244616899205,苏家坨镇社区卫生服务中心,苏家坨,北京市,北京市,,医疗保健服务;综合医院;卫生院,090102,B000A8XOYT,医疗保健服务,综合医院,卫生院,
116.15298498109273,40.07427983722187,一通中医门诊部,苏家坨镇西小营村东路1排3号,北京市,北京市,,医疗保健服务;诊所;诊所,090300,B0FFMC929L,医疗保健服务,诊所,诊所,
116.15132922631085,40.07584575940633,北京武桂云诊所,温阳路与苏家坨路交叉口西150米路北,北京市,北京市,,医疗保健服务;诊所;诊所,090300,B0FFJRU025,医疗保健服务,诊所,诊所,
116.15263737551085,40.07935387702113,北京京海民康大药房,温阳路东50米,北京市,北京市,,医疗保健服务;医药保健销售店;药房,090601,B000A8XRU4,医疗保健服务,医药保健销售店,药房,
116.15285114405354,40.07795035581744,海淀区精神卫生防治指导中心,温阳路东50米,北京市,北京市,,医疗保健服务;疾病预防机构;疾病预防,090500,B0FFHRT30B,医疗保健服务,疾病预防机构,疾病预防,
116.15612069447312,40.06641203995188,嘉事堂药店(温阳路店),西颐小区温阳路,北京市,北京市,,医疗保健服务;医疗保健服务场所;医疗保健服务场所,090000,B0FFJCAY8Z,医疗保健服务,医疗保健服务场所,医疗保健服务场所,
116.16091218139877,40.066250904976094,苏家坨镇北分厂社区卫生服务站,北清路160号北分瑞利集团家属区院内,北京市,北京市,,医疗保健服务;诊所;诊所,090300,B0FFKVYA2Q,医疗保健服务,诊所,诊所,
116.15951870469223,40.06267953326916,北京谱尼医学检验实验室,锦带路66号院1号楼5层101,北京市,北京市,,医疗保健服务;医疗保健服务场所;医疗保健服务场所,090000,B0FFMDQRZR,医疗保健服务,医疗保健服务场所,医疗保健服务场所,
116.14405820835378,40.07204634290496,罗麦(西柳路店),西柳路,北京市,北京市,,医疗保健服务;医药保健销售店;医疗保健用品,090602,B0HA6N6GM0,医疗保健服务,医药保健销售店,医疗保健用品,
116.14958299288396,40.0638404066148,北京艾纳医学检验实验室,中关村翠湖云中心西区13号楼2单元2层,北京市,北京市,,医疗保健服务;医药保健销售店;医疗保健用品,090602,B0GUMH6EDF,医疗保健服务,医药保健销售店,医疗保健用品,
116.15773161693593,40.04743309804199,北京老年医院,温泉路118号,北京市,北京市,,医疗保健服务;综合医院;综合医院,090100,B000A7PTMD,医疗保健服务,综合医院,综合医院,
116.17399435093019,40.04029473145819,内科诊所,[],北京市,北京市,,医疗保健服务;专科医院;专科医院,090200,B0HBA5OVA5,医疗保健服务,专科医院,专科医院,
116.17405953452247,40.04027885235147,内科,[],北京市,北京市,,医疗保健服务;专科医院;专科医院,090200,B0HB15G4FG,医疗保健服务,专科医院,专科医院,
116.15864319368433,40.04730278875084,北京老年医院住院服务中心,温泉路118号北京老年医院,北京市,北京市,,医疗保健服务;综合医院;综合医院,090100,B0FFFWRLQR,医疗保健服务,综合医院,综合医院,
116.17419787831712,40.04060708996097,白家疃社区卫生服务站,温泉路与白家疃西路交叉路口往西南约50米,北京市,北京市,,医疗保健服务;综合医院;卫生院,090102,B000A7VKVU,医疗保健服务,综合医院,卫生院,
116.17406254201471,40.0402858575254,北京张忠义诊所,温泉镇白家疃路白家疃村382号,北京市,北京市,,医疗保健服务;诊所;诊所,090300,B0FFJRVYIP,医疗保健服务,诊所,诊所,
116.1746210768214,40.04043987713848,白家疃村卫生室,温泉路,北京市,北京市,,医疗保健服务;诊所;诊所,090300,B000A9Q59S,医疗保健服务,诊所,诊所,
116.17805531617172,40.04236104293283,优嘉口腔,温泉镇尚品园3号楼1层114,北京市,北京市,,医疗保健服务;专科医院;口腔医院,090202,B0FFHYEU0G,医疗保健服务,专科医院,口腔医院,
116.17277605074031,40.04740910387034,新北口腔(北辰香麓店),显龙山路19号1幢1层1座121号,北京市,北京市,,医疗保健服务;专科医院;口腔医院,090202,B0FFH12XGK,医疗保健服务,专科医院,口腔医院,
116.17542529327477,40.04056634641264,景贤敬德科技养生,温泉镇白家疃村委会东边,北京市,北京市,,医疗保健服务;医疗保健服务场所;医疗保健服务场所,090000,B0FFL5WDHA,医疗保健服务,医疗保健服务场所,医疗保健服务场所,
116.1795924050941,40.04320476881818,北京康益生大药房,叠风路与白家疃路交叉口西南150米,北京市,北京市,,医疗保健服务;医药保健销售店;药房,090601,B0FFH9TYZC,医疗保健服务,医药保健销售店,药房,
116.17960129315021,40.04428372735895,盛嘉口腔,温泉镇叠风路白家疃尚水园4号楼底商117室,北京市,北京市,,医疗保健服务;专科医院;口腔医院,090202,B0FFJC47N8,医疗保健服务,专科医院,口腔医院,
116.17571585160415,40.04251877594657,北京康益生大药房,温泉镇温泉路100号院101号,北京市,北京市,,医疗保健服务;医药保健销售店;药房,090601,B0HBTA1774,医疗保健服务,医药保健销售店,药房,
116.17125169345712,40.02434845218823,英师体能康复训练工作室,温泉白家疃簸箕水67号,北京市,北京市,,医疗保健服务;医疗保健服务场所;医疗保健服务场所,090000,B0FFI4FZLG,医疗保健服务,医疗保健服务场所,医疗保健服务场所,
116.17954438377767,40.042338728440434,扶正堂定制养生,温泉路白家疃尚品园120号,北京市,北京市,,医疗保健服务;医疗保健服务场所;医疗保健服务场所,090000,B0FFIASKAR,医疗保健服务,医疗保健服务场所,医疗保健服务场所,
116.17920878204883,40.03986825481234,京诚平安大药房,温泉路与白家疃路交叉口西南150米,北京市,北京市,,医疗保健服务;医药保健销售店;药房,090601,B000A9Q5TR,医疗保健服务,医药保健销售店,药房,
116.17980332403194,40.04046229137649,美鸿健康咨询,温泉路附近,北京市,北京市,,医疗保健服务;医疗保健服务场所;医疗保健服务场所,090000,B0FFL5WDRM,医疗保健服务,医疗保健服务场所,医疗保健服务场所,
116.16625083191919,40.046150023465074,北京阿黛尔动物医院,温泉镇温泉路67号院1号楼103.104,北京市,北京市,,医疗保健服务;动物医疗场所;宠物诊所,090701,B0G2LHLX8E,医疗保健服务,动物医疗场所,宠物诊所,
116.1855853703819,40.043412296919044,北京名一口腔门诊部,叠风路15号院17号楼1层104号(福溪家园底商),北京市,北京市,,医疗保健服务;专科医院;口腔医院,090202,B0FFIE3OZL,医疗保健服务,专科医院,口腔医院,
116.17814356357935,40.04231620498893,艾灸馆,白家疃尚品园3,北京市,北京市,,医疗保健服务;医疗保健服务场所;医疗保健服务场所,090000,B0FFJ7AYED,医疗保健服务,医疗保健服务场所,医疗保健服务场所,
116.17987752810012,40.04044142543675,诊所,温泉路与白家疃路交叉口南100米,北京市,北京市,,医疗保健服务;诊所;诊所,090300,B0FFJKIRYF,医疗保健服务,诊所,诊所,
116.17179728215254,40.047624279537416,健康平安大药房(显龙山路店),温泉镇显龙山路19号1栋一层1座,北京市,北京市,,医疗保健服务;医药保健销售店;药房,090601,B0FFFZDDV3,医疗保健服务,医药保健销售店,药房,
116.16714610923628,40.048159587118136,北京北清诊所,凯盛家园商业街一区5号,北京市,北京市,,医疗保健服务;诊所;诊所,090300,B0FFLHYJFZ,医疗保健服务,诊所,诊所,
116.1786278039896,40.04298404462541,妙巴黎皮肤健康管理中心,叠风路尚品园2号楼2单元205室,北京市,北京市,,医疗保健服务;医疗保健服务场所;医疗保健服务场所,090000,B0FFK945UZ,医疗保健服务,医疗保健服务场所,医疗保健服务场所,
116.17965337212115,40.04477979428144,北京渊大口腔门诊部,温泉镇白家疃尚水园四号楼一层108室渊大口腔,北京市,北京市,,医疗保健服务;专科医院;口腔医院,090202,B0GUYM3NL5,医疗保健服务,专科医院,口腔医院,
116.17850944102706,40.04329681439318,美迦友爱动物诊所(温泉店),温泉镇白家疃尚品园2号楼1层113室,北京市,北京市,,医疗保健服务;动物医疗场所;宠物诊所,090701,B0FFI3IN2S,医疗保健服务,动物医疗场所,宠物诊所,
116.17956735098824,40.04309372973975,益康生大药房(尚水店),叠风路与白家疃路交叉口西南150米,北京市,北京市,,医疗保健服务;医药保健销售店;药房,090601,B0FFJC456P,医疗保健服务,医药保健销售店,药房,
116.16741595425434,40.04751012655993,大药房,双坡路与御风路交叉口西北200米,北京市,北京市,,医疗保健服务;医药保健销售店;药房,090601,B0FFJGJAQ6,医疗保健服务,医药保健销售店,药房,
116.1858941880182,40.04331883179806,北京马万顺中医诊所,叠风路15号院15号楼,北京市,北京市,,医疗保健服务;诊所;诊所,090300,B0FFGPZB00,医疗保健服务,诊所,诊所,
116.15845269801238,40.04698945353112,老年综合评估服务中心,温泉路(北京老年医院),北京市,北京市,,医疗保健服务;医疗保健服务场所;医疗保健服务场所,090000,B0HG6SD8KF,医疗保健服务,医疗保健服务场所,医疗保健服务场所,
116.18469307306783,40.043078775581456,杨家庄社区卫生服务站,[],北京市,北京市,,医疗保健服务;综合医院;卫生院,090102,B0G0GLKTYP,医疗保健服务,综合医院,卫生院,
116.18432090136854,40.03665846425802,国康安迪国际健康管理中心,温泉镇白家疃东路临12号一号楼一层1106,北京市,北京市,,医疗保健服务;医药保健销售店;医疗保健用品,090602,B0HGMHY8ZC,医疗保健服务,医药保健销售店,医疗保健用品,
116.182728990702,40.042119399386245,温泉镇新冠疫苗临时接种点,[],北京市,北京市,,医疗保健服务;医疗保健服务场所;医疗保健服务场所,090000,B0HAUUT6AX,医疗保健服务,医疗保健服务场所,医疗保健服务场所,
116.15876651858865,40.04747500752428,北京急救中心海淀分中心温泉急救站,北京老年医院,北京市,北京市,,医疗保健服务;专科医院;专科医院,090200,B0FFM0OPD4,医疗保健服务,专科医院,专科医院,
116.16046803844418,40.04962704503733,嘉事堂药店永德康正,温泉路118号(近北京老年医院),北京市,北京市,,医疗保健服务;医药保健销售店;药房,090601,B0GKGS5K39,医疗保健服务,医药保健销售店,药房,
116.18416722178772,40.03883408545153,天兰社区新生活中心平安中药房,温泉镇温泉路临58号一层108.109号天兰新生活中心,北京市,北京市,,医疗保健服务;医药保健销售店;药房,090601,B0FFLEMZUE,医疗保健服务,医药保健销售店,药房,
116.1590201776037,40.04790445362898,北京老年医院-狂犬疫苗接种门诊,温泉镇温泉路118号,北京市,北京市,,医疗保健服务;医疗保健服务场所;医疗保健服务场所,090000,B0FFJ491T6,医疗保健服务,医疗保健服务场所,医疗保健服务场所,
116.15214363470895,40.050934719527,温泉村社区卫生服务站,山口路与温泉路交叉路口往西北约200米,北京市,北京市,,医疗保健服务;诊所;诊所,090300,B0FFMD00SS,医疗保健服务,诊所,诊所,
116.15904120805125,40.05600503953381,北京新医源大药房,温阳路与跃进路交叉口东100米,北京市,北京市,,医疗保健服务;医药保健销售店;药房,090601,B0FFH9TPS7,医疗保健服务,医药保健销售店,药房,
116.16514472335292,40.053873529549776,百姓平安大药房,温泉镇中国铁建环保嘉苑17号院,北京市,北京市,,医疗保健服务;医疗保健服务场所;医疗保健服务场所,090000,B0FFKDTOJ8,医疗保健服务,医疗保健服务场所,医疗保健服务场所,
116.17315395316848,40.05653629174233,北京创享口腔门诊部,地锦路5号1幢1层101号,北京市,北京市,,医疗保健服务;诊所;诊所,090300,B0FFIXMUUY,医疗保健服务,诊所,诊所,
116.16522966103544,40.056261552121484,道菩健康馆,地锦路环保嘉苑13号院底商107道菩健康馆,北京市,北京市,,医疗保健服务;医药保健销售店;医疗保健用品,090602,B0HAFMT1UN,医疗保健服务,医药保健销售店,医疗保健用品,
116.16797152367066,40.05540972349151,安笑德康大药房,紫雀路55号院院内一层,北京市,北京市,,医疗保健服务;医药保健销售店;药房,090601,B0FFLB10Q9,医疗保健服务,医药保健销售店,药房,
116.16515376351308,40.053758552947784,北京源通百姓平安大药房有限公司第五十分公司,秋枫路17号院2号楼1单元102,北京市,北京市,,医疗保健服务;医药保健销售店;药房,090601,B0FFKDGH6N,医疗保健服务,医药保健销售店,药房,
116.18890338523758,39.99197930608131,WA臻景医疗,香山买卖街40号,北京市,北京市,香山,医疗保健服务;医疗保健服务场所;医疗保健服务场所,090000,B0FFJ98XBC,医疗保健服务,医疗保健服务场所,医疗保健服务场所,
116.19194469638376,39.99434018970874,圣秷轩,碧云寺路13附近,北京市,北京市,香山,医疗保健服务;医药保健销售店;医疗保健用品,090602,B0FFHBBZ6T,医疗保健服务,医药保健销售店,医疗保健用品,
116.19188782018283,39.992236185904474,迦南疗养中心(北京香山店),枫林路北200米,北京市,北京市,香山,医疗保健服务;医疗保健服务场所;医疗保健服务场所,090000,B0FFH0FPEQ,医疗保健服务,医疗保健服务场所,医疗保健服务场所,
116.19237841091795,39.941272997854774,中国医学科学院整形外科医院,八大处路33号(近北京射击场),北京市,北京市,西山,医疗保健服务;专科医院;整形美容,090201,B000A8316D,医疗保健服务,专科医院,整形美容,
116.17826601306756,39.93018621195184,苹果园社区卫生服务中心,苹果园大街86号小白羊超市斜对面,北京市,北京市,石景山,医疗保健服务;综合医院;卫生院,090102,B000A8TZKN,医疗保健服务,综合医院,卫生院,
116.174264332526,39.935323702346935,刘娘府社区卫生服务站,[],北京市,北京市,石景山,医疗保健服务;综合医院;卫生院,090102,B0FFGK7U1S,医疗保健服务,综合医院,卫生院,
116.17300687080329,39.93500039571319,昊德口腔,西山奥园九号院九号楼4号、5号,北京市,北京市,石景山,医疗保健服务;专科医院;口腔医院,090202,B0GK771HBD,医疗保健服务,专科医院,口腔医院,
116.15509448372785,39.935163116715074,北京石景山模式口中医医院,模式口大街甲48号,北京市,北京市,金顶街,医疗保健服务;综合医院;综合医院,090100,B000A809MO,医疗保健服务,综合医院,综合医院,
116.16113549100507,39.92660460704001,兴安口腔,金顶北路18号院7栋1层106号,北京市,北京市,金顶街,医疗保健服务;诊所;诊所,090300,B000AA1C4W,医疗保健服务,诊所,诊所,
116.15945770936817,39.934983155326584,北京元合医疗美容诊所,模式口大街20号,北京市,北京市,,医疗保健服务;专科医院;整形美容,090201,B0HGNRM1G0,医疗保健服务,专科医院,整形美容,
116.18163618121064,39.921893582648934,杨庄社区卫生服务站(杨庄路),杨庄西路3号,北京市,北京市,古城,医疗保健服务;综合医院;卫生院,090102,B000A666A4,医疗保健服务,综合医院,卫生院,
116.18806013348727,39.913021052595965,石景山区中医医院,八角北路,北京市,北京市,石景山,医疗保健服务;综合医院;综合医院,090100,B000A23E82,医疗保健服务,综合医院,综合医院,
116.17315027542331,39.93496466212843,厚德安康大药房(刘娘府店),刘娘府路9号院9号楼底商6号,北京市,北京市,石景山,医疗保健服务;医药保健销售店;药房,090601,B0FFLO1V4S,医疗保健服务,医药保健销售店,药房,
116.1543549656427,39.93094193734767,路安康中医医院,模式口南里临丁9号,北京市,北京市,金顶街,医疗保健服务;综合医院;综合医院,090100,B0FFHK0JOD,医疗保健服务,综合医院,综合医院,
116.15905212525496,39.930583579122626,北京市社区卫生服务,金顶北路(模式口中里),北京市,北京市,金顶街,医疗保健服务;综合医院;卫生院,090102,B0G0798MJ3,医疗保健服务,综合医院,卫生院,
116.16127384882964,39.92685985423798,艾灸馆(石景山分店),金顶北路18号院6栋1层,北京市,北京市,金顶街,医疗保健服务;医疗保健服务场所;医疗保健服务场所,090000,B0FFHK0KH9,医疗保健服务,医疗保健服务场所,医疗保健服务场所,
116.16350735833896,39.93315676644565,模东社区卫生服务站,金顶北街模式口东里模五居民区,北京市,北京市,金顶街,医疗保健服务;综合医院;卫生院,090102,B000AA1CUN,医疗保健服务,综合医院,卫生院,
116.15513447371478,39.9282144671327,金顶街社区卫生服务中心,金顶北路22号院-1,北京市,北京市,金顶街,医疗保健服务;综合医院;卫生院,090102,B000A8X6L6,医疗保健服务,综合医院,卫生院,
116.18446480050966,39.93702193537309,北京八大处中西医结合医院,实兴大街11号,北京市,北京市,石景山,医疗保健服务;综合医院;综合医院,090100,B0FFGH4UL9,医疗保健服务,综合医院,综合医院,
116.18017872631675,39.910164476758496,北京古城都市丽人医院,古城大街37号,北京市,北京市,石景山,医疗保健服务;综合医院;综合医院,090100,B000A8X7UG,医疗保健服务,综合医院,综合医院,
116.14900729210076,39.93118734706452,嘉事堂药店(模式口店),模式口西里临甲27号,北京市,北京市,金顶街,医疗保健服务;医药保健销售店;药房,090601,B000A807YW,医疗保健服务,医药保健销售店,药房,
116.18750153496416,39.93832008391864,赵玉明医疗美容诊所,实兴大街30号院西山汇3号楼107室,北京市,北京市,石景山,医疗保健服务;专科医院;整形美容,090201,B0FFH0328B,医疗保健服务,专科医院,整形美容,
116.15875729354832,39.930613032210786,赵山社区卫生服务站,石景山街道赵山宿舍院内,北京市,北京市,金顶街,医疗保健服务;综合医院;卫生院,090102,B000A877EN,医疗保健服务,综合医院,卫生院,
116.18910896549579,39.94365956685301,首都医科大学附属北京康复医院,八大处西下庄,北京市,北京市,西山,医疗保健服务;综合医院;综合医院,090100,B000A8XNSU,医疗保健服务,综合医院,综合医院,
116.17657281429966,39.92662428041206,苹果园四区社区卫生服务站,苹果园中路15号院甲单元,北京市,北京市,石景山,医疗保健服务;综合医院;卫生院,090102,B0FFIHJ9J8,医疗保健服务,综合医院,卫生院,
116.18486342161783,39.93244480768549,海特花园社区卫生服务站,实兴大街海特花园45号楼1单元101-102室,北京市,北京市,石景山,医疗保健服务;综合医院;卫生院,090102,B0FFFAE6IX,医疗保健服务,综合医院,卫生院,
116.15789838886636,39.92662160553525,宝馨口腔,金顶北路20号院9栋1层112室,北京市,北京市,金顶街,医疗保健服务;专科医院;口腔医院,090202,B000AA1CQU,医疗保健服务,专科医院,口腔医院,
116.17942177104707,39.93330517064073,西井达爱动物医院,西井路19号院3号楼2层201号211、212室,北京市,北京市,石景山,医疗保健服务;动物医疗场所;宠物诊所,090701,B0GRRSIN38,医疗保健服务,动物医疗场所,宠物诊所,
116.17926229870473,39.93361487165863,北京御同堂门诊部,西井路19号院宏开花园内2号楼B6,北京市,北京市,西山,医疗保健服务;医疗保健服务场所;医疗保健服务场所,090000,B0FFKFPMK3,医疗保健服务,医疗保健服务场所,医疗保健服务场所,
116.16087375328041,39.926605120080225,格蕾医生宠物医院,金顶北路18号院7号楼101,北京市,北京市,金顶街,医疗保健服务;动物医疗场所;宠物诊所,090701,B0FFG8B6OP,医疗保健服务,动物医疗场所,宠物诊所,
116.16102915711382,39.92687539825476,华夏益康养生馆,金顶北路18号院6栋1层底商112号,北京市,北京市,金顶街,医疗保健服务;医疗保健服务场所;医疗保健服务场所,090000,B0FFHI5392,医疗保健服务,医疗保健服务场所,医疗保健服务场所,
116.14645180280996,39.9362566908331,北京联科中医肾病医院,石门路模式口西102号,北京市,北京市,,医疗保健服务;综合医院;综合医院,090100,B0FFGZJ68B,医疗保健服务,综合医院,综合医院,
116.16351839597301,39.925177107431196,诚安堂药房(金顶街店),金顶北街68号(近金顶街三区居民楼),北京市,北京市,金顶街,医疗保健服务;医药保健销售店;药房,090601,B000A8778X,医疗保健服务,医药保健销售店,药房,
116.16555315761198,39.925070913345444,养生保健,金顶路附近,北京市,北京市,石景山,医疗保健服务;医疗保健服务场所;医疗保健服务场所,090000,B0FFL3YIDJ,医疗保健服务,医疗保健服务场所,医疗保健服务场所,
116.1904526353696,39.92536751248385,弘济药店(第三分店),杨庄东街杨庄北区52号楼1层52-9号,北京市,北京市,石景山,医疗保健服务;医药保健销售店;药房,090601,B000A87BRK,医疗保健服务,医药保健销售店,药房,
116.17843559069213,39.913340208673276,双桥正骨,古城西路15号,北京市,北京市,石景山,医疗保健服务;专科医院;骨科医院,090206,B000AA0NAK,医疗保健服务,专科医院,骨科医院,
116.15868533497769,39.9286859763469,北京厚德安康大药房(金顶北路),金顶北路赵山小区商业用房3号楼,北京市,北京市,金顶街,医疗保健服务;医药保健销售店;药房,090601,B0FFG96IC9,医疗保健服务,医药保健销售店,药房,
116.17029356721072,39.924702775496264,北京佳景爱小心门诊部,苹果园路28号院3号楼(中铁创业大厦C座),北京市,北京市,石景山,医疗保健服务;医疗保健服务场所;医疗保健服务场所,090000,B0FFJ9VJ4U,医疗保健服务,医疗保健服务场所,医疗保健服务场所,
116.19204909166183,39.91337759902708,日新口腔诊所,八角西街61号院西二楼一层,北京市,北京市,石景山,医疗保健服务;专科医院;口腔医院,090202,B000A876O7,医疗保健服务,专科医院,口腔医院,
116.1820137387313,39.933485783156975,新兴药房(石景山店),西井路15号(海特花园北门对面),北京市,北京市,石景山,医疗保健服务;医药保健销售店;药房,090601,B0FFH1SY4H,医疗保健服务,医药保健销售店,药房,
116.15126056583779,39.929998393038844,广德乾口腔·中医诊所,G109(京拉线),北京市,北京市,金顶街,医疗保健服务;专科医院;口腔医院,090202,B0FFM4WQWY,医疗保健服务,专科医院,口腔医院,
116.19231361474736,39.9143869813875,嘉事堂药店(八角北路药店),八角西街41号,北京市,北京市,石景山,医疗保健服务;医药保健销售店;药房,090601,B000A7WT5Q,医疗保健服务,医药保健销售店,药房,
116.17813266384408,39.930063975638625,苹果园社区卫生服务中心-预防接种门诊,苹果园大街86号,北京市,北京市,石景山,医疗保健服务;诊所;诊所,090300,B0GU3XLTU7,医疗保健服务,诊所,诊所,
116.19159274812749,39.94710250454731,解放军总医院京西医疗区,八大处路甲1号院,北京市,北京市,西山,医疗保健服务;综合医院;综合医院,090100,B000A8XMKF,医疗保健服务,综合医院,综合医院,
116.18194303940005,39.92160613753566,北京市石景山区杨庄医院,杨庄西路临3号,北京市,北京市,石景山,医疗保健服务;综合医院;综合医院,090100,B0FFGXYPQ9,医疗保健服务,综合医院,综合医院,
116.16128287604492,39.92684587160535,分忧堂艾灸馆,金顶街5号附近,北京市,北京市,金顶街,医疗保健服务;医药保健销售店;医疗保健用品,090602,B0GKJSXMFP,医疗保健服务,医药保健销售店,医疗保健用品,
116.18545707221536,39.93167286246567,爵冠囗腔(石景山店),海特花园57号楼底商,北京市,北京市,石景山,医疗保健服务;专科医院;口腔医院,090202,B0G2YCRC22,医疗保健服务,专科医院,口腔医院,
116.17112607639297,39.92333237904479,北京云全智得汇总部基地,苹果园西小街19号院2号楼宏坤盛通大厦2层,北京市,北京市,石景山,医疗保健服务;专科医院;整形美容,090201,B0FFKL3Z8Y,医疗保健服务,专科医院,整形美容,
116.14618811855176,39.93613324139176,北京市中西医结合肾脏疑难病会诊中心,模式口西里102号,北京市,北京市,,医疗保健服务;专科医院;专科医院,090200,B000A8XMVM,医疗保健服务,专科医院,专科医院,
116.17105587865834,39.92333924835718,北京云全医疗美容门诊部,苹果园西小街19号院1号楼2层202-207号,北京市,北京市,石景山,医疗保健服务;诊所;诊所,090300,B0HAUAPG5K,医疗保健服务,诊所,诊所,
116.15458320363923,39.92615654503909,北京杰鹏口腔医院,金顶西街36-16,北京市,北京市,金顶街,医疗保健服务;专科医院;口腔医院,090202,B0FFHBBSGB,医疗保健服务,专科医院,口腔医院,
116.18553026139736,39.93168798774242,爵冠口腔,实兴大街与西井路交叉路口往南约100米(海特花园),北京市,北京市,石景山,医疗保健服务;专科医院;口腔医院,090202,B0FFGF88I5,医疗保健服务,专科医院,口腔医院,
116.18995484832817,39.929683520615434,同生堂药店(苹果园南路),苹果园东口西井14号,北京市,北京市,石景山,医疗保健服务;医药保健销售店;药房,090601,B000A73BCA,医疗保健服务,医药保健销售店,药房,
116.15717133344816,39.926782259088085,喜来健,金顶北路20号院8栋102,北京市,北京市,,医疗保健服务;医药保健销售店;医疗保健用品,090602,B0HB2AWLTF,医疗保健服务,医药保健销售店,医疗保健用品,
116.19238881977653,39.922219777557515,惜娜医疗美容诊所,杨庄东路西城忆树1号楼北侧底商惜娜医疗美容整形机构,北京市,北京市,石景山,医疗保健服务;专科医院;整形美容,090201,B0FFHBAL76,医疗保健服务,专科医院,整形美容,
116.15763063787774,39.92663011133715,北京贝视明眼睛养护中心,金顶北路20号院9栋一层110号,北京市,北京市,金顶街,医疗保健服务;医药保健销售店;医疗保健用品,090602,B0FFLHFFBM,医疗保健服务,医药保健销售店,医疗保健用品,
116.1513087054145,39.92993548163537,广德乾中医,模式口西里1-10号美天快捷支付宾馆4号,北京市,北京市,金顶街,医疗保健服务;诊所;诊所,090300,B0FFKRYU2L,医疗保健服务,诊所,诊所,
116.15385977251374,39.92953709402026,北京麦迪森大药房,石门路与金顶北路交叉路口往东北约100米,北京市,北京市,,医疗保健服务;医药保健销售店;药房,090601,B0HBRP3E8T,医疗保健服务,医药保健销售店,药房,
116.15878911050943,39.92485232307911,美联众合动物医院和瑞分院,金顶北路20号院19栋1层104号,北京市,北京市,金顶街,医疗保健服务;动物医疗场所;宠物诊所,090701,B0GK1ZVX1U,医疗保健服务,动物医疗场所,宠物诊所,
116.15380562976249,39.92948199800861,平价药房,石门路辅路,北京市,北京市,金顶街,医疗保健服务;医药保健销售店;药房,090601,B0HBXBO2LE,医疗保健服务,医药保健销售店,药房,
116.15797357779813,39.92679373734867,无限极(金顶北路20号院店),金顶北路20号院8栋1层114,北京市,北京市,金顶街,医疗保健服务;医药保健销售店;医疗保健用品,090602,B000A9K4Y0,医疗保健服务,医药保健销售店,医疗保健用品,
116.18545405456113,39.93175085415625,北京海特口腔医院管理有限公司,实兴大街海特花园57栋1层2-A号,北京市,北京市,石景山,医疗保健服务;专科医院;口腔医院,090202,B0FFHGKBLT,医疗保健服务,专科医院,口腔医院,
116.15382567861678,39.929534032289666,天马健康管理会所,石门路与金顶北路交叉口北100米,北京市,北京市,,医疗保健服务;医疗保健服务场所;医疗保健服务场所,090000,B0FFHK0KH8,医疗保健服务,医疗保健服务场所,医疗保健服务场所,
116.15127059477084,39.92998641144896,广德乾大药房,模式口西里1-10号美天快捷宾馆10号,北京市,北京市,金顶街,医疗保健服务;医药保健销售店;药房,090601,B0FFM5WRK2,医疗保健服务,医药保健销售店,药房,
116.1585311635552,39.92661777452065,乐目堂养眼(石景山金顶街二小店),金顶北路20号院柳青园,北京市,北京市,金顶街,医疗保健服务;医疗保健服务场所;医疗保健服务场所,090000,B0FFKVYJOU,医疗保健服务,医疗保健服务场所,医疗保健服务场所,
116.15523625867192,39.92424381345346,王雅平口腔镶复诊所,首钢六宿舍四号楼1层,北京市,北京市,金顶街,医疗保健服务;专科医院;口腔医院|医疗保健服务;诊所;诊所,090202|090300,B0FFHBBL59,医疗保健服务,专科医院,口腔医院|医疗保健服务,诊所
116.15551652039989,39.92833816017455,金顶街社区卫生服务中心-预防接种门诊,金顶北路22-1号,北京市,北京市,金顶街,医疗保健服务;诊所;诊所,090300,B0GUX1A84P,医疗保健服务,诊所,诊所,
116.1543906221303,39.926533179325695,嘉事堂药房(金顶街西口店),金顶西街24号京客隆超市旁(金景街一区西北),北京市,北京市,金顶街,医疗保健服务;医药保健销售店;药房,090601,B0FFFOZYV4,医疗保健服务,医药保健销售店,药房,
116.1855383242916,39.93135401496031,全新同梦堂药店,实兴大街136-9号,北京市,北京市,石景山,医疗保健服务;医药保健销售店;药房,090601,B000A0DE33,医疗保健服务,医药保健销售店,药房,
116.19219025535891,39.94681847835889,京西医院门诊楼,东下庄路与八大处路交叉口西100米,北京市,北京市,西山,医疗保健服务;综合医院;综合医院,090100,B0FFHG7KJB,医疗保健服务,综合医院,综合医院,
116.16102013066606,39.92688338113908,福宠阁动物诊所,金顶北路18号院6栋7号,北京市,北京市,金顶街,医疗保健服务;动物医疗场所;宠物诊所,090701,B000A9QRMY,医疗保健服务,动物医疗场所,宠物诊所,
116.18007859505862,39.91702500942871,诚安堂药房(杨庄店),杨庄大街85-2号,北京市,北京市,石景山,医疗保健服务;医药保健销售店;药房,090601,B000A5F3CD,医疗保健服务,医药保健销售店,药房,
116.164611906719,39.92183228617769,金象大药房(喜隆多购物中心店),阜石路300号喜隆多新国际购物中心F1层,北京市,北京市,石景山,医疗保健服务;医药保健销售店;药房,090601,B0FFHACGN6,医疗保健服务,医药保健销售店,药房,
116.15130870109765,39.92996948026557,广德乾口腔诊所,模式口西里1-10号美天快捷宾馆10号,北京市,北京市,金顶街,医疗保健服务;医药保健销售店;药房,090601,B0FFIWQ2OC,医疗保健服务,医药保健销售店,药房,
116.1461790989483,39.93609922721621,北京中西医结合肾脏疑难病会诊中心联科医院-门诊楼,石门路模式口西102号,北京市,北京市,金顶街,医疗保健服务;综合医院;综合医院,090100,B0FFINMQQ1,医疗保健服务,综合医院,综合医院,
116.19217632891599,39.92197844665689,宠缘动物医院(杨庄东街),杨庄东街28号西成忆树底商4号(近首钢篮球馆),北京市,北京市,石景山,医疗保健服务;动物医疗场所;宠物诊所,090701,B000A24BC1,医疗保健服务,动物医疗场所,宠物诊所,
116.18362185866401,39.91082853691683,古城社区卫生服务中心(古城路30号院西),古城南路与古城小街交汇处东北150米,北京市,北京市,石景山,医疗保健服务;综合医院;卫生院,090102,B000A325A1,医疗保健服务,综合医院,卫生院,
116.18055233022103,39.9532404112778,八大处公园献血点,八大处西门停车场,北京市,北京市,,医疗保健服务;医疗保健服务场所;医疗保健服务场所,090000,B0FFJD8WRM,医疗保健服务,医疗保健服务场所,医疗保健服务场所,
116.18320776909547,39.9107658152325,古城社区卫生服务中心,古城南路与古城小街交叉口北150米,北京市,北京市,古城,医疗保健服务;综合医院;卫生院,090102,B0FFHTM1XE,医疗保健服务,综合医院,卫生院,
116.18278333589649,39.913200967576884,泰康医院健康体检中心,古城小街1号,北京市,北京市,石景山,医疗保健服务;综合医院;综合医院,090100,B0FFK5PZ97,医疗保健服务,综合医院,综合医院,
116.18810723891899,39.913140126689726,石景山区中医医院-医疗综合楼,古城东街与八角路交叉路口往东北约100米,北京市,北京市,石景山,医疗保健服务;综合医院;综合医院,090100,B0FFH16Z27,医疗保健服务,综合医院,综合医院,
116.18457802144091,39.92167774861428,北京市石景山区社会福利院医务室,杨庄路17号,北京市,北京市,古城,医疗保健服务;诊所;诊所,090300,B0FFJRTPB5,医疗保健服务,诊所,诊所,
116.1882014850053,39.91309628669691,北京市石景山区中医医院门诊,石景山区八角北路北京市石景山区中医医院内,北京市,北京市,石景山,医疗保健服务;综合医院;综合医院,090100,B0FFGPSOS2,医疗保健服务,综合医院,综合医院,
116.1585082849099,39.92514879163905,恒信百姓大药房,金顶北路18号院,北京市,北京市,金顶街,医疗保健服务;医药保健销售店;药房,090601,B000A8X7RD,医疗保健服务,医药保健销售店,药房,
116.19218231710627,39.92219044759318,将军坊养生(杨庄东街店),"杨庄东街28号西成忆树1号楼底商(首钢篮球馆路南,今尊大厦对面)",北京市,北京市,石景山,医疗保健服务;医疗保健服务场所;医疗保健服务场所,090000,B0GRTZET57,医疗保健服务,医疗保健服务场所,医疗保健服务场所,
116.17891312744594,39.9114701491563,众齿口腔,古城西路甲8号如意小区院内2号综合楼一区一层1区1号,北京市,北京市,古城,医疗保健服务;专科医院;口腔医院,090202,B0FFH4BDQL,医疗保健服务,专科医院,口腔医院,
116.18910842569574,39.92399934996214,博雅口腔门诊部(当代商城),阜石路165号当代商城(鼎城店)F1,北京市,北京市,石景山,医疗保健服务;医疗保健服务场所;医疗保健服务场所,090000,B0G29UPJ91,医疗保健服务,医疗保健服务场所,医疗保健服务场所,
116.18122706787928,39.91403618218606,张丽华中医诊所,古城北路5号楼一层西侧4号,北京市,北京市,古城,医疗保健服务;诊所;诊所,090300,B0G0799IB7,医疗保健服务,诊所,诊所,
116.14759535452525,39.932299830149894,石景山区金顶街街道模西社区卫生服务站,模式口西里社区15号楼对面,北京市,北京市,金顶街,医疗保健服务;专科医院;专科医院,090200,B0FFF3NMZA,医疗保健服务,专科医院,专科医院,
116.14623323859671,39.93613031917542,北京中医药大学联科中医肾病医院急诊,石门路模式口西102号,北京市,北京市,,医疗保健服务;医疗保健服务场所;医疗保健服务场所,090000,B0FFIX2AZI,医疗保健服务,医疗保健服务场所,医疗保健服务场所,
116.17261347675307,39.9134925437043,瑶圣堂中医,古城街道古城西路113号1层景山财富中心A座底商,北京市,北京市,石景山,医疗保健服务;医疗保健服务场所;医疗保健服务场所,090000,B0FFKEMGBD,医疗保健服务,医疗保健服务场所,医疗保健服务场所,
116.18857794633688,39.92506442261102,仙妮蕾德,阜石路165-22号附近,北京市,北京市,石景山,医疗保健服务;医药保健销售店;医疗保健用品,090602,B0FFIS7EYZ,医疗保健服务,医药保健销售店,医疗保健用品,
116.19218561426764,39.9278752219673,北京市石景山外语实验小学卫生室,杨庄东街首钢黄南苑小区,北京市,北京市,石景山,医疗保健服务;诊所;诊所,090300,B0FFJRT6SK,医疗保健服务,诊所,诊所,
116.19115613027068,39.92742057725401,回收高档礼品茅台酒冬虫夏草,杨庄东街21-7号附近,北京市,北京市,石景山,医疗保健服务;医疗保健服务场所;医疗保健服务场所,090000,B0FFKHIWJV,医疗保健服务,医疗保健服务场所,医疗保健服务场所,
116.18788641516285,39.9152116686488,八角北路社区卫生服务站,八角北路八角社区17号楼北侧,北京市,北京市,古城,医疗保健服务;综合医院;卫生院,090102,B000A9V67V,医疗保健服务,综合医院,卫生院,
116.18578578341958,39.916873029641124,惠友堂药店(惠友堂店),古城北路1号,北京市,北京市,古城,医疗保健服务;医药保健销售店;药房,090601,B0FFG3BU9Q,医疗保健服务,医药保健销售店,药房,
116.17827438731084,39.911451996933366,英华健康,古城西路甲8号如意公寓1层8号,北京市,北京市,石景山,医疗保健服务;医疗保健服务场所;医疗保健服务场所,090000,B0FFHC3NUR,医疗保健服务,医疗保健服务场所,医疗保健服务场所,
116.18954793695654,39.92079420980795,中医理疗,八角西街八角北里40号楼,北京市,北京市,石景山,医疗保健服务;医疗保健服务场所;医疗保健服务场所,090000,B0FFJH5RX7,医疗保健服务,医疗保健服务场所,医疗保健服务场所,
116.1683010289989,39.91620741066981,达慧堂药房(石景山第67分店),悦兴街5号院12号1层101号,北京市,北京市,古城,医疗保健服务;医药保健销售店;药房,090601,B0G0BB03DH,医疗保健服务,医药保健销售店,药房,
116.18841600025577,39.921340303722076,百姓平安药房(御杨店),杨庄中区16号楼一层16-3,北京市,北京市,古城,医疗保健服务;医药保健销售店;药房,090601,B0FFL4FWL3,医疗保健服务,医药保健销售店,药房,
116.1464047194821,39.93592762266193,北京中西医结合肾脏疑难病会诊中心联科肾病医院急诊,模式口西里102号附近,北京市,北京市,,医疗保健服务;医疗保健服务场所;医疗保健服务场所,090000,B0FFHWL7EV,医疗保健服务,医疗保健服务场所,医疗保健服务场所,
116.18991970505652,39.92213176876223,杨庄中区社区服务站,杨庄中区一号楼西侧平房,北京市,北京市,石景山,医疗保健服务;综合医院;卫生院,090102,B0FFF5G66N,医疗保健服务,综合医院,卫生院,
116.1855363110181,39.931418008939175,圣医坊诊所,实兴大街136-8号,北京市,北京市,石景山,医疗保健服务;诊所;诊所,090300,B000AA0LF2,医疗保健服务,诊所,诊所,
116.189380451545,39.92129691185341,体检室(杨庄南路),杨庄南路与杨庄路交叉口西南50米,北京市,北京市,石景山,医疗保健服务;医疗保健服务场所;医疗保健服务场所,090000,B0FFH179LQ,医疗保健服务,医疗保健服务场所,医疗保健服务场所,
116.17208197750804,39.913600554892156,瑞士峰力助听器旗舰中心,景山财富中心619,北京市,北京市,古城,医疗保健服务;医药保健销售店;医疗保健用品,090602,B0HD45I9E9,医疗保健服务,医药保健销售店,医疗保健用品,
116.14311089131033,39.937390970712116,北京联科中医肾病医院-住院部,模式口西102号,北京市,北京市,,医疗保健服务;专科医院;专科医院,090200,B0FFFE56YJ,医疗保健服务,专科医院,专科医院,
116.18579781625475,39.91686105078194,农科蜂产品(旗舰店),古城北路3附2号附近,北京市,北京市,石景山,医疗保健服务;医药保健销售店;医疗保健用品,090602,B0GUMR7QO0,医疗保健服务,医药保健销售店,医疗保健用品,
116.17896403450676,39.913316163025314,秀丝养生坊,古城街道首钢古城西路居民区古城西路10号西,北京市,北京市,古城,医疗保健服务;医疗保健服务场所;医疗保健服务场所,090000,B0FFFA8OZZ,医疗保健服务,医疗保健服务场所,医疗保健服务场所,
116.1858198739339,39.91685908869894,初心大药房(惠友堂店),古城北路1号(物资局东侧),北京市,北京市,古城,医疗保健服务;医药保健销售店;药房,090601,B0FFLE4MM6,医疗保健服务,医药保健销售店,药房,
116.19159418503045,39.9276582777647,弘济药店(第十二分店),杨庄东街6-3号,北京市,北京市,石景山,医疗保健服务;医药保健销售店;药房,090601,B000A879UL,医疗保健服务,医药保健销售店,药房,
116.19234174095851,39.9219277140883,特价大药房,[],北京市,北京市,石景山,医疗保健服务;医药保健销售店;药房,090601,B0G3YHVJYU,医疗保健服务,医药保健销售店,药房,
116.19234775757592,39.92191272434411,智慧药房(杨庄店),杨庄东街28号院1号楼1至2层3单元106号,北京市,北京市,石景山,医疗保健服务;医药保健销售店;药房,090601,B0FFMGR26R,医疗保健服务,医药保健销售店,药房,
116.18629050598129,39.91359203074475,百康大药房(古城药店),古城东街14号,北京市,北京市,古城,医疗保健服务;医药保健销售店;药房,090601,B0FFHZTDHO,医疗保健服务,医药保健销售店,药房,
116.18011402540525,39.914358184050336,康姿百德(石景山古城店),古城大街5号,北京市,北京市,石景山,医疗保健服务;医药保健销售店;医疗保健用品,090602,B0FFLOP5GT,医疗保健服务,医药保健销售店,医疗保健用品,
116.17172496161186,39.91373388735456,厚德安康大药房(北辛安店),古城西街113号景山财富中心,北京市,北京市,古城,医疗保健服务;医药保健销售店;药房,090601,B0FFMHP6L1,医疗保健服务,医药保健销售店,药房,
116.17646321469576,39.91306763879512,诚安堂药房(古城西路店),古城西路甲8号,北京市,北京市,石景山,医疗保健服务;医药保健销售店;药房,090601,B0FFGF5VM3,医疗保健服务,医药保健销售店,药房,
116.18316724522013,39.91408860406794,鼓城护理站,古城北路25号楼1层底商11号,北京市,北京市,石景山,医疗保健服务;医药保健销售店;医疗保健用品,090602,B0H67H3O8G,医疗保健服务,医药保健销售店,医疗保健用品,
116.18813029892877,39.91313116577937,狂犬病免疫门诊,八角路与古城东街交叉口北100米,北京市,北京市,古城,医疗保健服务;诊所;诊所,090300,B0FFJJZTOA,医疗保健服务,诊所,诊所,
116.19236780280794,39.92194375519128,叮当智慧药房(杨庄东街),杨庄东街28号院1号楼1-2层3单元106号,北京市,北京市,石景山,医疗保健服务;医药保健销售店;药房,090601,B0FFH2P6GN,医疗保健服务,医药保健销售店,药房,
116.17260475476031,39.91108662902436,平价大药房,古祥路与城兴街交叉路口西侧(长安雅苑东北侧),北京市,北京市,古城,医疗保健服务;医药保健销售店;药房,090601,B0FFMCJWWC,医疗保健服务,医药保健销售店,药房,
116.18796706377402,39.911676952921034,善颐堂,古城路甲65号底商,北京市,北京市,古城,医疗保健服务;医疗保健服务场所;医疗保健服务场所,090000,B0G23AA6U7,医疗保健服务,医疗保健服务场所,医疗保健服务场所,
116.19168584829914,39.91616789673127,足健行老北京专业修脚,八角北路与杨庄东街交叉口西100米,北京市,北京市,石景山,医疗保健服务;医疗保健服务场所;医疗保健服务场所,090000,B0FFKRRE48,医疗保健服务,医疗保健服务场所,医疗保健服务场所,
116.18123307462349,39.91411118971264,成人用品(古城路店),古城路31-1-301号附近,北京市,北京市,古城,医疗保健服务;医药保健销售店;医疗保健用品,090602,B0FFHQPX0I,医疗保健服务,医药保健销售店,医疗保健用品,
116.19220538146256,39.92212848715816,九乐成人用品24小时营业无人售货,杨庄东街28号西成忆树1号楼底商(将军坊养生旁侧),北京市,北京市,石景山,医疗保健服务;医疗保健服务场所;医疗保健服务场所,090000,B0GK7R2HNW,医疗保健服务,医疗保健服务场所,医疗保健服务场所,
116.17267093303872,39.911138749272276,厚德安康大药房(古城店),城兴街65号院7-105,北京市,北京市,古城,医疗保健服务;医药保健销售店;药房,090601,B0GDCD8A6N,医疗保健服务,医药保健销售店,药房,
116.19265703524972,39.91774439080591,华声听力助听器,时代花园南路23号院13号楼底商,北京市,北京市,石景山,医疗保健服务;医药保健销售店;医疗保健用品,090602,B0G3YCUR7L,医疗保健服务,医药保健销售店,医疗保健用品,
116.17064533212505,39.91057501541648,厚德安康大药房(景琪店),城兴街65号院10号1层101,北京市,北京市,古城,医疗保健服务;医药保健销售店;药房,090601,B0G2RAIOHW,医疗保健服务,医药保健销售店,药房,
116.19218602846874,39.91657368533918,保健品商店,八角街道杨庄小区29栋3号底商保健品商店,北京市,北京市,石景山,医疗保健服务;医药保健销售店;医疗保健用品,090602,B0FFL4CBU5,医疗保健服务,医药保健销售店,医疗保健用品,
116.1855152468569,39.91552562107231,北京教育科学研究院附属石景山实验学校卫生站,古城东街5号,北京市,北京市,石景山,医疗保健服务;诊所;诊所,090300,B0FFJRUFD2,医疗保健服务,诊所,诊所,
116.17709615722043,39.9114658593995,鼎延堂平价大药房(如意公寓店),古城西路甲8号如意小区院内2号综合楼4区20号,北京市,北京市,石景山,医疗保健服务;医药保健销售店;药房,090601,B0FFG8VHLJ,医疗保健服务,医药保健销售店,药房,
116.1879741525883,39.9111119887652,康乐伴无糖食品,古城南路1-7号,北京市,北京市,石景山,医疗保健服务;医药保健销售店;医疗保健用品,090602,B0FFMALWQM,医疗保健服务,医药保健销售店,医疗保健用品,
116.19220660819941,39.91233989585566,舒瞳视力矫正中心,首钢实业大厦星乐汇302室,北京市,北京市,石景山,医疗保健服务;医疗保健服务场所;医疗保健服务场所,090000,B0FFJPAHCF,医疗保健服务,医疗保健服务场所,医疗保健服务场所,
116.1831937346052,39.91074379157732,古城社区卫生服务中心免疫预防门诊,古城南路66附近,北京市,北京市,古城,医疗保健服务;综合医院;卫生院,090102,B0FFL3YIR4,医疗保健服务,综合医院,卫生院,
116.19211785835431,39.916595574927065,姓事良品(杨庄东街店),杨庄东街91-1号附近,北京市,北京市,石景山,医疗保健服务;医药保健销售店;医疗保健用品,090602,B0FFHTNZ77,医疗保健服务,医药保健销售店,医疗保健用品,
116.18336418672705,39.91074409003594,古城社区卫生服务中心-预防接种门诊,古城南路与古城小街交叉路口西侧(昂内天骄美地),北京市,北京市,石景山,医疗保健服务;诊所;诊所,090300,B0HG64C2KV,医疗保健服务,诊所,诊所,
116.18894122816504,39.91420147649164,八角街道残疾人辅助器具服务站,八角街道八角北路社区21栋西侧,北京市,北京市,古城,医疗保健服务;医疗保健服务场所;医疗保健服务场所,090000,B0FFJQPZ8S,医疗保健服务,医疗保健服务场所,医疗保健服务场所,
116.1813372562911,39.91489534190486,八千平社区卫生站,古城北路3号楼附近,北京市,北京市,古城,医疗保健服务;诊所;诊所,090300,B000AA1GC2,医疗保健服务,诊所,诊所,
116.19218751635755,39.912699850016,健生源,八角路与八角西街交叉路口西北侧,北京市,北京市,古城,医疗保健服务;医药保健销售店;药房,090601,B0G2CN6W14,医疗保健服务,医药保健销售店,药房,
116.19230878990363,39.91289103653294,净肤堂(石景山古城店),八角西街与八角路交叉口西北50米,北京市,北京市,古城,医疗保健服务;医疗保健服务场所;医疗保健服务场所,090000,B0FFISAWUF,医疗保健服务,医疗保健服务场所,医疗保健服务场所,
116.18806214851978,39.912942059307355,石景山区中医医院-狂犬疫苗接种门诊,八角北路,北京市,北京市,石景山,医疗保健服务;医疗保健服务场所;医疗保健服务场所,090000,B0FFJSCLOB,医疗保健服务,医疗保健服务场所,医疗保健服务场所,
116.1880531279758,39.912922044997785,石景山区中医医院-急诊,八角北路20号楼,北京市,北京市,石景山,医疗保健服务;医疗保健服务场所;医疗保健服务场所,090000,B000A9Q6CK,医疗保健服务,医疗保健服务场所,医疗保健服务场所,
116.19093256144609,39.91153686917239,百全毫米波治疗仪 (家用型销售点),八角路14号楼西侧永辉超市北侧,北京市,北京市,石景山,医疗保健服务;医疗保健服务场所;医疗保健服务场所,090000,B0FFFZJX04,医疗保健服务,医疗保健服务场所,医疗保健服务场所,
116.1923834607049,39.940974017720066,中国医学科学院整形外科医院南楼,八大处路33号中国医学科学院整形外科医院,北京市,北京市,西山,医疗保健服务;专科医院;整形美容,090201,B0FFG2VM1T,医疗保健服务,专科医院,整形美容,
116.1923563423293,39.94138895793392,中国医学科学院整形外科医院中楼,八大处路33号中国医学科学院整形外科医院,北京市,北京市,西山,医疗保健服务;专科医院;整形美容,090201,B0FFG2VMAB,医疗保健服务,专科医院,整形美容,
116.19239338214604,39.94179600124277,中国医学科学院整形外科医院北楼,八大处路33号中国医学科学院整形外科医院,北京市,北京市,西山,医疗保健服务;专科医院;整形美容,090201,B0FFG2VMCS,医疗保健服务,专科医院,整形美容,
116.16686588573828,39.89312873367733,众惠康泰平价大药房,燕堤西街金隅滨河园6号院,北京市,北京市,,医疗保健服务;医药保健销售店;药房,090601,B0FFFV6JNR,医疗保健服务,医药保健销售店,药房,
116.16645976404071,39.892934983614246,金禾康乐堂,燕堤西街6号院7号楼1单元101号(燕堤南路北),北京市,北京市,,医疗保健服务;医疗保健服务场所;医疗保健服务场所,090000,B0FFJSZWF9,医疗保健服务,医疗保健服务场所,医疗保健服务场所,
116.15937618949997,39.905601214639226,首颐中医医院,石景山路68号院,北京市,北京市,,医疗保健服务;综合医院;综合医院,090100,B0G1PCLZ2L,医疗保健服务,综合医院,综合医院,
116.1701912570195,39.893074939882055,滨和园东社区卫生服务站,燕堤中街6号院3号楼1层,北京市,北京市,,医疗保健服务;综合医院;卫生院|医疗保健服务;诊所;诊所,090102|090300,B0FFHPEHRI,医疗保健服务,综合医院,卫生院|医疗保健服务,诊所
116.17167454203505,39.8920757420992,水泥厂社区卫生服务站,京源路68号,北京市,北京市,,医疗保健服务;医疗保健服务场所;医疗保健服务场所,090000,B0FFGU5DKW,医疗保健服务,医疗保健服务场所,医疗保健服务场所,
116.16907832449769,39.891510938163414,利民康乐大药房,燕堤南路2号院12,北京市,北京市,,医疗保健服务;医药保健销售店;药房,090601,B0FFG3Z87T,医疗保健服务,医药保健销售店,药房,
116.16743156963422,39.89242782254151,悦享,燕堤南路,北京市,北京市,,医疗保健服务;医疗保健服务场所;医疗保健服务场所,090000,B0FFM7LES9,医疗保健服务,医疗保健服务场所,医疗保健服务场所,
116.17573297102439,39.90692356574847,诚安堂药房(十万平店),老古城大楼13室,北京市,北京市,古城,医疗保健服务;医药保健销售店;药房,090601,B000A7WD5O,医疗保健服务,医药保健销售店,药房,
116.17300924943733,39.908177500992494,北京金玺口腔诊所,石景山城兴街85号院11号楼101,北京市,北京市,古城,医疗保健服务;专科医院;口腔医院,090202,B0FFJHVA1C,医疗保健服务,专科医院,口腔医院,
116.17965295248189,39.90497775752924,西尔口腔石景山分院,石景山路54号院1号楼1-2层6-36,北京市,北京市,石景山,医疗保健服务;专科医院;口腔医院,090202,B0FFMD5F8M,医疗保健服务,专科医院,口腔医院,
116.17800764468821,39.903586852010896,北京益祥康业大药房,城通街26号院4号楼底商8-21,北京市,北京市,石景山,医疗保健服务;医药保健销售店;药房,090601,B0FFLAHABL,医疗保健服务,医药保健销售店,药房,
116.17793542038187,39.9037997119263,众向连锁药房(康业店),城通街26号院4号楼1层,北京市,北京市,石景山,医疗保健服务;医药保健销售店;药房,090601,B0HAZB53F2,医疗保健服务,医药保健销售店,药房,
116.1708170833701,39.9084334259567,吉源口腔,城西街85号院9号,北京市,北京市,古城,医疗保健服务;专科医院;口腔医院,090202,B0FFJ9XEW9,医疗保健服务,专科医院,口腔医院,
116.18016882151863,39.909191500481626,章光101(古城大街店),古城大街51-9号,北京市,北京市,石景山,医疗保健服务;医药保健销售店;医疗保健用品,090602,B000A808O5,医疗保健服务,医药保健销售店,医疗保健用品,
116.179803148191,39.906664953979444,皓齿口腔,古城大街75号院3-1-2-107,北京市,北京市,石景山,医疗保健服务;专科医院;口腔医院,090202,B000A8XAIN,医疗保健服务,专科医院,口腔医院,
116.17956872561277,39.90496460693275,知否医疗美容,石景山路54号院1号楼3层6-25室,北京市,北京市,石景山,医疗保健服务;医疗保健服务场所;医疗保健服务场所,090000,B0FFMGPZMV,医疗保健服务,医疗保健服务场所,医疗保健服务场所,
116.17290898377503,39.90806532044208,百康药房(金玺公馆店),城兴街85号院12号楼01-02层12-3,北京市,北京市,石景山,医疗保健服务;医药保健销售店;药房,090601,B0FFJCSLER,医疗保健服务,医药保健销售店,药房,
116.17992044692292,39.906817157632524,王雅红口腔诊所,古城大街75号院3号楼2单元1层102,北京市,北京市,石景山,医疗保健服务;专科医院;口腔医院|医疗保健服务;诊所;诊所,090202|090300,B0FFGHO5UA,医疗保健服务,专科医院,口腔医院|医疗保健服务,诊所
116.17834385040094,39.909273215066,北京贝乐口腔诊所有限公司,古盛路36号院1号楼1至2层101,北京市,北京市,古城,医疗保健服务;专科医院;口腔医院,090202,B0G1YSTSRX,医疗保健服务,专科医院,口腔医院,
116.18930387243606,39.908392325274235,八角南路社区卫生服务站,八角南路12号楼北侧,北京市,北京市,石景山,医疗保健服务;综合医院;卫生院,090102,B0FFFZKSYV,医疗保健服务,综合医院,卫生院,
116.17702228264943,39.90884883624063,健乐达(古城店),古盛路,北京市,北京市,古城,医疗保健服务;医药保健销售店;医疗保健用品,090602,B0G0NOYZCK,医疗保健服务,医药保健销售店,医疗保健用品,
116.18556060571868,39.905617119992336,百康药房(古城地铁口店),石景山路古城南里甲5号2栋1层103室,北京市,北京市,古城,医疗保健服务;医疗保健服务场所;医疗保健服务场所,090000,B0FFLHRL83,医疗保健服务,医疗保健服务场所,医疗保健服务场所,
116.17846729731255,39.90839747554061,百杏林大药房,城泰街与古安路交叉路口北侧(中海金鑫阁东南侧),北京市,北京市,石景山,医疗保健服务;医药保健销售店;药房,090601,B0FFM7XJUI,医疗保健服务,医药保健销售店,药房,
116.18513849969726,39.90564239196789,古城南里社区卫生服务站,石景山路古城南里5号楼,北京市,北京市,石景山,医疗保健服务;诊所;诊所,090300,B0FFFZCDUU,医疗保健服务,诊所,诊所,
116.18089077021205,39.909191788933256,嘉事堂药店(古城路店),古城大街16号,北京市,北京市,古城,医疗保健服务;医药保健销售店;药房,090601,B0FFG0ZKDP,医疗保健服务,医药保健销售店,药房,
116.18345189952676,39.906909407363436,嘉事堂药店(石景山店),石景山路45号星座大厦附近,北京市,北京市,古城,医疗保健服务;医药保健销售店;药房,090601,B0FFG65FME,医疗保健服务,医药保健销售店,药房,
116.18088878667997,39.90901779282812,灰指甲,古城大街18-1号附近,北京市,北京市,石景山,医疗保健服务;医疗保健服务场所;医疗保健服务场所,090000,B0FFIUDQB8,医疗保健服务,医疗保健服务场所,医疗保健服务场所,
116.18688979563726,39.907686302343365,中健168智能健康管理中心,古城南路43号楼101房间北90米,北京市,北京市,石景山,医疗保健服务;医疗保健服务场所;医疗保健服务场所,090000,B0FFL1KWSS,医疗保健服务,医疗保健服务场所,医疗保健服务场所,
116.18853878332382,39.909588000143835,嘉事堂药店(八角店),八角南路1号(星座超市内),北京市,北京市,古城,医疗保健服务;医药保健销售店;药房,090601,B0FFG64S93,医疗保健服务,医药保健销售店,药房,
116.18860801917918,39.9091101362387,北京市石景山区第二幼儿园卫生室,八角南路甲6号院1号,北京市,北京市,古城,医疗保健服务;诊所;诊所,090300,B0FFJRVFBT,医疗保健服务,诊所,诊所,
116.2203199882916,40.139704503171565,西坨安康诊所,[],北京市,北京市,,医疗保健服务;诊所;诊所,090300,B0GKOA6YHH,医疗保健服务,诊所,诊所,
116.22029794695877,40.139782476904436,口腔诊所,京新高速,北京市,北京市,,医疗保健服务;诊所;诊所,090300,B0HA65BL9E,医疗保健服务,诊所,诊所,
116.21612830033719,40.142104455594804,北京市昌平区马池口镇西坨村卫生室,马池口镇西坨村路西坨村村委会院内,北京市,北京市,,医疗保健服务;诊所;诊所,090300,B0FFJRUTFA,医疗保健服务,诊所,诊所,
116.20610672271188,40.11286582159954,上庄镇社区卫生服务中心,上庄路与翠湖北路交叉口西北角,北京市,北京市,,医疗保健服务;综合医院;卫生院,090102,B000A4ECE8,医疗保健服务,综合医院,卫生院,
116.20920126431459,40.12496158538421,胜博口腔,上庄馨瑞嘉园北门底商1号楼4单元101,北京市,北京市,,医疗保健服务;专科医院;口腔医院,090202,B0G2UX4GRX,医疗保健服务,专科医院,口腔医院,
116.20761922394011,40.12485367808976,康佳口腔,上庄镇馨瑞嘉园3号楼1单元104底商,北京市,北京市,,医疗保健服务;专科医院;口腔医院,090202,B0GR3HJMDJ,医疗保健服务,专科医院,口腔医院,
116.21063997042644,40.12485327543573,北京胡淑芹诊所,上庄镇馨瑞东路馨瑞嘉园7号楼1层1单元108室,北京市,北京市,,医疗保健服务;诊所;诊所,090300,B0FFJRWFM1,医疗保健服务,诊所,诊所,
116.20328197536296,40.13594302493803,医考帮,上庄路白水洼77号院,北京市,北京市,,医疗保健服务;医疗保健服务场所;医疗保健服务场所,090000,B0FFIQZP35,医疗保健服务,医疗保健服务场所,医疗保健服务场所,
116.21064297256551,40.12488027643493,馨瑞口腔,上庄镇馨瑞嘉园7号楼1单元104附近,北京市,北京市,,医疗保健服务;专科医院;口腔医院,090202,B0FFHN00UO,医疗保健服务,专科医院,口腔医院,
116.21061703698379,40.12398732725287,太阳神(北京晟康利直营店),馨瑞嘉园8-1-106,北京市,北京市,,医疗保健服务;医疗保健服务场所;医疗保健服务场所,090000,B0FFK252MO,医疗保健服务,医疗保健服务场所,医疗保健服务场所,
116.20921248460651,40.123378741275566,馨瑞嘉园社区卫生服务站,上庄镇馨瑞西路馨瑞家园,北京市,北京市,,医疗保健服务;综合医院;卫生院,090102,B0FFH14B2U,医疗保健服务,综合医院,卫生院,
116.21022617216198,40.12510977518829,达慧堂药房(七十店),上庄馨瑞家园7号楼1层1单元101,北京市,北京市,,医疗保健服务;医药保健销售店;药房,090601,B0G2U42E4G,医疗保健服务,医药保健销售店,药房,
116.2100478467603,40.1250555729652,馨瑞康平价大药房,馨瑞嘉园7-1-101,北京市,北京市,,医疗保健服务;医药保健销售店;药房,090601,B0GUV5VL50,医疗保健服务,医药保健销售店,药房,
116.2098629042239,40.12184664480131,爱宠伴侣动物医院,上庄馨瑞家园14号楼4单元103-2,北京市,北京市,,医疗保健服务;医药保健销售店;药房,090601,B0FFHQM36M,医疗保健服务,医药保健销售店,药房,
116.2103918532828,40.12213723355873,锦华灵芝店,沙阳路北100米,北京市,北京市,,医疗保健服务;医药保健销售店;医疗保健用品,090602,B0FFHQM36Q,医疗保健服务,医药保健销售店,医疗保健用品,
116.21468831651137,40.11514651942694,中国人民解放军第九八四医院-A栋楼,梅所屯路西200米,北京市,北京市,,医疗保健服务;综合医院;综合医院,090100,B0FFKAQQDZ,医疗保健服务,综合医院,综合医院,
116.21456211392817,40.11507239641837,中国人民解放军第九八四医院综合病区,皂甲屯村116号A座,北京市,北京市,,医疗保健服务;综合医院;综合医院,090100,B0FFK9SN6K,医疗保健服务,综合医院,综合医院,
116.21486468893829,40.11452975152172,中国人民解放军第九八四医院住院部,上庄镇皂甲屯村116号中国人民解放军第九八四医院内,北京市,北京市,,医疗保健服务;综合医院;综合医院,090100,B0FFK9VG98,医疗保健服务,综合医院,综合医院,
116.20140277666594,40.13717031878196,上庄镇白水洼社区卫生服务站,上庄卫生院三分场部,北京市,北京市,,医疗保健服务;医疗保健服务场所;医疗保健服务场所,090000,B0FFKO1ORH,医疗保健服务,医疗保健服务场所,医疗保健服务场所,
116.20006519485383,40.12629945252041,北京洪吉秀中医诊所,沙阳路上庄三嘉信苑9号楼底商1单元106号,北京市,北京市,,医疗保健服务;诊所;诊所,090300,B0FFJJY288,医疗保健服务,诊所,诊所,
116.19998406751482,40.125874374937105,尚艺口腔,上庄沙阳路三嘉信苑小区16号楼1层1单102,北京市,北京市,,医疗保健服务;专科医院;口腔医院,090202,B0FFIYI0XZ,医疗保健服务,专科医院,口腔医院,
116.19914428497131,40.12506223513979,北京王政国诊所,上庄三嘉信苑15号楼1层3单元102,北京市,北京市,,医疗保健服务;诊所;诊所,090300,B0FFL5NK2W,医疗保健服务,诊所,诊所,
116.20001410251088,40.126128394880425,洪吉秀中医门诊,上庄镇南一街与上庄镇西一路交叉口北200米,北京市,北京市,,医疗保健服务;医疗保健服务场所;医疗保健服务场所,090000,B0FFJA2RVN,医疗保健服务,医疗保健服务场所,医疗保健服务场所,
116.20004208151306,40.12679037450062,三嘉信苑社区卫生服务站,上庄镇中街三嘉信苑经济适用房小区6号楼1单元201号,北京市,北京市,,医疗保健服务;综合医院;卫生院,090102,B0FFFSFE18,医疗保健服务,综合医院,卫生院,
116.19571496217027,40.13614106970842,北京市海淀区尔康康复训练中心,白水洼路6号,北京市,北京市,,医疗保健服务;医疗保健服务场所;医疗保健服务场所,090000,B0FFHQ6W7R,医疗保健服务,医疗保健服务场所,医疗保健服务场所,
116.1943040885187,40.148111674791664,西闸社区卫生服务站,上庄镇西闸村,北京市,北京市,,医疗保健服务;综合医院;卫生院,090102,B0FFG6Y4HC,医疗保健服务,综合医院,卫生院,
116.19935276214369,40.1250055431059,北京养生堂药店(上庄店),沙阳路上庄三嘉信苑15号楼1层2单元101、102(南门),北京市,北京市,,医疗保健服务;医药保健销售店;药房,090601,B0GU190WXX,医疗保健服务,医药保健销售店,药房,
116.19856395615285,40.125166377322465,北京蜂业,三嘉南街与信苑中路交叉路口东南侧(三嘉信苑),北京市,北京市,,医疗保健服务;医药保健销售店;医疗保健用品,090602,B0FFL5OLP8,医疗保健服务,医药保健销售店,医疗保健用品,
116.22633542771645,40.11047857980568,南玉河社区卫生服务站,南玉河村85号,北京市,北京市,,医疗保健服务;综合医院;卫生院,090102,B000A885GB,医疗保健服务,综合医院,卫生院,
116.20625299358957,40.11305499222018,北京市海淀区上庄卫生院,上庄镇翠湖北路,北京市,北京市,,医疗保健服务;综合医院;卫生院,090102,B0FFIN7G3T,医疗保健服务,综合医院,卫生院,
116.21261510040488,40.11236556615268,康佳口腔,甲屯路(成名双语幼儿园东北侧约150米),北京市,北京市,,医疗保健服务;专科医院;口腔医院,090202,B0H61NMVW6,医疗保健服务,专科医院,口腔医院,
116.19352949917622,40.14588469081091,北京赵妙芳门诊,上庄路与双横路交叉口东南50米,北京市,北京市,,医疗保健服务;诊所;诊所,090300,B0FFIXP6X4,医疗保健服务,诊所,诊所,
116.1934082146721,40.14580650733771,北京赵妙芳诊所,[],北京市,北京市,,医疗保健服务;诊所;诊所,090300,B0HBAZLFIG,医疗保健服务,诊所,诊所,
116.19341923537597,40.145854519783434,综合门诊,上庄路(西闸村公园西南侧),北京市,北京市,,医疗保健服务;诊所;诊所,090300,B0G399SJ74,医疗保健服务,诊所,诊所,
116.2059754384103,40.12097095797632,北京鑫黄浦平价大药房(上庄路),上庄镇东小营海发路口,北京市,北京市,,医疗保健服务;医药保健销售店;药房,090601,B000A39C9C,医疗保健服务,医药保健销售店,药房,
116.21655230511813,40.115640328197074,中国人民解放军联勤保障部队第九八四医院全军心理卫生服务中心,中国人民解放军第九八四医院西南,北京市,北京市,,医疗保健服务;综合医院;综合医院,090100,B0FFL50AEI,医疗保健服务,综合医院,综合医院,
116.19364381790736,40.14555490525254,无限极工作室,上庄路(西闸村公园西南侧),北京市,北京市,,医疗保健服务;医疗保健服务场所;医疗保健服务场所,090000,B0GKSPGEV4,医疗保健服务,医疗保健服务场所,医疗保健服务场所,
116.21547662995363,40.11510531916715,中国人民解放军联勤保障部队第九八四医院,上庄镇皂甲屯村116号,北京市,北京市,,医疗保健服务;综合医院;综合医院,090100,B0FFK4Z5HN,医疗保健服务,综合医院,综合医院,
116.21164438326608,40.112260505326056,可暖养生体验店,甲屯路(成名双语幼儿园北侧约150米),北京市,北京市,,医疗保健服务;医疗保健服务场所;医疗保健服务场所,090000,B0FFIXP62O,医疗保健服务,医疗保健服务场所,医疗保健服务场所,
116.2152661984784,40.11578105108407,中国人民解放军第九八四医院急诊,上庄镇皂甲屯村116号中国人民解放军第九八四医院,北京市,北京市,,医疗保健服务;医疗保健服务场所;医疗保健服务场所,090000,B0FFK9SNYK,医疗保健服务,医疗保健服务场所,医疗保健服务场所,
116.21162334597261,40.11225548224772,无限极,皂甲屯东街,北京市,北京市,,医疗保健服务;医药保健销售店;医疗保健用品,090602,B0FFH5SMF2,医疗保健服务,医药保健销售店,医疗保健用品,
116.21787052354426,40.114432671898456,北京姜桂桃上庄诊所,上庄镇甲屯路皂甲屯村117号,北京市,北京市,,医疗保健服务;诊所;诊所,090300,B000A9Q4XS,医疗保健服务,诊所,诊所,
116.23576976125548,40.15331683870665,小蜜蜂智慧服务,[],北京市,北京市,,医疗保健服务;医疗保健服务场所;医疗保健服务场所,090000,B0G2RMHMGR,医疗保健服务,医疗保健服务场所,医疗保健服务场所,
116.19288689464916,40.14620363934348,北京阳光丽和素质体验中心,双横路和上庄路的交叉口附近,北京市,北京市,,医疗保健服务;医疗保健服务场所;医疗保健服务场所,090000,B0FFL5NKHM,医疗保健服务,医疗保健服务场所,医疗保健服务场所,
116.20701993814271,40.10977223174984,北京韩卫中医诊所,上庄镇上庄村上庄中路西91号,北京市,北京市,,医疗保健服务;诊所;诊所,090300,B0FFJRUD9A,医疗保健服务,诊所,诊所,
116.20758432647003,40.15528259183743,北京市昌平区马池口镇北庄户村卫生室,马池口镇满白路北庄户村28号,北京市,北京市,,医疗保健服务;诊所;诊所,090300,B0FFJRVKZK,医疗保健服务,诊所,诊所,
116.23562666656176,40.15327980153815,北京三龙堂医药超市(九分店),沙河镇能源西路2号院龙湖滟澜新宸西区,北京市,北京市,,医疗保健服务;医疗保健服务场所;医疗保健服务场所,090000,B0FFJ8BCMX,医疗保健服务,医疗保健服务场所,医疗保健服务场所,
116.21399741642965,40.113010985408295,北京万民安康药店,上庄乡皂甲屯,北京市,北京市,,医疗保健服务;医药保健销售店;药房,090601,B000A9Q51P,医疗保健服务,医药保健销售店,药房,
116.20960669012089,40.09583646289928,嘉事堂药店(上庄路店),上庄路98东北方向130米,北京市,北京市,,医疗保健服务;医药保健销售店;药房,090601,B000A8XM5U,医疗保健服务,医药保健销售店,药房,
116.2264993408296,40.08873034955186,佳美口腔（悦界永润路店）,18号院1号楼1层101.102二层201.201,北京市,北京市,,医疗保健服务;专科医院;口腔医院,090202,B0HGO7URQ9,医疗保健服务,专科医院,口腔医院,
116.22899917984603,40.087689872936366,盛嘉口腔,西北旺镇大牛坊安置房小区三区底商1层316,北京市,北京市,,医疗保健服务;专科医院;口腔医院,090202,B0GRP5LJ7X,医疗保健服务,专科医院,口腔医院,
116.22811750305485,40.08573852445127,北京贾廷慧中医诊所,西北旺镇大牛房社区2期1层208-209,北京市,北京市,,医疗保健服务;诊所;诊所,090300,B0FFLFX6DG,医疗保健服务,诊所,诊所,
116.23035895805332,40.08424480771155,康美雅口腔,大牛坊社区一期底商108,北京市,北京市,西北旺,医疗保健服务;专科医院;口腔医院,090202,B0FFLBXSWK,医疗保健服务,专科医院,口腔医院,
116.22144726742641,40.07834246105327,宝芝堂大药房,永澄北路2号院C座底商,北京市,北京市,西北旺,医疗保健服务;医药保健销售店;药房,090601,B0FFI8WMUM,医疗保健服务,医药保健销售店,药房,
116.2315642693484,40.08270547229273,尔特口腔永丰分院,西北旺镇大牛坊安置房小区一区18号楼底商,北京市,北京市,西北旺,医疗保健服务;专科医院;口腔医院,090202,B0G17HW0ZT,医疗保健服务,专科医院,口腔医院,
116.22679883711776,40.087484623366734,香云堂大药房(大牛坊店),西北旺镇大牛坊四区底商1层,北京市,北京市,,医疗保健服务;医药保健销售店;药房,090601,B0H61SOLSM,医疗保健服务,医药保健销售店,药房,
116.21771224586917,40.07482246714622,北京永丰屯中医门诊部,永大路西北旺镇永丰屯村258号,北京市,北京市,西北旺,医疗保健服务;诊所;诊所,090300,B000A8XQYM,医疗保健服务,诊所,诊所,
116.22989932131844,40.08577447438592,大牛坊社区卫生服务站,永丰路大牛坊回迁房A03地块二期2号楼B段一层中,北京市,北京市,,医疗保健服务;综合医院;卫生院,090102,B0FFHYMEDF,医疗保健服务,综合医院,卫生院,
116.23048807876745,40.08426486871169,北京宝芝堂平价大药房,大牛房街9号,北京市,北京市,西北旺,医疗保健服务;医药保健销售店;药房,090601,B0FFL106Q9,医疗保健服务,医药保健销售店,药房,
116.21577469896363,40.094533246389176,低价药房(顺鸿堂药店),上庄小区南门,北京市,北京市,,医疗保健服务;医药保健销售店;药房,090601,B0FFLPTM9L,医疗保健服务,医药保健销售店,药房,
116.21686997240828,40.07447369866589,雷振响牙科诊所,永大路35号附近,北京市,北京市,西北旺,医疗保健服务;医疗保健服务场所;医疗保健服务场所,090000,B0FFKNVVY6,医疗保健服务,医疗保健服务场所,医疗保健服务场所,
116.21017682022797,40.0953361665812,北京优佳上庄口腔门诊部部,上庄家园路13号院6号楼1层103-3,北京市,北京市,,医疗保健服务;专科医院;口腔医院,090202,B0FFLJXZTD,医疗保健服务,专科医院,口腔医院,
116.23059917399446,40.08434591629609,北京宝芝堂药店中医馆,大牛坊小区一期底商宝芝堂药店中医馆,北京市,北京市,西北旺,医疗保健服务;医药保健销售店;药房,090601,B0FFLKAZSS,医疗保健服务,医药保健销售店,药房,
116.21017281013052,40.0953571603662,汜德堂中医诊所,上庄家园路13号院6号楼103-02,北京市,北京市,,医疗保健服务;诊所;诊所,090300,B0G0USNXY2,医疗保健服务,诊所,诊所,
116.2130618709075,40.072612958135934,北京夏玉芹诊所,永大路与上庄路交叉路口往东北约50米,北京市,北京市,西北旺,医疗保健服务;诊所;诊所,090300,B0FFLDB4QZ,医疗保健服务,诊所,诊所,
116.20977389308813,40.09672359295652,北京韩金淼利民中医诊所,上庄家园西路58号,北京市,北京市,,医疗保健服务;诊所;诊所,090300,B0FFH13J7U,医疗保健服务,诊所,诊所,
116.20964552432342,40.09773936573617,北京谢魁明诊所,上庄镇上庄路千禧龙腾超市一层,北京市,北京市,,医疗保健服务;医药保健销售店;药房|医疗保健服务;诊所;诊所,090601|090300,B0FFH13NM0,医疗保健服务,医药保健销售店,药房|医疗保健服务,诊所
116.22187043625624,40.07363410491151,药王济世,永澄北路与丰贤中路交叉路口西南侧,北京市,北京市,西北旺,医疗保健服务;医药保健销售店;药房,090601,B0FFMD0UE7,医疗保健服务,医药保健销售店,药房,
116.21639424496533,40.07423325722452,北京永丰屯雷振响中医诊所,永丰屯村永大路,北京市,北京市,西北旺,医疗保健服务;诊所;诊所,090300,B000A8XPGD,医疗保健服务,诊所,诊所,
116.22999846018394,40.07745008974438,葆康计划,丰贤中路7号孵化楼B座106室,北京市,北京市,西北旺,医疗保健服务;医疗保健服务场所;医疗保健服务场所,090000,B0FFHPEZKI,医疗保健服务,医疗保健服务场所,医疗保健服务场所,
116.21305385932044,40.07259395075037,夏玉芹口腔诊所,西北旺镇永丰屯村,北京市,北京市,西北旺,医疗保健服务;医疗保健服务场所;医疗保健服务场所,090000,B0FFJFAM45,医疗保健服务,医疗保健服务场所,医疗保健服务场所,
116.20975369373272,40.09800947235896,上庄家园社区卫生服务站,上庄镇上庄家园小区,北京市,北京市,,医疗保健服务;综合医院;卫生院,090102,B0FFF3NMYT,医疗保健服务,综合医院,卫生院,
116.19315440865151,40.091793819114976,北京胡春山诊所,东马坊路与马坊中路交叉口南50米,北京市,北京市,,医疗保健服务;诊所;诊所,090300,B0FFFADGDC,医疗保健服务,诊所,诊所,
116.24128897515304,40.07218670270125,北京合度口腔门诊部,丰豪东路9号院3号楼107,北京市,北京市,西北旺,医疗保健服务;专科医院;口腔医院,090202,B0G1MSVD0T,医疗保健服务,专科医院,口腔医院,
116.22166367971374,40.10136698016675,上庄镇新冠疫苗临时接种点,上庄镇文化服务中心(李家坟村),北京市,北京市,,医疗保健服务;医疗保健服务场所;医疗保健服务场所,090000,B0HA7NXWC8,医疗保健服务,医疗保健服务场所,医疗保健服务场所,
116.20753169028275,40.06403109636389,屯佃村社区卫生服务站,北清路西北旺镇屯佃村文化活动中心,北京市,北京市,西北旺,医疗保健服务;综合医院;卫生院,090102,B000A9Q4Y4,医疗保健服务,综合医院,卫生院,
116.23995910072051,40.074428421244335,普安药房,北清路81号院二区1号楼1层101-3室,北京市,北京市,西北旺,医疗保健服务;医药保健销售店;药房,090601,B0H6B5E32M,医疗保健服务,医药保健销售店,药房,
116.20591145208952,40.06410205099333,牙科,西北旺镇屯佃村,北京市,北京市,西北旺,医疗保健服务;专科医院;口腔医院,090202,B0FFJINNZK,医疗保健服务,专科医院,口腔医院,
116.20798505197241,40.10804056721118,北京上庄诚然堂大药房,上庄中路与南玉河路交叉口东北50米,北京市,北京市,,医疗保健服务;医药保健销售店;药房,090601,B0FFH1I3RA,医疗保健服务,医药保健销售店,药房,
116.20703169075738,40.06413846781037,韩青柏诊所,西北旺镇屯佃村,北京市,北京市,西北旺,医疗保健服务;医疗保健服务场所;医疗保健服务场所,090000,B0FFJ3DCZ7,医疗保健服务,医疗保健服务场所,医疗保健服务场所,
116.2422544200768,40.07162979586206,德信行大药房(永丰店),西北旺镇永丰产业基地丰豪东路9号院2号楼6单元1层,北京市,北京市,西北旺,医疗保健服务;医药保健销售店;药房,090601,B0FFM4MC3V,医疗保健服务,医药保健销售店,药房,
116.19453763635114,40.092689928328724,东马坊社区卫生服务站,上庄镇东马坊村东马坊路,北京市,北京市,,医疗保健服务;诊所;诊所,090300,B000A9Q6CY,医疗保健服务,诊所,诊所,
116.20765031505248,40.10870310215567,蓝湾氨糖&蓝湾壳聚糖,上庄中路与南玉河路交叉口北100米,北京市,北京市,,医疗保健服务;医药保健销售店;医疗保健用品,090602,B0FFH1I2OM,医疗保健服务,医药保健销售店,医疗保健用品,
116.20479871005324,40.107638557659406,北京知秋堂平价大药房,上庄镇上庄村554号,北京市,北京市,,医疗保健服务;医药保健销售店;药房,090601,B000A884G7,医疗保健服务,医药保健销售店,药房,
116.20696784296145,40.109707171850765,北京韩卫门诊,上庄中路西50米,北京市,北京市,,医疗保健服务;诊所;诊所,090300,B0FFH1YONU,医疗保健服务,诊所,诊所,
116.20747596147861,40.10879387927327,成人用品,上庄中路附近,北京市,北京市,,医疗保健服务;医药保健销售店;医疗保健用品,090602,B0FFL5U7FQ,医疗保健服务,医药保健销售店,医疗保健用品,
116.20607737528935,40.107203248471926,蚂蚁农场大麦若叶青汁(北京总店),上庄南口774号附近,北京市,北京市,,医疗保健服务;医药保健销售店;医疗保健用品,090602,B0FFHQQALN,医疗保健服务,医药保健销售店,医疗保健用品,
116.20891613996956,40.09775049929368,海淀区上庄镇动物防疫站,上庄路30号南50米,北京市,北京市,,医疗保健服务;动物医疗场所;兽医站,090702,B000A8XKTD,医疗保健服务,动物医疗场所,兽医站,
116.2121387955628,40.06023271494581,北京国春堂康卫堂药店(屯佃村),上庄路与永丰西路交叉路口往西约50米,北京市,北京市,西北旺,医疗保健服务;医药保健销售店;药房,090601,B0FFMGTAES,医疗保健服务,医药保健销售店,药房,
116.21810399085852,40.03372917509434,北京陈锋中西医结合门诊,冷泉路东50米,北京市,北京市,西北旺,医疗保健服务;诊所;诊所,090300,B0FFG1KQGB,医疗保健服务,诊所,诊所,
116.21808607751736,40.03281720453095,冷泉村卫生室,[],北京市,北京市,西北旺,医疗保健服务;诊所;诊所,090300,B0GKK7YO8Z,医疗保健服务,诊所,诊所,
116.21597977008972,40.03274921162294,北京王福中西医诊所,冷泉路,北京市,北京市,西北旺,医疗保健服务;诊所;诊所,090300,B0FFL5WBS2,医疗保健服务,诊所,诊所,
116.21869005125006,40.03234777368878,北京于世浩诊所,冷泉村东北街,北京市,北京市,西北旺,医疗保健服务;诊所;诊所,090300,B0FFL5WBG8,医疗保健服务,诊所,诊所,
116.2174695710442,40.03726240972246,灰指甲康复,冷泉路(鲁恩宾馆西侧约50米),北京市,北京市,西北旺,医疗保健服务;医疗保健服务场所;医疗保健服务场所,090000,B0G07U2YB0,医疗保健服务,医疗保健服务场所,医疗保健服务场所,
116.22209090978284,40.032263622782146,北京鑫宇康达医药,西北旺镇冷泉村东北街22号,北京市,北京市,西北旺,医疗保健服务;医药保健销售店;药房,090601,B0FFF2KSPU,医疗保健服务,医药保健销售店,药房,
116.21198282444195,40.033821981659685,德盛康大药房(第九分店),西山林语3区38-14-15,北京市,北京市,,医疗保健服务;医药保健销售店;药房,090601,B0FFG96OO7,医疗保健服务,医药保健销售店,药房,
116.21195589581808,40.03286699979214,西山林语社区卫生服务站,西北旺镇冷泉村西北街223号西山林语三区34号楼,北京市,北京市,,医疗保健服务;综合医院;卫生院,090102,B0FFH71M2O,医疗保健服务,综合医院,卫生院,
116.21127716041894,40.03696103376548,和熹健康生活馆,西北旺镇上庄路与黑龙潭路交叉口冷泉林语山庄二区15号楼和熹会附近,北京市,北京市,,医疗保健服务;医疗保健服务场所;医疗保健服务场所,090000,B0FFICZPIR,医疗保健服务,医疗保健服务场所,医疗保健服务场所,
116.20355167311432,40.03143873834845,北京航空材料研究院职工医院,航材大道航材院北京燕飞培训中心对面,北京市,北京市,,医疗保健服务;综合医院;综合医院,090100,B0FFH4QDG9,医疗保健服务,综合医院,综合医院,
116.20788589517913,40.03600708750077,康美雅口腔,冷泉林语山庄二区13-115,北京市,北京市,,医疗保健服务;专科医院;口腔医院,090202,B0FFHEIXK5,医疗保健服务,专科医院,口腔医院,
116.20982671250401,40.035143458963766,北京尹书成诊所,西北旺镇黑龙潭路冷泉林语山庄二区11号楼1层106号,北京市,北京市,,医疗保健服务;诊所;诊所,090300,B0FFJN3XII,医疗保健服务,诊所,诊所,
116.21133025801076,40.03695109412529,和嘉健康生活馆,冷泉西路,北京市,北京市,,医疗保健服务;医疗保健服务场所;医疗保健服务场所,090000,B0FFM0WBUD,医疗保健服务,医疗保健服务场所,医疗保健服务场所,
116.2102965919446,40.035115007421126,东方华妍茶疗养生,冷泉林语山庄二区11-112,北京市,北京市,,医疗保健服务;医疗保健服务场所;医疗保健服务场所,090000,B0FFIVHL7D,医疗保健服务,医疗保健服务场所,医疗保健服务场所,
116.2111208641602,40.03705685218905,北京市海淀区和熹会老年公寓医务室,西北旺镇黑龙潭路西北旺冷泉林语山庄二区15号楼6层771-772室,北京市,北京市,,医疗保健服务;诊所;诊所,090300,B0FFGPGH4E,医疗保健服务,诊所,诊所,
116.20856226713543,40.035505936488484,平价药房,冷泉林语山庄二区14号楼1至2层106,北京市,北京市,,医疗保健服务;医药保健销售店;药房,090601,B0FFJN3XIO,医疗保健服务,医药保健销售店,药房,
116.20666425378349,40.03786447216933,北京颐阳李常安中医诊所,黑龙潭路颐阳山水居7号楼1门101,北京市,北京市,,医疗保健服务;诊所;诊所,090300,B0FFHFSKA2,医疗保健服务,诊所,诊所,
116.20761631330558,40.03644773317179,李其平口腔,黑龙潭路冷泉林语山庄二区113号楼-1至1层103号,北京市,北京市,,医疗保健服务;专科医院;口腔医院|医疗保健服务;诊所;诊所,090202|090300,B000A88277,医疗保健服务,专科医院,口腔医院|医疗保健服务,诊所
116.20409377870374,40.031691451362946,中医馆,航材大道西100米,北京市,北京市,,医疗保健服务;诊所;诊所,090300,B0FFKHN86Z,医疗保健服务,诊所,诊所,
116.2031936489574,40.03357214841165,嘉事堂惠康大药房,航材大道附近,北京市,北京市,,医疗保健服务;医药保健销售店;药房,090601,B000A7PH8T,医疗保健服务,医药保健销售店,药房,
116.23708941118191,40.03525914702148,北京赵文明诊所,百望山红英小学东100米,北京市,北京市,西北旺,医疗保健服务;诊所;诊所,090300,B0FFJKTSJU,医疗保健服务,诊所,诊所,
116.19507463990509,40.039242054002806,北京市海淀区温泉中心卫生院,温泉路龙船人西80米,北京市,北京市,,医疗保健服务;综合医院;卫生院,090102,B0FFFCMND5,医疗保健服务,综合医院,卫生院,
116.19497640761003,40.03922990259844,温泉镇社区卫生服务中心,温泉镇白家疃,北京市,北京市,,医疗保健服务;综合医院;卫生院,090102,B0FFFYG0CU,医疗保健服务,综合医院,卫生院,
116.22451779818748,40.05025146432124,海淀区西六社区卫生服务站,西北旺镇宏丰西路1号院,北京市,北京市,西北旺,医疗保健服务;诊所;诊所,090300,B000A9Q6D2,医疗保健服务,诊所,诊所,
116.24081932975223,40.035748742340296,新兴德胜药房(韩家川店),西北旺镇韩家川路韩家川村51号平房,北京市,北京市,西北旺,医疗保健服务;医药保健销售店;药房,090601,B0FFH1794P,医疗保健服务,医药保健销售店,药房,
116.23261737048458,40.04926697397931,北京颐和中心诊所,西北旺北路北50米,北京市,北京市,西北旺,医疗保健服务;诊所;诊所,090300,B0FFF2W8J6,医疗保健服务,诊所,诊所,
116.24114518206142,40.03804965337095,北京张毓南中医诊所,韩家川路19附近,北京市,北京市,西北旺,医疗保健服务;诊所;诊所,090300,B0FFFVSQPG,医疗保健服务,诊所,诊所,
116.23820330573885,40.03341648041744,百康药房(韩家川店),韩家川路南50米,北京市,北京市,西北旺,医疗保健服务;医药保健销售店;药房,090601,B0FFILD6GP,医疗保健服务,医药保健销售店,药房,
116.24102105118169,40.038676610220435,北京张毓南中医,韩家川路(盛川快捷酒店北侧约50米),北京市,北京市,西北旺,医疗保健服务;诊所;诊所,090300,B0H6GKWDH3,医疗保健服务,诊所,诊所,
116.2416204502169,40.03745671943863,海淀区汪永兰门诊,[],北京市,北京市,西北旺,医疗保健服务;诊所;诊所,090300,B0FFL87MBP,医疗保健服务,诊所,诊所,
116.23933787275206,40.033782658546926,灰指甲康复,西北旺镇韩家川村南街81,北京市,北京市,西北旺,医疗保健服务;医药保健销售店;医疗保健用品,090602,B0GKPUYTNO,医疗保健服务,医药保健销售店,医疗保健用品,
116.19717979127027,40.045547928872836,平价大药房,水岸温泉103,北京市,北京市,,医疗保健服务;医药保健销售店;药房,090601,B0FFH0NU1F,医疗保健服务,医药保健销售店,药房,
116.24112543763164,40.03593676032959,成人保健用品,韩家川40号,北京市,北京市,西北旺,医疗保健服务;医疗保健服务场所;医疗保健服务场所,090000,B0FFJ5DWNX,医疗保健服务,医疗保健服务场所,医疗保健服务场所,
116.19443712595807,40.039175067178505,北京市海淀区温泉镇敬老院医务室,温泉路16号北京市海淀区温泉镇敬老院,北京市,北京市,,医疗保健服务;诊所;诊所,090300,B0FFGPGH4D,医疗保健服务,诊所,诊所,
116.23712992154212,40.04738651733083,永丰堂大药房(亮甲店路),西北旺镇亮甲店路碧水家园1号楼1层,北京市,北京市,西北旺,医疗保健服务;医药保健销售店;药房,090601,B000A9Q5D9,医疗保健服务,医药保健销售店,药房,
116.23598972742562,40.051003025415326,亮甲苑门诊,亮甲店七号楼一单元,北京市,北京市,西北旺,医疗保健服务;诊所;诊所,090300,B0HAV7C08J,医疗保健服务,诊所,诊所,
116.19517388638998,40.03915821174597,温泉镇社区卫生服务中心-预防接种门诊,温泉路16号附近,北京市,北京市,,医疗保健服务;诊所;诊所,090300,B0HBTH2YTL,医疗保健服务,诊所,诊所,
116.19381659647921,40.03946708000402,程姥姥热灸馆,温泉敬老院北1门东程姥姥热灸馆,北京市,北京市,,医疗保健服务;医药保健销售店;医疗保健用品,090602,B0G3CB50MM,医疗保健服务,医药保健销售店,医疗保健用品,
116.23451166169494,40.051059571205315,亮甲店村社区卫生服务站,西北旺镇亮甲店小区8号平房,北京市,北京市,西北旺,医疗保健服务;综合医院;卫生院,090102,B0FFK4XL2K,医疗保健服务,综合医院,卫生院,
116.1951306579991,40.048118668003596,初心大药房(创客店),温泉镇创客小镇社区配套商业楼16楼一层101室,北京市,北京市,,医疗保健服务;医药保健销售店;药房,090601,B0FFKUQ80J,医疗保健服务,医药保健销售店,药房,
116.23719267093799,40.033693250562145,北京肖清文诊所,韩家川路129号,北京市,北京市,西北旺,医疗保健服务;诊所;诊所,090300,B000A8XHPY,医疗保健服务,诊所,诊所,
116.20190822680718,39.991008313891086,首都医科大学三博脑科医院,香山一棵松50号,北京市,北京市,香山,医疗保健服务;专科医院;脑科医院,090208,B000A81CD1,医疗保健服务,专科医院,脑科医院,
116.2154493848813,39.996903328826136,韩氏口腔诊所,香山路厢白旗甲七号院(61606部队院内)新2号楼4单元,北京市,北京市,香山,医疗保健服务;专科医院;口腔医院,090202,B0FFG96YCI,医疗保健服务,专科医院,口腔医院,
116.22590712807484,39.97287794628591,北京市化工职业病防治院,闵庄路瀚海180号,北京市,北京市,香山,医疗保健服务;专科医院;专科医院,090200,B0FFKTGBLX,医疗保健服务,专科医院,专科医院,
116.2189363948005,39.976487454393386,北京诺瑞康大药房,闵庄路门头馨园23号楼底商102,北京市,北京市,香山,医疗保健服务;医药保健销售店;药房,090601,B0GUTDI2LT,医疗保健服务,医药保健销售店,药房,
116.20421426777303,39.989854494073576,香云堂大药房,香山南路南辛村1号,北京市,北京市,香山,医疗保健服务;医药保健销售店;药房,090601,B0FFHB2SLL,医疗保健服务,医药保健销售店,药房,
116.20958157934957,39.99255511571227,北京植物园献血点,香山南路北京植物园南门,北京市,北京市,香山,医疗保健服务;医疗保健服务场所;医疗保健服务场所,090000,B0FFK9SKDW,医疗保健服务,医疗保健服务场所,医疗保健服务场所,
116.20929939484033,39.97375854584615,海淀区四季青镇门头村社区康复站,闵庄路门头新村北小区215号,北京市,北京市,香山,医疗保健服务;综合医院;卫生院,090102,B000A8XLP8,医疗保健服务,综合医院,卫生院,
116.20399672002047,39.990604173471745,中蜜蜂园(香山店),香山南路一棵松53号,北京市,北京市,香山,医疗保健服务;医药保健销售店;医疗保健用品,090602,B0FFITA6JS,医疗保健服务,医药保健销售店,医疗保健用品,
116.22863003583959,39.99776755309709,北京香山社区卫生服务中心,香山路甲1号2区34 35 38号,北京市,北京市,香山,医疗保健服务;综合医院;综合医院,090100,B0FFJ4Y0GL,医疗保健服务,综合医院,综合医院,
116.22894034629986,39.99784871817353,北京香山医院,香山路甲1号,北京市,北京市,香山,医疗保健服务;综合医院;卫生院,090102,B0FFJ97Z30,医疗保健服务,综合医院,卫生院,
116.2110134265886,39.974996487539045,莎利文康复中心,门头村京香花园小区24号,北京市,北京市,香山,医疗保健服务;医疗保健服务场所;医疗保健服务场所,090000,B000AAAEPC,医疗保健服务,医疗保健服务场所,医疗保健服务场所,
116.21831816324011,39.99493714501794,北京寿安康医药有限公司,四季青乡四王府平房,北京市,北京市,香山,医疗保健服务;医疗保健服务场所;医疗保健服务场所,090000,B0FFKFOF52,医疗保健服务,医疗保健服务场所,医疗保健服务场所,
116.20078825235595,39.97926622250779,嘉事堂药店(香山南路店),香山南路红旗村,北京市,北京市,香山,医疗保健服务;医药保健销售店;药房,090601,B0FFHUK4YW,医疗保健服务,医药保健销售店,药房,
116.19929469992803,39.98908768126801,北京闫亮诊所,香山杰王府路杰王府丁11号,北京市,北京市,香山,医疗保健服务;诊所;诊所,090300,B0FFFZ40BZ,医疗保健服务,诊所,诊所,
116.19931333065097,39.99237157231125,北京保爱堂医药有限公司,香山一棵松一号-1,北京市,北京市,香山,医疗保健服务;医疗保健服务场所;医疗保健服务场所,090000,B0FFFADTL3,医疗保健服务,医疗保健服务场所,医疗保健服务场所,
116.20929838506264,39.9738215421412,门头残疾人康复站,门头馨村北一区215,北京市,北京市,香山,医疗保健服务;医疗保健服务场所;医疗保健服务场所,090000,B000A8XLZJ,医疗保健服务,医疗保健服务场所,医疗保健服务场所,
116.23316086595098,40.000863532963024,中国人民解放军第三一六医院住院部,香山路娘娘府甲2号中国人民解放军第三一六医院内,北京市,北京市,香山,医疗保健服务;综合医院;综合医院,090100,B0FFGPSMKW,医疗保健服务,综合医院,综合医院,
116.2092993974675,39.973737546684745,四季青乡门头地区初级卫生保健站,[],北京市,北京市,香山,医疗保健服务;综合医院;卫生院,090102,B0FFLB96ES,医疗保健服务,综合医院,卫生院,
116.2027529446745,39.99178544499701,三博脑科药房,香山一棵松50号三博脑科药房,北京市,北京市,香山,医疗保健服务;医药保健销售店;药房,090601,B0HG2X319N,医疗保健服务,医药保健销售店,药房,
116.23088599327085,39.99990860722743,北京卫民诊所-口腔科,香山向阳新村70-1号,北京市,北京市,香山,医疗保健服务;专科医院;口腔医院,090202,B0G3MDXGI8,医疗保健服务,专科医院,口腔医院,
116.22225703972629,39.96890851161984,北京市师达中学医务室,闵庄路70号,北京市,北京市,香山,医疗保健服务;诊所;诊所,090300,B0FFJRSPYT,医疗保健服务,诊所,诊所,
116.2329066058364,40.00126541704727,中国人民解放军总医院第八医学中心香山门诊部,香山路娘娘府甲2号,北京市,北京市,香山,医疗保健服务;综合医院;综合医院,090100,B0FFLOWRHV,医疗保健服务,综合医院,综合医院,
116.19557250384405,39.99394391573267,北京市社区卫生服务,煤厂街(香山佟峪南侧),北京市,北京市,香山,医疗保健服务;综合医院;卫生院,090102,B0H6XUVP1O,医疗保健服务,综合医院,卫生院,
116.22520029318397,39.97284548200886,北京市化工职业病防治院闵庄院区,闵庄路辅路瀚河园180号,北京市,北京市,香山,医疗保健服务;医疗保健服务场所;医疗保健服务场所,090000,B0FFKO1NXW,医疗保健服务,医疗保健服务场所,医疗保健服务场所,
116.19954771307614,39.99351986397925,北京王淑萍门诊(卧佛寺西路),卧佛寺西路香山南营56号,北京市,北京市,香山,医疗保健服务;诊所;诊所,090300,B0FFHACFY3,医疗保健服务,诊所,诊所,
116.20078844058347,39.993746629959794,神筋调衡正骨店,香山南营点点利超市旁,北京市,北京市,香山,医疗保健服务;医药保健销售店;医疗保健用品,090602,B0G3SHW1YB,医疗保健服务,医药保健销售店,医疗保健用品,
116.1994996304455,39.99331880282548,伊美轩健康管理中心,卧佛寺西路与香山路交叉口东北50米,北京市,北京市,香山,医疗保健服务;医疗保健服务场所;医疗保健服务场所,090000,B0FFJKHCO5,医疗保健服务,医疗保健服务场所,医疗保健服务场所,
116.2307949086255,39.99990556469356,北京卫民诊所,香山路与丰户营路交叉路口往西北约150米,北京市,北京市,香山,医疗保健服务;诊所;诊所,090300,B0G2RPHE70,医疗保健服务,诊所,诊所,
116.19895141856584,39.99313901344116,北京忠鹏顺商贸有限公司,卧佛寺西路与香山路交叉口西北50米,北京市,北京市,香山,医疗保健服务;医疗保健服务场所;医疗保健服务场所,090000,B0FFILEQBL,医疗保健服务,医疗保健服务场所,医疗保健服务场所,
116.19895551548434,39.99243904860134,北京天靓健康管理中心,香山一颗松路甲一号,北京市,北京市,香山,医疗保健服务;医药保健销售店;医疗保健用品,090602,B0G2UA1PN3,医疗保健服务,医药保健销售店,医疗保健用品,
116.20607022838493,39.97259761064466,北京禧月阁母婴护理中心(香山店),闵庄路乙91号京香广场A1栋,北京市,北京市,香山,医疗保健服务;医疗保健服务场所;医疗保健服务场所,090000,B0FFJ0Q3SA,医疗保健服务,医疗保健服务场所,医疗保健服务场所,
116.2284998867913,39.997873476870296,香山社区卫生服务中心-预防接种门诊,香山路甲1号2区,北京市,北京市,香山,医疗保健服务;诊所;诊所,090300,B0G2K1VS8T,医疗保健服务,诊所,诊所,
116.21183465681428,39.969026647414566,德国福莱哥勒健康睡眠体验馆,北辛庄路甲12号,北京市,北京市,香山,医疗保健服务;医疗保健服务场所;医疗保健服务场所,090000,B0FFJ0QB28,医疗保健服务,医疗保健服务场所,医疗保健服务场所,
116.19899552837649,39.993058081200104,草药房,一棵松路与卧佛寺西路交叉路口北侧,北京市,北京市,香山,医疗保健服务;医药保健销售店;药房,090601,B0FFLCD485,医疗保健服务,医药保健销售店,药房,
116.24062678776075,39.96723673183443,北京中山动物医院,闵庄南路15层1号,北京市,北京市,,医疗保健服务;动物医疗场所;宠物诊所,090701,B0FFF3NW45,医疗保健服务,动物医疗场所,宠物诊所,
116.19897547267391,39.993141048470804,大药房,超市发超市(香山店)超市发旁边,北京市,北京市,香山,医疗保健服务;医药保健销售店;药房,090601,B0GRVRSPKQ,医疗保健服务,医药保健销售店,药房,
116.19574088376332,39.994084168224724,香山社区卫生服务站(碧云寺路),香山北辛村碧云寺路25号,北京市,北京市,香山,医疗保健服务;综合医院;卫生院,090102,B000A91KFG,医疗保健服务,综合医院,卫生院,
116.19356248246349,39.99564871386011,香山老年公寓医务室,香山新营16号香山老年公寓内,北京市,北京市,香山,医疗保健服务;诊所;诊所,090300,B0FFGPGH4C,医疗保健服务,诊所,诊所,
116.23836731880252,39.977926975080194,南泥湾健康食品调理三高,北坞嘉园西里5-5-403,北京市,北京市,,医疗保健服务;医药保健销售店;医疗保健用品,090602,B0G3ADDLC8,医疗保健服务,医药保健销售店,医疗保健用品,
116.24213710516906,39.97767242884414,伊美轩健康管理中心,舍茶棚路23-3号东南80米,北京市,北京市,,医疗保健服务;医疗保健服务场所;医疗保健服务场所,090000,B0FFJLGOPQ,医疗保健服务,医疗保健服务场所,医疗保健服务场所,
116.1949127758069,39.995241843198166,大医之道,碧云寺路南50米,北京市,北京市,香山,医疗保健服务;医疗保健服务场所;医疗保健服务场所,090000,B0FFJFLC31,医疗保健服务,医疗保健服务场所,医疗保健服务场所,
116.19682748804239,39.99361184040164,香山街道新冠疫苗临时接种点,煤厂街农商银行东侧,北京市,北京市,香山,医疗保健服务;医疗保健服务场所;医疗保健服务场所,090000,B0HA74YYON,医疗保健服务,医疗保健服务场所,医疗保健服务场所,
116.24271030104612,40.00180844526941,北京中圣颐安医院,青龙桥槐树居甲2号院综合楼西边2-3层,北京市,北京市,香山,医疗保健服务;综合医院;综合医院,090100,B0FFJRHCJH,医疗保健服务,综合医院,综合医院,
116.1933378672776,39.996214335062746,北京市海淀区爱暮家养老院医务室,香山新营20号北京市海淀区爱暮家养老院医务室内,北京市,北京市,香山,医疗保健服务;诊所;诊所,090300,B0FFGPGF28,医疗保健服务,诊所,诊所,
116.24271935875183,40.001370464429606,正清和中医推拿艾灸馆(厢红旗馆),青龙桥槐树居甲2号院B座2-203,北京市,北京市,香山,医疗保健服务;医疗保健服务场所;医疗保健服务场所,090000,B0FFM9SKYO,医疗保健服务,医疗保健服务场所,医疗保健服务场所,
116.20931751766075,39.973049595539095,达慧堂药房(第一分店),京香花园216号,北京市,北京市,香山,医疗保健服务;医药保健销售店;药房,090601,B000A8XKZR,医疗保健服务,医药保健销售店,药房,
116.24106617833186,39.96563683698182,阿育吠陀·梵医馆(北京旗舰店),闵庄路四季青镇闵庄南路9号超市发3层,北京市,北京市,,医疗保健服务;诊所;诊所,090300,B0FFG2OF7L,医疗保健服务,诊所,诊所,
116.23730499618148,39.967481169902086,净睿草堂,旱河路与玉虹北街交叉口东北200米,北京市,北京市,,医疗保健服务;医疗保健服务场所;医疗保健服务场所,090000,B0FFKHCN2N,医疗保健服务,医疗保健服务场所,医疗保健服务场所,
116.2410381387725,39.965858825753934,北京同德堂药店(广盛园店),广盛园味多美南侧,北京市,北京市,,医疗保健服务;医药保健销售店;药房,090601,B0FFGWD3T2,医疗保健服务,医药保健销售店,药房,
116.24221104701631,39.96229704358065,宏仁大药房,闵庄南路天香颐中里7号楼7-3,北京市,北京市,,医疗保健服务;医药保健销售店;药房,090601,B000A9Q5GY,医疗保健服务,医药保健销售店,药房,
116.24273728654853,40.00199843769174,青龙桥社区卫生服务中心预防保健科,槐树居甲2号综合楼,北京市,北京市,香山,医疗保健服务;综合医院;卫生院,090102,B0FFLKLFDA,医疗保健服务,综合医院,卫生院,
116.24101914113,39.96577482739475,无限极专卖店,闵庄南路9号,北京市,北京市,,医疗保健服务;医疗保健服务场所;医疗保健服务场所,090000,B0FFIS1DHX,医疗保健服务,医疗保健服务场所,医疗保健服务场所,
116.20071512659243,39.96299276367625,就好医用宣传中心,香山南路,北京市,北京市,香山,医疗保健服务;医疗保健服务场所;医疗保健服务场所,090000,B0FFM83SPP,医疗保健服务,医疗保健服务场所,医疗保健服务场所,
116.24264010799257,40.003163384657384,中国林业科学研究院卫生所,香山路厢红旗东小府2号,北京市,北京市,香山,医疗保健服务;诊所;诊所,090300,B0FFJRTRCN,医疗保健服务,诊所,诊所,
116.2410921918467,39.96561684002204,梵医馆(韩国美容抗衰中心),闵庄路闵庄南路9号超市发3楼,北京市,北京市,,医疗保健服务;医药保健销售店;药房,090601,B0FFGZEM7U,医疗保健服务,医药保健销售店,药房,
116.24160826071287,39.96676383400583,泉山口腔,闵庄南路和玉虹北街的交叉口附近,北京市,北京市,,医疗保健服务;专科医院;口腔医院,090202,B000A9V5JG,医疗保健服务,专科医院,口腔医院,
116.24214211262846,39.9776274308872,北京盛康平安大药房,北坞嘉园北里20号,北京市,北京市,,医疗保健服务;医药保健销售店;药房,090601,B000A8XI3H,医疗保健服务,医药保健销售店,药房,
116.19729883447732,39.92763817438867,北京大学首钢医院,晋元庄路9号院,北京市,北京市,石景山,医疗保健服务;综合医院;综合医院,090100,B000A6391F,医疗保健服务,综合医院,综合医院,
116.21947617616215,39.92845382676558,田村社区卫生服务站,碧桐园小区东侧,北京市,北京市,,医疗保健服务;综合医院;卫生院,090102,B000A85V60,医疗保健服务,综合医院,卫生院,
116.21874298085432,39.92933014610589,北京锦绣安康门诊,阜石路69号碧桐园小区2号楼107室,北京市,北京市,,医疗保健服务;诊所;诊所,090300,B0FFF5GBYX,医疗保健服务,诊所,诊所,
116.20400497230752,39.932690483513134,德民口腔,西黄新村东里1-07,北京市,北京市,西山,医疗保健服务;医疗保健服务场所;医疗保健服务场所,090000,B000A7WEN6,医疗保健服务,医疗保健服务场所,医疗保健服务场所,
116.20843485450708,39.93280212207123,西黄村社区卫生服务站(田村路),田村路559号,北京市,北京市,,医疗保健服务;综合医院;卫生院,090102,B0FFG8VGBN,医疗保健服务,综合医院,卫生院,
116.20856014114426,39.93243528835969,八大处中医门诊部,田村路559号,北京市,北京市,,医疗保健服务;诊所;诊所,090300,B0FFGBA842,医疗保健服务,诊所,诊所,
116.21781959818011,39.92917631432383,新松制氧机(北京)店,阜石路69号3号楼1层底商111,北京市,北京市,,医疗保健服务;医药保健销售店;医疗保健用品,090602,B0G1BR9FDX,医疗保健服务,医药保健销售店,医疗保健用品,
116.21954140788165,39.943426286745506,巨山社区卫生服务站,巨山路,北京市,北京市,西山,医疗保健服务;诊所;诊所,090300,B0FFGH24KG,医疗保健服务,诊所,诊所,
116.2174932042872,39.92828804727409,北京百泽康大药房,碧桐园小区12号楼104,北京市,北京市,,医疗保健服务;医药保健销售店;药房,090601,B0G0XH04MR,医疗保健服务,医药保健销售店,药房,
116.21743912150235,39.92827799715224,济民康泰大药房(三十五店),碧桐园12号楼1层104,北京市,北京市,,医疗保健服务;医药保健销售店;药房,090601,B0FFJ0PTOO,医疗保健服务,医药保健销售店,药房,
116.2223715829388,39.92561631341978,北京皓诚口腔诊所,阜石路甲69号院12号楼二单元底商B103,北京市,北京市,,医疗保健服务;专科医院;口腔医院,090202,B0FFLJ9395,医疗保健服务,专科医院,口腔医院,
116.22389810940095,39.92928829951792,大连海参,锦绣大地物流港3层E区100号,北京市,北京市,,医疗保健服务;医药保健销售店;医疗保健用品,090602,B0HG3YE6CS,医疗保健服务,医药保健销售店,医疗保健用品,
116.22258781526175,39.92605946104723,北京郝芬诊所,阜石路甲69号院12号楼1层1单元104号,北京市,北京市,,医疗保健服务;诊所;诊所,090300,B0FFIB70EB,医疗保健服务,诊所,诊所,
116.22661255585489,39.94385353615348,沈忆齿科,四季阳光科技园7号楼3层,北京市,北京市,西山,医疗保健服务;专科医院;口腔医院,090202,B0FFHQ87Q0,医疗保健服务,专科医院,口腔医院,
116.20084183520748,39.927531341767875,冶金机电学院医院,晋元庄路5号北方工业大学,北京市,北京市,石景山,医疗保健服务;综合医院;综合医院,090100,B0FFGM8N0N,医疗保健服务,综合医院,综合医院,
116.21715067317533,39.9282617267101,爱能靓健康管理生态连锁(锦绣店),四季青镇锦绣大地碧桐园小区12号楼101室底商,北京市,北京市,,医疗保健服务;医疗保健服务场所;医疗保健服务场所,090000,B0FFM4Y7NR,医疗保健服务,医疗保健服务场所,医疗保健服务场所,
116.20115185569873,39.9408202493827,北京市社区卫生服务,香山南路166-55号附近,北京市,北京市,香山,医疗保健服务;综合医院;卫生院,090102,B0FFIPQQ11,医疗保健服务,综合医院,卫生院,
116.2352255165689,39.928060173817535,北京富华医疗美容,田村路82号附近,北京市,北京市,,医疗保健服务;医疗保健服务场所;医疗保健服务场所,090000,B0FFHLMR93,医疗保健服务,医疗保健服务场所,医疗保健服务场所,
116.19289766307665,39.94140482176805,北京八大处整形医院,八大处路33号,北京市,北京市,西山,医疗保健服务;专科医院;整形美容,090201,B0FFGHQSNW,医疗保健服务,专科医院,整形美容,
116.20241908011269,39.92896648438679,北方工业大学社区卫生服务中心,晋元庄路5号北方工业大学内,北京市,北京市,石景山,医疗保健服务;综合医院;卫生院,090102,B0FFI8CAGF,医疗保健服务,综合医院,卫生院,
