lon,lat,name,address,pname,cityname,business_area,type,typecode,id,type1,type2,type3,type4
116.08010106077975,40.09318412730535,乾坤山庄,苏家坨镇车耳营路双泉茶棚清闲会所,北京市,北京市,,商务住宅;住宅区;住宅小区,120302,B000A8VWRT,商务住宅,住宅区,住宅小区,
116.08083991425228,40.093142746643785,凤凰新居,(乾坤山庄东南侧),北京市,北京市,,商务住宅;住宅区;住宅区,120300,B0FFKWNL7M,商务住宅,住宅区,住宅区,
116.0848159536613,40.075255341459545,阳山庭院,苏家坨镇管家岭路管家岭68号,北京市,北京市,,商务住宅;商务住宅相关;商务住宅相关,120000,B0FFI65M88,商务住宅,商务住宅相关,商务住宅相关,
116.08591356650557,40.094365684964316,凤凰山居,车耳营路与车耳路交叉口西北150米,北京市,北京市,,商务住宅;商务住宅相关;商务住宅相关,120000,B0FFI382R1,商务住宅,商务住宅相关,商务住宅相关,
116.0886668856463,40.07269958977737,壹宅壹院呆庐,苏家坨镇管家岭村管家岭路47号,北京市,北京市,,商务住宅;商务住宅相关;商务住宅相关,120000,B0GUG7ZJZJ,商务住宅,商务住宅相关,商务住宅相关,
116.09154062671016,40.074699204893776,淡然静园,管家岭路北150米,北京市,北京市,,商务住宅;商务住宅相关;商务住宅相关,120000,B0FFI56J89,商务住宅,商务住宅相关,商务住宅相关,
116.09168663760973,40.0751041752574,围兰庄园,[],北京市,北京市,,商务住宅;商务住宅相关;商务住宅相关,120000,B0G2LKJ9C0,商务住宅,商务住宅相关,商务住宅相关,
116.04404190087482,40.02345006788126,梁萧别墅,002县道东100米,北京市,北京市,,商务住宅;商务住宅相关;商务住宅相关,120000,B0FFI1Z34K,商务住宅,商务住宅相关,商务住宅相关,
116.0564004227076,39.98580415045069,迈克维艺术小镇,妙峰山镇石担路,北京市,北京市,,商务住宅;商务住宅相关;商务住宅相关,120000,B0FFKHGPF7,商务住宅,商务住宅相关,商务住宅相关,
116.05464688520293,39.98868086538065,北京市门头沟区龙凤岭水土保持科技示范园,109国道东150米,北京市,北京市,,商务住宅;产业园区;产业园区,120100,B0FFJOEL4V,商务住宅,产业园区,产业园区,
116.04870472557877,39.988264408277054,金顶妙峯山,G109(京拉线),北京市,北京市,,商务住宅;住宅区;住宅区,120300,B0G0ANPV6B,商务住宅,住宅区,住宅区,
116.085690141063,39.99680815157383,白楼小区,南大街40号附近,北京市,北京市,军庄镇,商务住宅;住宅区;住宅小区,120302,B0FFHQ3K9I,商务住宅,住宅区,住宅小区,
116.08734743449682,39.99636875863921,山水小区,南大街附近,北京市,北京市,军庄镇,商务住宅;住宅区;住宅小区,120302,B0FFHCV9P0,商务住宅,住宅区,住宅小区,
116.05678984748283,39.97000717563653,溪和园,[],北京市,北京市,,商务住宅;商务住宅相关;商务住宅相关,120000,B0G2R6I0CP,商务住宅,商务住宅相关,商务住宅相关,
116.0872853828588,39.996678758721245,云辉园,军庄过街楼,北京市,北京市,军庄镇,商务住宅;住宅区;住宅区,120300,B0FFL7MLIH,商务住宅,住宅区,住宅区,
116.05043193240134,39.97637568899611,陇上科技文化产业园,妙峰山镇石担路陇驾庄东口公交站,北京市,北京市,,商务住宅;商务住宅相关;商务住宅相关,120000,B0FFHGIZI5,商务住宅,商务住宅相关,商务住宅相关,
116.08498143748322,40.00185514910163,山美庭小区,202县道,北京市,北京市,军庄镇,商务住宅;住宅区;住宅小区,120302,B0FFGMTVKQ,商务住宅,住宅区,住宅小区,
116.08199265040753,39.9698776113945,琉璃渠社区,琉璃渠村后街49号,北京市,北京市,龙泉,商务住宅;住宅区;社区中心,120304,B0FFJ7C1X3,商务住宅,住宅区,社区中心,
116.05994153850854,39.92875609015408,安康小区(滑石道),西辛房,北京市,北京市,门头沟,商务住宅;住宅区;住宅小区,120302,B000A85YTG,商务住宅,住宅区,住宅小区,
116.06418315649539,39.936860081599384,西山楼,西山街6号附近,北京市,北京市,东辛房村,商务住宅;住宅区;住宅小区,120302,B0FFGFHUE7,商务住宅,住宅区,住宅小区,
116.06881479587057,39.934371871730654,河南街小区,矿后街与门头沟路交叉口西南150米,北京市,北京市,东辛房村,商务住宅;住宅区;住宅小区,120302,B0FFH143BZ,商务住宅,住宅区,住宅小区,
116.07029991448985,39.93156348305188,南山花园,东辛房街24号,北京市,北京市,门头沟,商务住宅;住宅区;住宅小区,120302,B0FFF6W3Y5,商务住宅,住宅区,住宅小区,
116.0634747442023,39.93090321523921,西辛房社区,西辛房大街51号,北京市,北京市,龙泉,商务住宅;住宅区;社区中心,120304,B0FFHLLXNG,商务住宅,住宅区,社区中心,
116.07106914233434,39.94073237860692,龙新街社区,龙门西街(龙门新区a6小区西侧),北京市,北京市,东辛房村,商务住宅;住宅区;住宅小区,120302,B0FFHLLYBL,商务住宅,住宅区,住宅小区,
116.06978530487892,39.93176398407266,东辛房社区24号院,东辛房街24号附近,北京市,北京市,门头沟,商务住宅;住宅区;住宅小区,120302,B0FFIBVY01,商务住宅,住宅区,住宅小区,
116.07764489518257,39.937344280950676,龙苑,增产路北街与矿建街交叉口西南150米,北京市,北京市,东辛房村,商务住宅;住宅区;住宅小区,120302,B000A8U1Z4,商务住宅,住宅区,住宅小区,
116.09249201615998,39.92753000650607,西山艺境,黑山大街,北京市,北京市,门头沟,商务住宅;住宅区;别墅,120301,B000AA1WY0,商务住宅,住宅区,别墅,
116.07694409638142,39.937905723525574,矿建街社区,矿建街268号院,北京市,北京市,门头沟,商务住宅;住宅区;社区中心|商务住宅;住宅区;住宅小区,120304|120302,B0FFHLMPUX,商务住宅,住宅区,社区中心|商务住宅,住宅区
116.07877546296052,39.92996187296112,中门花园社区,中门寺街67号院,北京市,北京市,门头沟,商务住宅;住宅区;住宅小区,120302,B000A833SO,商务住宅,住宅区,住宅小区,
116.0699409499731,39.94131444828184,龙门新区A5小区,龙门西街,北京市,北京市,龙泉,商务住宅;住宅区;住宅小区,120302,B0FFG8L6AP,商务住宅,住宅区,住宅小区,
116.07102838939632,39.939048483832,龙门新区A10小区,门头沟北路与龙门西路交汇处西100米,北京市,北京市,龙泉,商务住宅;住宅区;住宅小区,120302,B0FFGI8TIQ,商务住宅,住宅区,住宅小区,
116.07377143115468,39.93991802533801,龙门新区A6小区,龙山街,北京市,北京市,龙泉,商务住宅;住宅区;住宅小区,120302,B0FFG707LJ,商务住宅,住宅区,住宅小区,
116.05891065134162,39.93136548256135,惠泽家园,[],北京市,北京市,门头沟,商务住宅;住宅区;住宅小区,120302,B0FFFH0G9C,商务住宅,住宅区,住宅小区,
116.07314691577835,39.93912157909956,龙门新区A8小区,门头沟北路与龙门西路交叉口北100米,北京市,北京市,龙泉,商务住宅;住宅区;住宅小区,120302,B0FFGHFAG1,商务住宅,住宅区,住宅小区,
116.06422800324032,39.9376549940213,西山社区,西山街109-3,北京市,北京市,龙泉,商务住宅;住宅区;社区中心,120304,B0FFJ7QHVR,商务住宅,住宅区,社区中心,
116.07795803328355,39.93539115813636,东辛房东街小区,东辛房东街253号附近,北京市,北京市,东辛房村,商务住宅;住宅区;住宅小区,120302,B0FFGZ00EA,商务住宅,住宅区,住宅小区,
116.0633950637121,39.929149388060495,华怡家园,西赵路附近,北京市,北京市,门头沟,商务住宅;住宅区;住宅小区,120302,B0FFGI1WPE,商务住宅,住宅区,住宅小区,
116.08106885597589,39.938221293403444,增产路北街,河滩龙门车站附近,北京市,北京市,门头沟,商务住宅;住宅区;住宅区,120300,B0FFGQ6PAC,商务住宅,住宅区,住宅区,
116.07366393235604,39.944296940920594,龙门居住区,和平街与和平西街交叉路口往西南约150米,北京市,北京市,龙泉,商务住宅;住宅区;住宅小区,120302,B0FFL2US0H,商务住宅,住宅区,住宅小区,
116.08799371170213,39.94863954470521,广场社区,七棵树东大街137号楼院内,北京市,北京市,门头沟,商务住宅;住宅区;住宅小区,120302,B000A8U1Z7,商务住宅,住宅区,住宅小区,
116.05644961314381,39.929241325015695,北涧沟社区,北涧沟148号,北京市,北京市,门头沟,商务住宅;住宅区;社区中心,120304,B0FFIYVFIV,商务住宅,住宅区,社区中心,
116.06920184262857,39.93917527970727,新东山,九龙路(龙门新区A10小区西侧约250米),北京市,北京市,龙泉,商务住宅;商务住宅相关;商务住宅相关,120000,B0FFITDLHL,商务住宅,商务住宅相关,商务住宅相关,
116.07272583003017,39.92633045417761,中门寺村,大峪中门,北京市,北京市,门头沟,商务住宅;住宅区;住宅小区|地名地址信息;普通地名;村庄级地名,120302|190108,B0FFG74YZR,商务住宅,住宅区,住宅小区|地名地址信息,普通地名
116.08844777316021,39.941227757815625,惠民家园,增产路7号,北京市,北京市,门头沟,商务住宅;住宅区;住宅小区,120302,B000A85V55,商务住宅,住宅区,住宅小区,
116.06964693121365,39.94334266221609,龙门新区A2A3小区,和平西街与龙山街交叉口西北200米,北京市,北京市,龙泉,商务住宅;住宅区;住宅小区,120302,B0FFHC97HE,商务住宅,住宅区,住宅小区,
116.07644553341134,39.92837244956888,中门家园社区,大峪南路67号附近,北京市,北京市,门头沟,商务住宅;住宅区;住宅小区,120302,B0FFHYIY0D,商务住宅,住宅区,住宅小区,
116.0759510767889,39.9414502797399,龙门新区5区,和平街与龙山街交叉口东南50米,北京市,北京市,东辛房村,商务住宅;住宅区;住宅小区,120302,B0FFHC9CBY,商务住宅,住宅区,住宅小区,
116.07181218669811,39.943955562647,龙门新区A1小区,东辛房街道增北路龙门新区四区A1,北京市,北京市,龙泉,商务住宅;住宅区;住宅小区,120302,B0FFHC97JC,商务住宅,住宅区,住宅小区,
116.08510798173421,39.935519775968984,金泰·悦中心,中门寺街与大峪二小路交叉口东北侧,北京市,北京市,大峪村,商务住宅;住宅区;住宅小区,120302,B0FFHRY0C8,商务住宅,住宅区,住宅小区,
116.0719192915581,39.94255352078202,龙门新区A4小区,和平西街33号,北京市,北京市,龙泉,商务住宅;住宅区;住宅小区,120302,B0FFGI8QET,商务住宅,住宅区,住宅小区,
116.08030310336694,39.94522840737945,东龙门数字文化社区,福康路附近,北京市,北京市,龙泉,商务住宅;住宅区;住宅小区,120302,B0FFL51L62,商务住宅,住宅区,住宅小区,
116.08807407184825,39.9381999415369,黑山西街社区,大峪街道,北京市,北京市,大峪村,商务住宅;住宅区;住宅小区,120302,B0FFHLTQRM,商务住宅,住宅区,住宅小区,
116.08310747421963,39.931625644765695,人保大厦,大峪南路,北京市,北京市,门头沟,商务住宅;楼宇;商务写字楼,120201,B0FFGMMWNI,商务住宅,楼宇,商务写字楼,
116.07990928352238,39.92896326582122,新发展文创园,中门寺街69号,北京市,北京市,门头沟,商务住宅;产业园区;产业园区,120100,B0HAK5HYFA,商务住宅,产业园区,产业园区,
116.07989032287533,39.92869228711316,新发展文化创意产业园,中门寺69号,北京市,北京市,门头沟,商务住宅;产业园区;产业园区,120100,B0H6H5FTJZ,商务住宅,产业园区,产业园区,
116.09047141454714,39.93333283229068,建东社区,大峪南路,北京市,北京市,大峪村,商务住宅;住宅区;住宅小区,120302,B0FFHLM15V,商务住宅,住宅区,住宅小区,
116.08359500929845,39.93509331574788,坡头西街社区,东辛房东街与中门寺街交叉口西南100米,北京市,北京市,门头沟,商务住宅;住宅区;住宅小区,120302,B000A8UTT4,商务住宅,住宅区,住宅小区,
116.08688010712031,39.936093271062106,金泰丽湾悦栖山,增产路,北京市,北京市,门头沟,商务住宅;住宅区;住宅小区,120302,B0FFG8XXRY,商务住宅,住宅区,住宅小区,
116.09199801663378,39.933518763824516,黑山东区社区,大峪街道,北京市,北京市,大峪村,商务住宅;住宅区;住宅小区,120302,B0FFIBM1F2,商务住宅,住宅区,住宅小区,
116.05612111379529,39.92936884043869,滨河楼,滑石道与门头沟路交叉口西北150米,北京市,北京市,门头沟,商务住宅;住宅区;住宅小区,120302,B0FFFYTUKQ,商务住宅,住宅区,住宅小区,
116.0840275672735,39.94626771386272,向阳社区,黑山大街,北京市,北京市,龙泉,商务住宅;住宅区;住宅小区,120302,B0FFL5XBFM,商务住宅,住宅区,住宅小区,
116.07668153211124,39.92758831696114,中门家园-南区,中赵路(中门家园),北京市,北京市,门头沟,商务住宅;住宅区;住宅区,120300,B0GRMDXM43,商务住宅,住宅区,住宅区,
116.07965431707213,39.944749778007214,龙门新区2区,增产路与福泰路交叉口西北150米,北京市,北京市,龙泉,商务住宅;住宅区;住宅小区,120302,B0FFHL29JJ,商务住宅,住宅区,住宅小区,
116.08987930072021,39.932603912662096,门头沟教委小区,大峪南路与黑山大街交汇处西南250米,北京市,北京市,门头沟,商务住宅;住宅区;住宅小区,120302,B0FFKDTQ6B,商务住宅,住宅区,住宅小区,
116.09003993078207,39.93590676548446,小鱼社区,黑山大街11号附近,北京市,北京市,门头沟,商务住宅;住宅区;住宅小区,120302,B0FFLHSAEE,商务住宅,住宅区,住宅小区,
116.08425468676023,39.929787287732104,中门寺南坡回迁安置小区,二小南路,北京市,北京市,门头沟,商务住宅;住宅区;住宅小区,120302,B0FFG82WD2,商务住宅,住宅区,住宅小区,
116.07929128201839,39.930208561305236,中门寺39号院,中门寺39号,北京市,北京市,门头沟,商务住宅;住宅区;住宅区,120300,B0FFLAFZOG,商务住宅,住宅区,住宅区,
116.08832285417597,39.932572122400344,坡头南街小区,大峪南路南50米,北京市,北京市,门头沟,商务住宅;住宅区;住宅小区,120302,B0FFGJKEGA,商务住宅,住宅区,住宅小区,
116.08772008375765,39.937498035663126,泓惠楼,黑山二西街25排1号,北京市,北京市,门头沟,商务住宅;住宅区;住宅小区|餐饮服务;中餐厅;中餐厅,120302|050100,B0FFJ7XS1B,商务住宅,住宅区,住宅小区|餐饮服务,中餐厅
116.09206691672499,39.93454072270371,龙山家园4号院,大峪二小路与黑山东街交叉口路南50米路西西南方向120米,北京市,北京市,门头沟,商务住宅;住宅区;住宅小区,120302,B0FFL4I2WT,商务住宅,住宅区,住宅小区,
116.09049519997413,39.92728507369213,西山艺境二号院,高家园路(西山艺境),北京市,北京市,门头沟,商务住宅;住宅区;住宅区,120300,B0G1G9OF81,商务住宅,住宅区,住宅区,
116.06965292802937,39.943328656732085,龙门新区A3小区,和平西街与龙山街交叉口西100米,北京市,北京市,龙泉,商务住宅;商务住宅相关;商务住宅相关,120000,B0FFH9BBRG,商务住宅,商务住宅相关,商务住宅相关,
116.0544599017266,39.92870056827583,新桥苑,九龙路与门头沟路交叉路口北侧,北京市,北京市,门头沟,商务住宅;住宅区;住宅区,120300,B0FFL6BCGB,商务住宅,住宅区,住宅区,
116.08293852643759,39.93907741622397,增峪路5号院,增产路与增产路北街交叉口西北150米,北京市,北京市,门头沟,商务住宅;住宅区;住宅区,120300,B0FFGFJ07C,商务住宅,住宅区,住宅区,
116.06995762980088,39.91256460265967,顶湖别墅(建设中),永定镇南官园,北京市,北京市,,商务住宅;住宅区;别墅,120301,B0FFMATAC8,商务住宅,住宅区,别墅,
116.08792150926783,39.93452611548759,龙山家园2号院,大峪南路北150米,北京市,北京市,门头沟,商务住宅;住宅区;住宅小区,120302,B0FFHCO77D,商务住宅,住宅区,住宅小区,
116.08624179615407,39.94557405381026,七棵树西大街小区,城子中路,北京市,北京市,龙泉,商务住宅;住宅区;住宅小区,120302,B0FFGJL1AO,商务住宅,住宅区,住宅小区,
116.08992634120744,39.940195606235804,增产路38号院,增产路36-4号附近,北京市,北京市,门头沟,商务住宅;住宅区;住宅小区,120302,B000AA4H8I,商务住宅,住宅区,住宅小区,
116.08713646384578,39.94143900112459,黑山北小街小区,黑山北小街与门头沟路交叉口,北京市,北京市,门头沟,商务住宅;住宅区;住宅小区,120302,B0FFG7VHY1,商务住宅,住宅区,住宅小区,
116.0759375415695,39.94566212339433,龙门新区B1小区,福源路附近,北京市,北京市,龙泉,商务住宅;住宅区;住宅小区,120302,B0FFFTSS3C,商务住宅,住宅区,住宅小区,
116.09025621123935,39.93431081008194,黑山龙山家园,大峪南路,北京市,北京市,门头沟,商务住宅;住宅区;住宅小区,120302,B0FFG4OKED,商务住宅,住宅区,住宅小区,
116.08489755800659,39.94650540829066,二斜井,门头沟博物馆北,北京市,北京市,龙泉,商务住宅;住宅区;住宅小区,120302,B0FFF0EW2T,商务住宅,住宅区,住宅小区,
116.06639458305106,39.9227479987566,隐溪小筑,305乡道北100米,北京市,北京市,,商务住宅;商务住宅相关;商务住宅相关,120000,B0FFIRQ03H,商务住宅,商务住宅相关,商务住宅相关,
116.08464820981816,39.93357200169131,中门寺街6号院,龙泉镇中门寺街6号,北京市,北京市,门头沟,商务住宅;住宅区;住宅小区,120302,B000A8U1Z5,商务住宅,住宅区,住宅小区,
116.08428021559294,39.94123782251686,龙山小区A2-B商业楼,大峪二小路A2-B号商业楼,北京市,北京市,门头沟,商务住宅;商务住宅相关;商务住宅相关,120000,B0FFLBC263,商务住宅,商务住宅相关,商务住宅相关,
116.0870423053396,39.93476228694104,黑山A2区,增产路东200米,北京市,北京市,门头沟,商务住宅;住宅区;住宅区,120300,B0FFGFG0VR,商务住宅,住宅区,住宅区,
116.0742115439755,39.94482847388292,门头沟龙门新区b9小区,和平街与增北路交叉口西南150米,北京市,北京市,龙泉,商务住宅;商务住宅相关;商务住宅相关,120000,B0FFHJOZ7H,商务住宅,商务住宅相关,商务住宅相关,
116.08809748357564,39.95059944910563,九龙东苑1号地北区,[],北京市,北京市,门头沟,商务住宅;住宅区;住宅小区,120302,B0HDBCHMHX,商务住宅,住宅区,住宅小区,
116.07301632450418,39.94436448320337,城子街道办事处社会组织服务(孵化)园,和平街与和平西街交叉口北100米,北京市,北京市,龙泉,商务住宅;产业园区;产业园区,120100,B0FFHC97EH,商务住宅,产业园区,产业园区,
116.0897319266109,39.94292151844248,中昂时代,门头沟路9号博物馆对面,北京市,北京市,门头沟,商务住宅;楼宇;商务写字楼,120201,B0FFFAQ0NG,商务住宅,楼宇,商务写字楼,
116.07305428941321,39.94444944738684,城子街道社会组织服务孵化园,[],北京市,北京市,龙泉,商务住宅;产业园区;产业园区|生活服务;生活服务场所;生活服务场所,120100|070000,B0FFHMW4T4,商务住宅,产业园区,产业园区|生活服务,生活服务场所
116.09202819998193,39.93998350687786,华远西山雅园,门头沟政府西北方向150米,北京市,北京市,门头沟,商务住宅;住宅区;住宅小区,120302,B0FFFF7N0S,商务住宅,住宅区,住宅小区,
116.08919144975656,39.95310718232654,城子西街1号院,滨河路向西1公里、城子西街1号院,北京市,北京市,门头沟,商务住宅;住宅区;住宅小区,120302,B000A8UTT5,商务住宅,住宅区,住宅小区,
116.08822482757189,39.93259413823827,坡头教师楼,中门寺街17号,北京市,北京市,大峪村,商务住宅;住宅区;住宅区,120300,B0FFGYZYGO,商务住宅,住宅区,住宅区,
116.08746448109588,39.9340002262018,龙山家园-1号院,大峪南路北100米,北京市,北京市,门头沟,商务住宅;住宅区;住宅区,120300,B0FFL7H31T,商务住宅,住宅区,住宅区,
116.08921928735565,39.94665543170815,园丁之家(七棵树东大街),城子七棵树东大街120号院,北京市,北京市,门头沟,商务住宅;住宅区;住宅小区,120302,B0FFG64W85,商务住宅,住宅区,住宅小区,
116.08788571183884,39.94845057213281,西七棵树东大街,"七棵树东大街西,长城公园西南400米",北京市,北京市,门头沟,商务住宅;住宅区;住宅区,120300,B0FFGFGK65,商务住宅,住宅区,住宅区,
116.07621451493782,39.94487695537194,龙门新区,福康路,北京市,北京市,龙泉,商务住宅;住宅区;住宅小区,120302,B0FFF09BW7,商务住宅,住宅区,住宅小区,
116.08878237693817,39.95277225225571,城子西街社区,"滨河路向西1公里,城子西街",北京市,北京市,门头沟,商务住宅;住宅区;住宅小区,120302,B000ABCRGE,商务住宅,住宅区,住宅小区,
116.08898233438201,39.93797380585406,惠民家园社区,惠民家园23号楼南3门,北京市,北京市,门头沟,商务住宅;住宅区;住宅小区,120302,B0FFJ7QFQL,商务住宅,住宅区,住宅小区,
116.07968731350464,39.944712761115596,龙门二区农民房,增产路与福泰路交叉口西北150米,北京市,北京市,龙泉,商务住宅;商务住宅相关;商务住宅相关,120000,B0FFHKJWXL,商务住宅,商务住宅相关,商务住宅相关,
116.09128274070267,39.94104148111949,华远·裘马四季,新桥大街西侧,北京市,北京市,门头沟,商务住宅;住宅区;住宅小区,120302,B0FFGXL4T1,商务住宅,住宅区,住宅小区,
116.09246814854842,39.93419773846732,龙山家园5号院,大峪南路13号附近,北京市,北京市,门头沟,商务住宅;住宅区;住宅小区,120302,B0FFGEV6XI,商务住宅,住宅区,住宅小区,
116.09164972680435,39.942358418240055,北后街小区,增产路与门头沟路交叉口东50米,北京市,北京市,门头沟,商务住宅;住宅区;住宅小区,120302,B0FFH13BKT,商务住宅,住宅区,住宅小区,
116.08608283617615,39.937331421384684,惠民家园2区19楼,惠民家园二区20号楼西边40米,北京市,北京市,门头沟,商务住宅;商务住宅相关;商务住宅相关,120000,B0FFH13EML,商务住宅,商务住宅相关,商务住宅相关,
116.0900543033851,39.940828569118544,增产路32号院,增产路(惠民家园-一区东侧),北京市,北京市,门头沟,商务住宅;住宅区;住宅区,120300,B0FFK8UTZ8,商务住宅,住宅区,住宅区,
116.0826079201325,39.943981360168436,龙门一区社区,龙门新区B4小区3号楼,北京市,北京市,龙泉,商务住宅;住宅区;社区中心,120304,B0FFJ7QHVT,商务住宅,住宅区,社区中心,
116.09018924002655,39.941686523265105,惠锦家园,门头沟路8-1号附近,北京市,北京市,门头沟,商务住宅;住宅区;住宅区,120300,B0FFHQNKMS,商务住宅,住宅区,住宅区,
116.08986408705793,39.93422784930221,龙山家园-3号院,大峪二小路与黑山大街交叉口西南150米,北京市,北京市,门头沟,商务住宅;住宅区;住宅区,120300,B0FFK2UH14,商务住宅,住宅区,住宅区,
116.07734487952408,39.94612713010493,龙门新区一区B2地块,福源路东龙门村,北京市,北京市,龙泉,商务住宅;住宅区;住宅小区,120302,B0FFF2PVUF,商务住宅,住宅区,住宅小区,
116.08219981277409,39.945115492205616,七棵树西街社区,西七棵树90号院1号楼3单元B01,北京市,北京市,龙泉,商务住宅;住宅区;社区中心,120304,B0FFJ7QGWV,商务住宅,住宅区,社区中心,
116.08339871848695,39.94518299178786,惠锦园小区,城子大街,北京市,北京市,龙泉,商务住宅;商务住宅相关;商务住宅相关,120000,B0FFIPWJRA,商务住宅,商务住宅相关,商务住宅相关,
116.07904134098068,39.9458560842649,龙门新区B3小区,福康路北侧,北京市,北京市,龙泉,商务住宅;住宅区;住宅小区,120302,B0FFF2MUR1,商务住宅,住宅区,住宅小区,
116.09245497259487,39.9355186856664,龙山家园a5-4号楼楼,大峪街道龙山家园a5-4号楼,北京市,北京市,大峪村,商务住宅;商务住宅相关;商务住宅相关,120000,B0FFMGU6UH,商务住宅,商务住宅相关,商务住宅相关,
116.08739580423351,39.93916403523216,增产路21号院,增产路与黑山北小街交叉口西100米,北京市,北京市,门头沟,商务住宅;住宅区;住宅区,120300,B0FFF3CBR8,商务住宅,住宅区,住宅区,
116.09143374690397,39.925911080719,西山艺境8号院,高家园路(西山艺境),北京市,北京市,门头沟,商务住宅;住宅区;住宅区,120300,B0HBTG1BB9,商务住宅,住宅区,住宅区,
116.0904590055206,39.93648170774544,全兴楼,黑山东街与黑山大街交叉口东北50米,北京市,北京市,大峪村,商务住宅;楼宇;商务写字楼,120201,B0FFFQOMKZ,商务住宅,楼宇,商务写字楼,
116.08235794883365,39.94393246943424,龙门新区B4小区,增产路附近,北京市,北京市,龙泉,商务住宅;住宅区;住宅小区,120302,B0FFF02GXB,商务住宅,住宅区,住宅小区,
116.09236492883714,39.93552568435934,龙山家园a1一区一号楼楼,大峪街道龙山家园a1一区一号楼,北京市,北京市,龙泉,商务住宅;商务住宅相关;商务住宅相关,120000,B0FFM8Y116,商务住宅,商务住宅相关,商务住宅相关,
116.09195694034722,39.941753437476336,河滩三角地,增产路与门头沟路交叉口西南100米,北京市,北京市,门头沟,商务住宅;住宅区;住宅区,120300,B0FFH0JPDL,商务住宅,住宅区,住宅区,
116.09012827238377,39.933484854022225,龙山家园1区,大峪南路北100米,北京市,北京市,门头沟,商务住宅;住宅区;住宅小区,120302,B0FFH16XH7,商务住宅,住宅区,住宅小区,
116.09062145377575,39.94124550766937,西山阅家园,增产路32号楼附近,北京市,北京市,龙泉,商务住宅;住宅区;住宅区,120300,B0FFL4NM8T,商务住宅,住宅区,住宅区,
116.08984591948413,39.94326849297593,4号楼公寓,桥西街(中昂时代),北京市,北京市,门头沟,商务住宅;住宅区;住宅区,120300,B0FFLA93MP,商务住宅,住宅区,住宅区,
116.09084346121463,39.941847470160184,增产路南街,增产路与门头沟路交叉口西南50米,北京市,北京市,门头沟,商务住宅;住宅区;住宅区,120300,B0FFHU2POR,商务住宅,住宅区,住宅区,
116.09249275615105,39.92955792470077,西山艺境3号院,高家园路(西山艺境),北京市,北京市,门头沟,商务住宅;住宅区;住宅区,120300,B0FFL3EIG5,商务住宅,住宅区,住宅区,
116.09082432345885,39.950643125665685,城子复兴后街小区,"水闸车站附近,城子大街22号院",北京市,北京市,门头沟,商务住宅;住宅区;住宅小区,120302,B0FFGYZZ2H,商务住宅,住宅区,住宅小区,
116.08988629511606,39.94823129388073,九龙东苑-一号地,七棵树东大街,北京市,北京市,门头沟,商务住宅;住宅区;住宅区,120300,B0HG0PUKIM,商务住宅,住宅区,住宅区,
116.08944619251243,39.940146660044505,增产路大街42号院,增产路42号,北京市,北京市,门头沟,商务住宅;住宅区;住宅小区,120302,B000A87AZ2,商务住宅,住宅区,住宅小区,
116.09106738894276,39.94309740921027,3号楼公寓,门头沟路,北京市,北京市,门头沟,商务住宅;住宅区;住宅区,120300,B0FFLADUZ4,商务住宅,住宅区,住宅区,
116.08717964815311,39.94006504590836,黑山北小街11号院,增产路与黑山大街交叉路口往西约50米,北京市,北京市,门头沟,商务住宅;住宅区;住宅区,120300,B000AA4JOM,商务住宅,住宅区,住宅区,
116.08914427633424,39.946569444858305,园丁之家-120号院,七棵树东大街120号,北京市,北京市,门头沟,商务住宅;住宅区;住宅区,120300,B0FFM8T1XK,商务住宅,住宅区,住宅区,
116.08925131654296,39.946502433620495,七棵树东大街120号院,七棵树东大街120号,北京市,北京市,门头沟,商务住宅;住宅区;住宅小区,120302,B0FFJ34O7X,商务住宅,住宅区,住宅小区,
116.08984100925892,39.93477382985697,龙山家园3区,大峪二小路与黑山大街交叉口西南150米,北京市,北京市,门头沟,商务住宅;商务住宅相关;商务住宅相关,120000,B0FFG9JZ84,商务住宅,商务住宅相关,商务住宅相关,
116.0909159857902,39.93019892956097,西山艺境1号苑,黑山大街,北京市,北京市,门头沟,商务住宅;商务住宅相关;商务住宅相关,120000,B0FFI6RULX,商务住宅,商务住宅相关,商务住宅相关,
116.08788008105336,39.94556868637407,住总老生活区,矿桥东街,北京市,北京市,门头沟,商务住宅;住宅区;宿舍,120303,B0FFM4KVNK,商务住宅,住宅区,宿舍,
116.09100866362986,39.948559197433504,九龙东苑,七棵树东大街35号,北京市,北京市,门头沟,商务住宅;住宅区;住宅区,120300,B0G2M4VYHE,商务住宅,住宅区,住宅区,
116.08898705290484,39.95573410689259,北京市门头沟区燕保龙泉家园,城子中路15号,北京市,北京市,门头沟,商务住宅;住宅区;住宅小区,120302,B0FFH0V5HX,商务住宅,住宅区,住宅小区,
116.08878999385311,39.940208744952926,增产路7号楼,黑山公园北侧增产路7号,北京市,北京市,门头沟,商务住宅;商务住宅相关;商务住宅相关,120000,B0FFKEZ4WL,商务住宅,商务住宅相关,商务住宅相关,
116.05250135450578,39.928068922759834,梅苑翰境文化创意产业基地,窑神庙公园(滑石道西),北京市,北京市,龙泉,商务住宅;产业园区;产业园区,120100,B000A9TC92,商务住宅,产业园区,产业园区,
116.08903618531332,39.954813136197124,和平路33号院,和平路76号附近,北京市,北京市,门头沟,商务住宅;住宅区;住宅区,120300,B0FFH16PFT,商务住宅,住宅区,住宅区,
116.08989186367877,39.95160216118254,东七社区,城子西街42号楼,北京市,北京市,门头沟,商务住宅;住宅区;社区中心,120304,B0FFJ7QGWR,商务住宅,住宅区,社区中心,
116.08705980326917,39.93869312679548,大峪街道惠民家园社区文化活动室,增产路56号附近,北京市,北京市,门头沟,商务住宅;住宅区;社区中心,120304,B0FFHCO70I,商务住宅,住宅区,社区中心,
116.0900252868855,39.94087956978679,大峪街道增产路东区社区,增产路36-1东北方向30米,北京市,北京市,门头沟,商务住宅;住宅区;社区中心,120304,B0FFF91FWB,商务住宅,住宅区,社区中心,
116.0895645002904,39.906884010917715,冯西园南2区,西北环线附近,北京市,北京市,,商务住宅;住宅区;住宅小区,120302,B0FFHWPOGO,商务住宅,住宅区,住宅小区,
116.09174628816315,39.907155856164394,冯西园南1区,西北环线旁,北京市,北京市,永定,商务住宅;住宅区;住宅小区,120302,B0FFHX31PR,商务住宅,住宅区,住宅小区,
116.09193474772896,39.904224980676474,北岭社区,益群山庄南区,北京市,北京市,永定,商务住宅;住宅区;住宅小区,120302,B0FFH13DCF,商务住宅,住宅区,住宅小区,
116.08393880042463,39.905531411404056,长安壹号半山上的宫殿,永定镇冯西园,北京市,北京市,,商务住宅;住宅区;住宅小区,120302,B0FFF0ERJG,商务住宅,住宅区,住宅小区,
116.09123160171933,39.90301005126215,南区社区,万佛堂村村委会院内,北京市,北京市,永定,商务住宅;住宅区;社区中心,120304,B0FFJ7QGXB,商务住宅,住宅区,社区中心,
116.12399494762406,40.12820247051772,北京红谷文化园,北安河路南50米,北京市,北京市,阳坊村,商务住宅;产业园区;产业园区,120100,B0FFG4PS8M,商务住宅,产业园区,产业园区,
116.12935618688614,40.14454179261943,幸福家园,温南路,北京市,北京市,,商务住宅;住宅区;住宅小区,120302,B0FFHQ5JO0,商务住宅,住宅区,住宅小区,
116.13817399936474,40.14392886581703,碧春园小区,阳坊镇碧春园,北京市,北京市,阳坊村,商务住宅;住宅区;住宅小区,120302,B000A844UY,商务住宅,住宅区,住宅小区,
116.13311982295167,40.13616095447162,北京阳坊大都涮羊肉总部大楼,西贯市村阳坊镇政府南侧,北京市,北京市,,商务住宅;楼宇;商务写字楼,120201,B0FFIP7LWH,商务住宅,楼宇,商务写字楼,
116.13947525126437,40.14390093795252,观山亲庭,东北街与阳八路交叉路口往南约50米(碧春园小区),北京市,北京市,阳坊村,商务住宅;住宅区;住宅区,120300,B000A852GC,商务住宅,住宅区,住宅区,
116.11068931805302,40.12447959393122,东河湾,白虎涧路,北京市,北京市,,商务住宅;商务住宅相关;商务住宅相关,120000,B0HBRK44XI,商务住宅,商务住宅相关,商务住宅相关,
116.11740312473043,40.1158802642032,极东产业园双创社区,前白虎涧农民就业产业基地附近,北京市,北京市,,商务住宅;住宅区;住宅小区,120302,B0FFLDGGY6,商务住宅,住宅区,住宅小区,
116.13371526759718,40.14355909160912,西山上品湾MOMA,阳坊村新一街48号,北京市,北京市,阳坊村,商务住宅;住宅区;住宅小区,120302,B0FFK50TTE,商务住宅,住宅区,住宅小区,
116.13740271327264,40.13911214134556,家和家园,中顺街与阳坊村西大街交叉口西150米,北京市,北京市,阳坊村,商务住宅;住宅区;住宅区,120300,B0FFHOQPVG,商务住宅,住宅区,住宅区,
116.12954636940994,40.11529279034062,斯凯兰德生态环保园,苏家坨镇后沙涧村村西,北京市,北京市,,商务住宅;产业园区;产业园区,120100,B0FFHUBKO2,商务住宅,产业园区,产业园区,
116.13496418304966,40.13613469437784,红霞玫园,S218(温南路),北京市,北京市,阳坊,商务住宅;商务住宅相关;商务住宅相关,120000,B0FFH1ZRR6,商务住宅,商务住宅相关,商务住宅相关,
116.1341923413415,40.13618153442561,员工宿舍,阳坊镇,北京市,北京市,阳坊村,商务住宅;住宅区;宿舍,120303,B0FFKWD3QB,商务住宅,住宅区,宿舍,
116.13733088597264,40.13639129691743,黑玛国际,阳坊村西大街,北京市,北京市,阳坊,商务住宅;商务住宅相关;商务住宅相关,120000,B0GDDO08JM,商务住宅,商务住宅相关,商务住宅相关,
116.13409656884527,40.14043097255758,阳坊镇住院,阳坊镇中心北街13号附近,北京市,北京市,阳坊,商务住宅;商务住宅相关;商务住宅相关,120000,B0FFH14X8E,商务住宅,商务住宅相关,商务住宅相关,
116.11723277254427,40.116312057600396,极东·未来产业园,阳坊镇聂各庄路,北京市,北京市,,商务住宅;产业园区;产业园区,120100,B0FFJCNMA1,商务住宅,产业园区,产业园区,
116.13967950155637,40.114757982239766,后沙涧4区,苏家坨西路南150米,北京市,北京市,,商务住宅;住宅区;住宅小区,120302,B0FFFGY9T1,商务住宅,住宅区,住宅小区,
116.14052886977885,40.11302850003558,后沙涧6区,前沙涧路与苏家坨北路交叉口西北150米,北京市,北京市,,商务住宅;住宅区;住宅小区,120302,B0FFFGXFD5,商务住宅,住宅区,住宅小区,
116.13137365762145,40.15278073166603,阳坊工业园,S218(温南路),北京市,北京市,,商务住宅;产业园区;产业园区,120100,B0FFFQJ8K6,商务住宅,产业园区,产业园区,
116.13914066122668,40.11076045254306,麓景嘉园北里,后沙涧路与苏三路交叉口西北150米,北京市,北京市,,商务住宅;住宅区;住宅小区,120302,B0FFFACRJ6,商务住宅,住宅区,住宅小区,
116.13969950559121,40.138520839111486,阳坊社区,阳坊村裕成街4号,北京市,北京市,阳坊村,商务住宅;住宅区;社区中心,120304,B0FFJ93MZ6,商务住宅,住宅区,社区中心,
116.13763644728887,40.11448876336071,苏家坨工业园,苏家坨西路南150米,北京市,北京市,,商务住宅;产业园区;产业园区,120100,B0FFIK8U78,商务住宅,产业园区,产业园区,
116.13432444360565,40.11445670274592,北京臻品奇异莓示范园,小毛驴市民农园,北京市,北京市,,商务住宅;商务住宅相关;商务住宅相关,120000,B0GU2NCYT1,商务住宅,商务住宅相关,商务住宅相关,
116.1061211451634,40.10989877780305,北京军昌培训中心3号院,苏家坨镇台头村路5号,北京市,北京市,,商务住宅;商务住宅相关;商务住宅相关,120000,B0GRKM36L0,商务住宅,商务住宅相关,商务住宅相关,
116.13907360657507,40.10987741801829,苏家坨镇社区社会组织孵化基地,后沙涧路附近,北京市,北京市,,商务住宅;产业园区;产业园区,120100,B0FFL6D4DH,商务住宅,产业园区,产业园区,
116.14229027787484,40.11379732542057,后沙涧村文化活动中心,苏家坨北路(苏家坨工业园东北侧约150米),北京市,北京市,,商务住宅;住宅区;社区中心,120304,B0FFL7SA58,商务住宅,住宅区,社区中心,
116.138638519212,40.10988872494339,前沙涧地区综合文化活动中心,后沙涧路与苏三路交叉口西150米,北京市,北京市,,商务住宅;住宅区;社区中心,120304,B0FFIEMR1W,商务住宅,住宅区,社区中心,
116.1108267756009,40.083717921984,五矿观山,苏家坨镇北安河路与七王坟路向北200米路西,北京市,北京市,,商务住宅;住宅区;别墅,120301,B0FFHQ6JB4,商务住宅,住宅区,别墅,
116.11115525028083,40.08373217403482,五矿国际创新中心,北安河路,北京市,北京市,,商务住宅;产业园区;产业园区,120100,B0FFHP90R4,商务住宅,产业园区,产业园区,
116.11543198542005,40.08318586591353,西埠头村文化活动中心,苏家坨镇,北京市,北京市,,商务住宅;住宅区;社区中心|体育休闲服务;体育休闲服务场所;体育休闲服务场所,120304|080000,B0FFIRCLGO,商务住宅,住宅区,社区中心|体育休闲服务,体育休闲服务场所
116.1075180133715,40.10892371117483,凤凰小区(台头村路),台头村路,北京市,北京市,,商务住宅;住宅区;住宅小区,120302,B000A81HTJ,商务住宅,住宅区,住宅小区,
116.11391645436409,40.09151190857414,西院,[],北京市,北京市,,商务住宅;住宅区;住宅小区,120302,B0G0XZXL0W,商务住宅,住宅区,住宅小区,
116.12835443893995,40.0943748336025,正源尚峰尚水,温北路8号,北京市,北京市,,商务住宅;住宅区;住宅区,120300,B0FFI2L3Z4,商务住宅,住宅区,住宅区,
116.13346367311112,40.0812579413882,融荣居,苏家坨镇柳林村河南一区5号,北京市,北京市,,商务住宅;住宅区;住宅小区,120302,B0HGMDYGDI,商务住宅,住宅区,住宅小区,
116.11601976917032,40.07695283774674,天工家园(出租房公寓),北安河路美廉超市东150米,北京市,北京市,,商务住宅;住宅区;住宅区,120300,B0FFIY0ISG,商务住宅,住宅区,住宅区,
116.10776393776584,40.104218246593405,凤凰岭公寓,聂各庄,北京市,北京市,,商务住宅;住宅区;住宅小区,120302,B000A7OYIR,商务住宅,住宅区,住宅小区,
116.11166413952468,40.09815153240084,温馨家园,聂各庄东路与聂各庄路交叉口南150米,北京市,北京市,,商务住宅;住宅区;住宅小区,120302,B0FFJMTFBY,商务住宅,住宅区,住宅小区,
116.10290938841307,40.0953992410104,凤凰公社D园,[],北京市,北京市,,商务住宅;住宅区;住宅小区,120302,B0HAJZ748M,商务住宅,住宅区,住宅小区,
116.13465811742456,40.084188514481525,亿清佳华(北京)集团产业园,苏家坨西路(亿清佳华光电产业基地),北京市,北京市,,商务住宅;产业园区;产业园区,120100,B0FFHQ85PM,商务住宅,产业园区,产业园区,
116.11355267086478,40.10088989040684,金鑫创业园二部,[],北京市,北京市,,商务住宅;产业园区;产业园区,120100,B0FFIW8C7Y,商务住宅,产业园区,产业园区,
116.11354890661957,40.10677042436834,宏棠上水,苏家坨镇凤凰岭路7号,北京市,北京市,,商务住宅;住宅区;别墅|商务住宅;住宅区;住宅小区,120301|120302,B0FFILHABE,商务住宅,住宅区,别墅|商务住宅,住宅区
116.13236552763215,40.08587102483081,柳林河北1区70号,苏家坨西路(亿清佳华光电产业基地西北侧约250米),北京市,北京市,,商务住宅;商务住宅相关;商务住宅相关,120000,B0G0X4XAO3,商务住宅,商务住宅相关,商务住宅相关,
116.13196994430045,40.08331763241792,柳林河北-2区,苏家坨西路(亿清佳华光电产业基地西南侧约200米),北京市,北京市,,商务住宅;住宅区;住宅区,120300,B0FFM8XSYF,商务住宅,住宅区,住宅区,
116.13130213881382,40.1010813879041,苏家坨公租房小区,前沙涧路与后沙涧路交叉口西北150米,北京市,北京市,,商务住宅;住宅区;住宅小区,120302,B0FFHRCZ85,商务住宅,住宅区,住宅小区,
116.12247299017899,40.0655094031849,京投发展·岚山(建设中),北清路北安河地铁站南侧,北京市,北京市,,商务住宅;住宅区;住宅小区,120302,B0FFMDL8TE,商务住宅,住宅区,住宅小区,
116.11276191660411,40.104969899124605,阳光家园,[],北京市,北京市,,商务住宅;住宅区;住宅小区,120302,B0G3XAF0WC,商务住宅,住宅区,住宅小区,
116.13862772058972,40.10030146801497,凤仪佳苑,苏二路与苏四路交叉口南150米,北京市,北京市,,商务住宅;住宅区;住宅小区,120302,B0FFKUL419,商务住宅,住宅区,住宅小区,
116.13242440680015,40.10346280813717,同泽园,后沙涧路附近,北京市,北京市,,商务住宅;住宅区;住宅小区,120302,B0FFF3LEEK,商务住宅,住宅区,住宅小区,
116.12491345369736,40.06879413443183,安河家园,北安河地铁站A西北口西北100米,北京市,北京市,,商务住宅;商务住宅相关;商务住宅相关,120000,B0FFHLFWP8,商务住宅,商务住宅相关,商务住宅相关,
116.1132141212109,40.10104758770323,大唐公寓,聂各庄路东150米,北京市,北京市,,商务住宅;商务住宅相关;商务住宅相关,120000,B0FFHQYTID,商务住宅,商务住宅相关,商务住宅相关,
116.11056717448932,40.10099446477258,德馨公寓,聂各庄路39号西90米,北京市,北京市,,商务住宅;商务住宅相关;商务住宅相关,120000,B0FFJQSMKH,商务住宅,商务住宅相关,商务住宅相关,
116.12414005732144,40.06741727052276,北安河回迁小区,北安河地铁站A西北口东北50米,北京市,北京市,,商务住宅;商务住宅相关;商务住宅相关,120000,B0FFIX9LNT,商务住宅,商务住宅相关,商务住宅相关,
116.14027270557287,40.062344679512826,芙蓉花园,苏家坨西路与高里掌路交叉口东150米,北京市,北京市,,商务住宅;住宅区;住宅小区,120302,B0FFK86DW0,商务住宅,住宅区,住宅小区,
116.09399284484904,40.105654042177875,北京实创西山科技培训中心B座,龙泉寺北路与凤凰岭路交叉路口往东北约150米,北京市,北京市,,商务住宅;楼宇;商务写字楼,120201,B0FFKDRG19,商务住宅,楼宇,商务写字楼,
116.1380392485215,40.10819591579973,麓景嘉园南里,苏一路与苏四路交叉口东北200米,北京市,北京市,,商务住宅;住宅区;住宅小区,120302,B0FFFACZ1U,商务住宅,住宅区,住宅小区,
116.1121576009451,40.10029276596199,公园世家观山樾,聂各庄路46号,北京市,北京市,,商务住宅;住宅区;住宅区,120300,B0FFF73NU0,商务住宅,住宅区,住宅区,
116.11446444065845,40.10617927791223,凤凰和悦,凤凰岭路7号院(台头社区警务工作室对面),北京市,北京市,,商务住宅;住宅区;住宅区|餐饮服务;餐饮相关场所;餐饮相关,120300|050000,B0FFLALADR,商务住宅,住宅区,住宅区|餐饮服务,餐饮相关场所
116.09864299580768,40.05981503177699,贝家花园五号,贝家花园路西50米,北京市,北京市,,商务住宅;住宅区;住宅小区,120302,B000A8XPCU,商务住宅,住宅区,住宅小区,
116.14180075759909,40.10802199251603,前沙涧路7号院,苏三路87号附近,北京市,北京市,,商务住宅;住宅区;住宅小区,120302,B0FFFACQ1C,商务住宅,住宅区,住宅小区,
116.09675099617445,40.071775846830825,弘园西院,苏家坨镇管家岭,北京市,北京市,,商务住宅;住宅区;住宅区,120300,B0FFL0IJKZ,商务住宅,住宅区,住宅区,
116.13854451380158,40.10029933627382,成都城,苏一路与风仪路交叉路口往北约50米(凤仪佳苑八里),北京市,北京市,,商务住宅;住宅区;住宅区,120300,B0G0KYQZA4,商务住宅,住宅区,住宅区,
116.09288027838716,40.08223070822104,七王坟村文化活动中心,[],北京市,北京市,,商务住宅;住宅区;社区中心,120304,B0G0773FDR,商务住宅,住宅区,社区中心,
116.11156204637092,40.105453884369744,海淀区北安河农商行家属院,聂各庄路18号附近,北京市,北京市,,商务住宅;住宅区;住宅区,120300,B0FFLLI8Q4,商务住宅,住宅区,住宅区,
116.11407728038952,40.06379188511225,北安河村文化活动中心,[],北京市,北京市,,商务住宅;住宅区;社区中心,120304,B0GD1CMHSX,商务住宅,住宅区,社区中心,
116.10149593576513,40.103329031935665,凤凰岭路20号果树四队家属院,[],北京市,北京市,,商务住宅;住宅区;住宅区,120300,B0GR45HOTX,商务住宅,住宅区,住宅区,
116.13962208370283,40.109086360596535,麓景嘉园,中心镇苏一路北侧,北京市,北京市,,商务住宅;商务住宅相关;商务住宅相关,120000,B0G3FAH1TJ,商务住宅,商务住宅相关,商务住宅相关,
116.0933403589553,40.10664391937206,北京凤凰岭十七号院-四合院,苏家坨镇凤凰岭路实创西山科技培训中心内,北京市,北京市,,商务住宅;商务住宅相关;商务住宅相关,120000,B0FFLIR1DG,商务住宅,商务住宅相关,商务住宅相关,
116.09700097535675,40.02683439088796,西山枫景苑,军温路87号,北京市,北京市,,商务住宅;住宅区;住宅小区,120302,B000A875KX,商务住宅,住宅区,住宅小区,
116.14175667248116,40.037384483473154,温泉镇双坡路4号院,温泉镇南坡,北京市,北京市,,商务住宅;商务住宅相关;商务住宅相关,120000,B0FFJDSSY1,商务住宅,商务住宅相关,商务住宅相关,
116.12788681475443,40.052379917929265,周家巷村,温泉路东50米,北京市,北京市,,商务住宅;商务住宅相关;商务住宅相关,120000,B0FFI7R2E4,商务住宅,商务住宅相关,商务住宅相关,
116.09900747246334,40.05071465728875,南玉兰院,大觉寺路9号大觉寺内,北京市,北京市,,商务住宅;商务住宅相关;商务住宅相关,120000,B0FFJRX2NZ,商务住宅,商务住宅相关,商务住宅相关,
116.09943972325904,40.05162373765406,北玉兰院,大觉寺路9号大觉寺内,北京市,北京市,,商务住宅;商务住宅相关;商务住宅相关,120000,B0FFK7ZG6S,商务住宅,商务住宅相关,商务住宅相关,
116.09913573726868,40.01846533132312,北四社区服务站,军庄镇老庙村,北京市,北京市,,商务住宅;住宅区;社区中心,120304,B0FFJ7C122,商务住宅,住宅区,社区中心,
116.10241302663876,40.05548363079705,北京市鹫峰国家水土保持科技示范园区,苏家坨镇秀峰寺路5号,北京市,北京市,,商务住宅;商务住宅相关;商务住宅相关,120000,B0FFKTM1KS,商务住宅,商务住宅相关,商务住宅相关,
116.11540331228292,39.971292473539364,隆恩寺路3号院,隆恩寺路(隆恩颐园小区北侧),北京市,北京市,,商务住宅;住宅区;住宅小区,120302,B0FFH086YU,商务住宅,住宅区,住宅小区,
116.11614669720232,39.97016321888771,隆恩颐园小区,隆恩寺路3号院,北京市,北京市,,商务住宅;住宅区;住宅小区,120302,B0FFH13JVW,商务住宅,住宅区,住宅小区,
116.11870538915858,39.968305849282196,汇众大厦,隆恩寺路99号,北京市,北京市,,商务住宅;楼宇;商务写字楼,120201,B0FFHBALOZ,商务住宅,楼宇,商务写字楼,
116.11751430300257,39.96031994448567,西山峻景,隆恩寺路19号,北京市,北京市,,商务住宅;住宅区;住宅小区,120302,B000A84394,商务住宅,住宅区,住宅小区,
116.11565907871443,39.960813124377054,金谷香郡,秀府南路19,北京市,北京市,,商务住宅;住宅区;住宅小区,120302,B000A9PSO5,商务住宅,住宅区,住宅小区,
116.11952083805558,39.96072400798405,南宫嘉园,隆恩寺路,北京市,北京市,,商务住宅;住宅区;住宅小区,120302,B0FFG6CDCT,商务住宅,住宅区,住宅小区,
116.10125227819991,39.96691122921567,三家店北街25号院,三家店北街25-11号附近,北京市,北京市,,商务住宅;住宅区;住宅小区,120302,B0FFHOBD9B,商务住宅,住宅区,住宅小区,
116.0964839219259,40.001083461014915,杨坨小区,军庄路附近,北京市,北京市,军庄镇,商务住宅;住宅区;住宅小区,120302,B0FFF37JGH,商务住宅,住宅区,住宅小区,
116.09901832668486,40.005352886908106,惠通新苑小区,西杨坨军温路22,北京市,北京市,军庄镇,商务住宅;住宅区;住宅小区,120302,B0FFG6IDMK,商务住宅,住宅区,住宅小区,
116.12163341932093,39.96367422476278,绿城·西府海棠(建设中),秀府路碧馨园湘菜馆对面,北京市,北京市,,商务住宅;住宅区;住宅小区,120302,B0FFKHDHV9,商务住宅,住宅区,住宅小区,
116.09354118057705,39.96932639644867,三家店西街小区,门头沟三家店西口下车就是,北京市,北京市,,商务住宅;住宅区;住宅小区,120302,B0FFH13IWB,商务住宅,住宅区,住宅小区,
116.09317491099425,40.00099407958264,京西宝宜合影视文化创意园,军庄中学西北(210省道西),北京市,北京市,军庄镇,商务住宅;产业园区;产业园区,120100,B0FFL6AJF6,商务住宅,产业园区,产业园区,
116.11854597750062,39.961477951451556,隆恩寺路17号院,秀府南路与隆恩寺路交叉口西南100米,北京市,北京市,,商务住宅;住宅区;住宅区,120300,B0FFHDZYIG,商务住宅,住宅区,住宅区,
116.10194066223661,39.96136572321851,南街铁路小区,三家店东街与三家店南街交叉口西北150米,北京市,北京市,,商务住宅;住宅区;住宅小区,120302,B000A85TIA,商务住宅,住宅区,住宅小区,
116.10514829018948,39.96001831665094,三家店东街小区,三家店东街38附近,北京市,北京市,,商务住宅;住宅区;住宅小区,120302,B0FFH0JONV,商务住宅,住宅区,住宅小区,
116.13512305858687,39.96028434254985,和煦小区,[],北京市,北京市,,商务住宅;住宅区;住宅小区,120302,B000A9JSPY,商务住宅,住宅区,住宅小区,
116.09985142939868,39.96347886249297,三家店瑞驰花园,三家店小学周边,北京市,北京市,,商务住宅;住宅区;住宅区,120300,B0FFI5U5N6,商务住宅,住宅区,住宅区,
116.13306289644291,39.962684189486595,潭峪路32号院,潭峪路东50米,北京市,北京市,,商务住宅;住宅区;住宅区,120300,B0FFKCRHXZ,商务住宅,住宅区,住宅区,
116.10305095488103,39.96014325734912,三家店五十号院,三家店东街与三家店南街交叉口东50米,北京市,北京市,,商务住宅;商务住宅相关;商务住宅相关,120000,B0FFK025DF,商务住宅,商务住宅相关,商务住宅相关,
116.09907054088751,39.9651515525084,75号院,三家店中街东50米,北京市,北京市,,商务住宅;商务住宅相关;商务住宅相关,120000,B0FFHOR9EE,商务住宅,商务住宅相关,商务住宅相关,
116.10119256870105,39.96420531260169,中北街社区,三家店中街25号,北京市,北京市,,商务住宅;住宅区;社区中心,120304,B0FFJ7C1X1,商务住宅,住宅区,社区中心,
116.09692873846262,39.96611097622432,西前街社区服务站,三家店西街5号,北京市,北京市,,商务住宅;住宅区;社区中心,120304,B0FFJ7C123,商务住宅,住宅区,社区中心,
116.09665378218176,39.9642339949764,北京市门头沟区龙泉镇水闸北路23号院,西六环附近,北京市,北京市,,商务住宅;商务住宅相关;商务住宅相关,120000,B0FFKLXCBG,商务住宅,商务住宅相关,商务住宅相关,
116.0975488193563,39.961284301818424,职工宿舍楼,龙泉镇龙泉宾馆职工宿舍楼,北京市,北京市,,商务住宅;住宅区;宿舍,120303,B0HGOPSX8K,商务住宅,住宅区,宿舍,
116.09757583989914,39.96128430811404,员工宿舍,龙泉镇,北京市,北京市,,商务住宅;住宅区;宿舍,120303,B0FFK7ZG5Y,商务住宅,住宅区,宿舍,
116.12737974770361,39.934920395209275,高井路29号院,高井路,北京市,北京市,广宁,商务住宅;住宅区;住宅小区,120302,B000A81J4P,商务住宅,住宅区,住宅小区,
116.10381784474275,39.928431872915326,月季园1区,双峪环岛南滨河路西,北京市,北京市,门头沟,商务住宅;住宅区;住宅小区,120302,B000A85F1C,商务住宅,住宅区,住宅小区,
116.11766402375947,39.925461470753895,永安小区(体北路),西苑路,北京市,北京市,门头沟,商务住宅;住宅区;住宅小区,120302,B000A88DVO,商务住宅,住宅区,住宅小区,
116.10280365400965,39.937096049192206,龙泉花园,双峪环岛往北100米,北京市,北京市,门头沟,商务住宅;住宅区;住宅小区,120302,B000A88EFC,商务住宅,住宅区,住宅小区,
116.11495427228625,39.93461149980534,德信阁,广宁街道双峪路爱玛裕文玩交易广场,北京市,北京市,广宁,商务住宅;住宅区;住宅区,120300,B0FFHQWYEX,商务住宅,住宅区,住宅区,
116.11044368276643,39.932294838038075,滨河居住区临镜苑,滨河路133号,北京市,北京市,门头沟,商务住宅;住宅区;住宅小区,120302,B000A8X7QL,商务住宅,住宅区,住宅小区,
116.11111440070877,39.92640258586169,滨河德露苑,双峪环岛以南300米,北京市,北京市,门头沟,商务住宅;住宅区;住宅小区,120302,B000A88DVJ,商务住宅,住宅区,住宅小区,
116.10100540602946,39.94072116195792,绿岛水岸,剧场东街8号绿岛家园36号,北京市,北京市,门头沟,商务住宅;住宅区;住宅小区,120302,B000A87BI4,商务住宅,住宅区,住宅小区,
116.10804327077001,39.93339810452719,生命人寿大厦,大峪街道永定滨河居住区绮霞苑甲一号楼底商二层生命人寿大厦,北京市,北京市,永定,商务住宅;楼宇;商务写字楼,120201,B0FFLAECMB,商务住宅,楼宇,商务写字楼,
116.10961591642285,39.929225353726,滨河承泽苑,门头沟双峪环岛南800米(地铁苹果园),北京市,北京市,门头沟,商务住宅;住宅区;住宅小区,120302,B000A8UQLD,商务住宅,住宅区,住宅小区,
116.10472125240452,39.93310214591145,滨河皓月园,滨河路与阜石路入口交叉口西南150米,北京市,北京市,门头沟,商务住宅;住宅区;住宅小区,120302,B000A850VQ,商务住宅,住宅区,住宅小区,
116.1085350875861,39.932074485620234,滨河居住区绮霞苑,永定,北京市,北京市,永定,商务住宅;住宅区;住宅小区,120302,B000A7OKV4,商务住宅,住宅区,住宅小区,
116.11215981869675,39.927389375692776,含晖苑,滨河路双峪环岛南路东滨河居住区,北京市,北京市,门头沟,商务住宅;住宅区;住宅区,120300,B000A9Q4HL,商务住宅,住宅区,住宅区,
116.12761824413222,39.9350287041832,麻峪小区,高井路29号院,北京市,北京市,广宁,商务住宅;住宅区;住宅小区,120302,B0FFLQ3GJC,商务住宅,住宅区,住宅小区,
116.12773050565212,39.93486685862135,冬奥社区,[],北京市,北京市,广宁,商务住宅;住宅区;住宅小区,120302,B0G0ZSXSNP,商务住宅,住宅区,住宅小区,
116.09897456049802,39.94101247077008,绿岛家园,绿岛家园32号楼西侧,北京市,北京市,门头沟,商务住宅;住宅区;住宅小区,120302,B000A88E16,商务住宅,住宅区,住宅小区,
116.10435778389228,39.933558938570414,滨河西区社区,大峪街道,北京市,北京市,大峪村,商务住宅;住宅区;住宅小区,120302,B0FFHLMQZW,商务住宅,住宅区,住宅小区,
116.11748782591381,39.940243703756764,寿山福海康年公寓,双峪路甲23,北京市,北京市,,商务住宅;住宅区;住宅小区,120302,B0FFFADX43,商务住宅,住宅区,住宅小区,
116.11230664144122,39.93831205945335,英格庄园,广宁街道双峪路35号爱玛裕家居购物广场3层,北京市,北京市,门头沟,商务住宅;住宅区;住宅区,120300,B0FFHBYZTA,商务住宅,住宅区,住宅区,
116.10704190037244,39.93409643724165,熙旺中心大厦,双峪路与阜石路交叉口东南150米,北京市,北京市,门头沟,商务住宅;楼宇;商务写字楼,120201,B0FFG8UKDW,商务住宅,楼宇,商务写字楼,
116.10648609042164,39.927233374388045,倚山嘉园,滨河路,北京市,北京市,门头沟,商务住宅;住宅区;住宅小区,120302,B000A7R222,商务住宅,住宅区,住宅小区,
116.1054793941841,39.93103464000246,霁月园,石担路与月季园路交叉路口往西北约100米,北京市,北京市,门头沟,商务住宅;住宅区;住宅小区,120302,B000A88EAQ,商务住宅,住宅区,住宅小区,
116.1029322155101,39.933762239951804,双峪2区,双峪路5号,北京市,北京市,门头沟,商务住宅;住宅区;住宅小区,120302,B000A867Y6,商务住宅,住宅区,住宅小区,
116.10640419996916,39.94120076902143,合公馆A座,双峪路43号,北京市,北京市,门头沟,商务住宅;楼宇;商务写字楼,120201,B0FFMH5CGM,商务住宅,楼宇,商务写字楼,
116.09822164365961,39.927785789844805,高家园东街1号院,桃园路,北京市,北京市,门头沟,商务住宅;住宅区;住宅小区,120302,B0FFINIH2Z,商务住宅,住宅区,住宅小区,
116.1109704858761,39.931919252960824,临镜苑1至2期,滨河路133号,北京市,北京市,永定,商务住宅;住宅区;住宅区,120300,B0FFI93IV3,商务住宅,住宅区,住宅区,
116.11240973899542,39.93876712603602,萨米特B区652号,爱玛裕家居购物广场建材厅B区B652号,北京市,北京市,门头沟,商务住宅;住宅区;住宅区,120300,B0G2YYP9AN,商务住宅,住宅区,住宅区,
116.12060180212796,39.937563090560836,麻峪北社区,广宁街道麻峪新街8号北侧10米处,北京市,北京市,广宁,商务住宅;住宅区;社区中心,120304,B0FFJ7QJUB,商务住宅,住宅区,社区中心,
116.10116156094041,39.932873532668125,梨园社区,双峪路5号,北京市,北京市,门头沟,商务住宅;住宅区;住宅小区,120302,B000A867XX,商务住宅,住宅区,住宅小区,
116.10974563705915,39.932808303670924,临镜苑社区,临镜苑3号楼地下室,北京市,北京市,门头沟,商务住宅;住宅区;住宅区,120300,B0FFJ7QFQW,商务住宅,住宅区,住宅区,
116.10510257087559,39.9340293130151,滨河大厦(滨河路),滨河路115号,北京市,北京市,门头沟,商务住宅;楼宇;商务写字楼,120201,B000A7WBP4,商务住宅,楼宇,商务写字楼,
116.10463407019041,39.92595038763977,月季园2区,新桥南大街北侧400米,北京市,北京市,门头沟,商务住宅;住宅区;住宅小区,120302,B0FFHLM2ZS,商务住宅,住宅区,住宅小区,
116.09897483681365,39.93106886601448,门头沟京汉铂寓,新桥南大街大峪路口南200米路西,北京市,北京市,门头沟,商务住宅;住宅区;住宅小区,120302,B000AA77IW,商务住宅,住宅区,住宅小区,
116.10421837844383,39.935508789821036,恒辉写字楼,滨河路87号,北京市,北京市,大峪村,商务住宅;楼宇;商务写字楼,120201,B0FFGB2WVU,商务住宅,楼宇,商务写字楼,
116.10665439503514,39.93427619309677,东方巴黎时代广场,双峪环岛西南角,北京市,北京市,门头沟,商务住宅;商务住宅相关;商务住宅相关,120000,B0FFFW4J00,商务住宅,商务住宅相关,商务住宅相关,
116.09666442541719,39.93593010896835,新桥家园,龙泉镇双峪环岛大峪中路6号院,北京市,北京市,门头沟,商务住宅;住宅区;住宅小区,120302,B000A7QVT4,商务住宅,住宅区,住宅小区,
116.10524739067088,39.928944595614496,月季园东里社区,月季园东里4号楼北侧平房,北京市,北京市,门头沟,商务住宅;住宅区;住宅小区,120302,B000A7ORX7,商务住宅,住宅区,住宅小区,
116.10866712231437,39.93317553136009,绮霞苑乙,绮霞苑路与双峪路交叉路口往南约200米,北京市,北京市,永定,商务住宅;住宅区;住宅区,120300,B0FFKY53HM,商务住宅,住宅区,住宅区,
116.13307233760786,39.93585425405056,电厂路小区,高井路,北京市,北京市,广宁,商务住宅;住宅区;住宅小区,120302,B0FFGYZYOA,商务住宅,住宅区,住宅小区,
116.13285056976973,39.93783985223012,高井小区,高井路西150米,北京市,北京市,广宁,商务住宅;住宅区;住宅小区,120302,B0FFHB95FP,商务住宅,住宅区,住宅小区,
116.13842732087225,39.92711875705378,新立街社区,复兴街与广宁村路交叉口北150米,北京市,北京市,广宁,商务住宅;住宅区;社区中心,120304,B0FFHLMQ0H,商务住宅,住宅区,社区中心,
116.11434956813899,39.94809842248387,站前铁路小区,新建路与老店桥交叉路口往东南约100米,北京市,北京市,,商务住宅;住宅区;住宅小区,120302,B000A7R7N7,商务住宅,住宅区,住宅小区,
116.09807437671861,39.94454008570716,桥东街社区,城子桥东街13号楼北,北京市,北京市,门头沟,商务住宅;住宅区;住宅小区,120302,B000A7Q5VL,商务住宅,住宅区,住宅小区,
116.10704190024413,39.93409743720174,门头沟西贸国际,双峪路35号院,北京市,北京市,门头沟,商务住宅;楼宇;商务写字楼,120201,B0FFGSRXOU,商务住宅,楼宇,商务写字楼,
116.09775462626007,39.93286546866725,大峪街社区,大峪南路6号南60米,北京市,北京市,大峪村,商务住宅;住宅区;住宅小区,120302,B0FFHLNIAH,商务住宅,住宅区,住宅小区,
116.10152517027673,39.93084975570928,新桥南大街社区,新桥南大街12附近,北京市,北京市,门头沟,商务住宅;住宅区;住宅小区,120302,B000A833QG,商务住宅,住宅区,住宅小区,
116.12818045432633,39.935033448782484,欣兴阁,广宁高井路29号院,北京市,北京市,广宁,商务住宅;商务住宅相关;商务住宅相关,120000,B0FFHEQANO,商务住宅,商务住宅相关,商务住宅相关,
116.10085008447243,39.91089831773419,华润西山墅,石龙北路与西北环线交汇口,北京市,北京市,门头沟,商务住宅;住宅区;别墅,120301,B000A8XLUN,商务住宅,住宅区,别墅,
116.10689259912697,39.91157026738662,永兴嘉园,永兴嘉园13号楼404,北京市,北京市,门头沟,商务住宅;住宅区;住宅小区,120302,B000A7R4HA,商务住宅,住宅区,住宅小区,
116.09613120268524,39.950346443240335,阳光绿苑,滨河路47号,北京市,北京市,门头沟,商务住宅;住宅区;住宅小区,120302,B000A879AO,商务住宅,住宅区,住宅小区,
116.09662638056304,39.936069096065275,泰斗豪庭,大峪中路与新桥大街交叉口西100米,北京市,北京市,门头沟,商务住宅;住宅区;住宅区,120300,B000A852JU,商务住宅,住宅区,住宅区,
116.0977518983601,39.9385202431816,新桥大街52号院,新桥大街52号,北京市,北京市,门头沟,商务住宅;住宅区;住宅小区,120302,B000A87CS9,商务住宅,住宅区,住宅小区,
116.10123834639698,39.927320785274155,永新社区,[],北京市,北京市,门头沟,商务住宅;住宅区;住宅小区,120302,B0G09SO6OE,商务住宅,住宅区,住宅小区,
116.10693179025311,39.9338803779117,双峪路35号院,双峪路与阜石路交叉口东南150米,北京市,北京市,门头沟,商务住宅;住宅区;住宅区,120300,B0FFJXHUH0,商务住宅,住宅区,住宅区,
116.1123966845073,39.92341373056952,葡东小区,滨河路,北京市,北京市,门头沟,商务住宅;住宅区;住宅小区,120302,B000A7Q4MC,商务住宅,住宅区,住宅小区,
116.10070758633137,39.92934750430195,蓝涧大厦,新桥南大街31号,北京市,北京市,门头沟,商务住宅;楼宇;商务写字楼,120201,B0FFFADRKV,商务住宅,楼宇,商务写字楼,
116.10705016613038,39.93210352187843,交通局门头沟区,石担路与承泽苑路交叉路口往北约150米,北京市,北京市,永定,商务住宅;住宅区;住宅区,120300,B0FFMFFIPM,商务住宅,住宅区,住宅区,
116.10534613286877,39.93185453320698,卓艺雪园,滨河路霁月园底商153-03,北京市,北京市,大峪村,商务住宅;住宅区;住宅区,120300,B0HG65DRYV,商务住宅,住宅区,住宅区,
116.11917847877103,39.95865472460531,兴泰嘉园,隆恩寺路20号,北京市,北京市,,商务住宅;住宅区;住宅小区,120302,B000A8438R,商务住宅,住宅区,住宅小区,
116.104666630951,39.92966525478821,月季园南里住宅小区,滨河路155号,北京市,北京市,大峪村,商务住宅;住宅区;住宅小区,120302,B0FFH14Z2T,商务住宅,住宅区,住宅小区,
116.11142273788765,39.927284790711795,德露苑路,双峪环岛以南300米,北京市,北京市,门头沟,商务住宅;住宅区;住宅区,120300,B0FFJ19GPZ,商务住宅,住宅区,住宅区,
116.09410696699243,39.94230949829837,贸易大楼,新桥大街2号,北京市,北京市,门头沟,商务住宅;楼宇;商务写字楼,120201,B000A8438L,商务住宅,楼宇,商务写字楼,
116.09937941031463,39.937062748761605,向东社区,双峪红路灯向北200米,北京市,北京市,门头沟,商务住宅;住宅区;住宅小区,120302,B000A87D7J,商务住宅,住宅区,住宅小区,
116.12844246709258,39.94722631898282,联勤佳园,石俯路西侧,北京市,北京市,,商务住宅;住宅区;住宅小区,120302,B0FFHCCWK8,商务住宅,住宅区,住宅小区,
116.09682604610995,39.93199529793085,门头沟区联墨文化社区,大峪南路(峪园社区),北京市,北京市,大峪村,商务住宅;住宅区;住宅小区,120302,B0HA6LD8V3,商务住宅,住宅区,住宅小区,
116.13118808846653,39.93525457035595,六千四小区,高井路22附近,北京市,北京市,广宁,商务住宅;住宅区;住宅小区,120302,B000A8TZVQ,商务住宅,住宅区,住宅小区,
116.10126537251611,39.927318795810486,门头沟区大峪街道永新社区,永新小区2号楼和3号楼中间平房,北京市,北京市,门头沟,商务住宅;住宅区;住宅小区,120302,B000A9PSFG,商务住宅,住宅区,住宅小区,
116.12834962332971,39.92873992592879,中储京铁物流园,石景山广宁路3号,北京市,北京市,广宁,商务住宅;商务住宅相关;商务住宅相关,120000,B0FFLG6YAV,商务住宅,商务住宅相关,商务住宅相关,
116.10038616112858,39.93815203808463,向阳东里社区,向阳东里19号楼,北京市,北京市,门头沟,商务住宅;住宅区;住宅小区,120302,B0FFFZIX9G,商务住宅,住宅区,住宅小区,
116.09906860957075,39.92565811185652,桃园社区,大峪街道桃园6号楼和8号楼中间平房,北京市,北京市,门头沟,商务住宅;住宅区;住宅小区,120302,B0FFK6FRDZ,商务住宅,住宅区,住宅小区,
116.10662751524276,39.9408809153031,合公馆B座,双峪路43号,北京市,北京市,门头沟,商务住宅;商务住宅相关;商务住宅相关,120000,B0FFJ9VGLO,商务住宅,商务住宅相关,商务住宅相关,
116.10908174527937,39.93266483777225,门头沟滨河小区,绮霞苑路丙1号楼附近,北京市,北京市,永定,商务住宅;住宅区;住宅小区,120302,B0FFF6Y9NE,商务住宅,住宅区,住宅小区,
116.10706851276615,39.921771951147534,鸿坤·七星长安,葡萄嘴环岛北100米处,北京市,北京市,门头沟,商务住宅;住宅区;住宅小区,120302,B0FFFGWWIO,商务住宅,住宅区,住宅小区,
116.1278057471962,39.94991636635137,现代生活小区,高井黑石头车站,北京市,北京市,,商务住宅;住宅区;住宅小区,120302,B0FFI7PV9X,商务住宅,住宅区,住宅小区,
116.09940206310205,39.93212695235077,门头沟区大峪街道峪园社区11号院,新桥南大街物美超市对面,北京市,北京市,门头沟,商务住宅;住宅区;住宅小区,120302,B0G0DUBL4J,商务住宅,住宅区,住宅小区,
116.12216968649194,39.954029216477686,五里坨小区,五里坨,北京市,北京市,,商务住宅;住宅区;住宅小区,120302,B000A81EWY,商务住宅,住宅区,住宅小区,
116.09236231837585,39.932482805739255,大峪南路小区,,北京市,北京市,门头沟,商务住宅;住宅区;住宅小区,120302,B000AA4OLV,商务住宅,住宅区,住宅小区,
116.09567663132933,39.929062212091516,峪新社区,[],北京市,北京市,大峪村,商务住宅;住宅区;住宅小区,120302,B0FFL76YLB,商务住宅,住宅区,住宅小区,
116.10835165715314,39.92573261736293,全国文明城区,石担路与峪中路交叉路口往东南约50米(葡山公园),北京市,北京市,永定,商务住宅;住宅区;住宅区,120300,B0G3VPC4Z2,商务住宅,住宅区,住宅区,
116.11043963407118,39.92482013605009,葡东家园,滨河路与石龙北路交叉口东150米,北京市,北京市,永定,商务住宅;住宅区;住宅区,120300,B0FFGSQVD1,商务住宅,住宅区,住宅区,
116.13038409787957,39.944509077986524,石景山区五里坨街道办事处向日葵阳光社区,石门路与石俯路交叉路口往南约100米,北京市,北京市,,商务住宅;住宅区;住宅小区,120302,B0FFM3EPEO,商务住宅,住宅区,住宅小区,
116.09481502351943,39.94512245870003,城子大街132号院,城子大街132号,北京市,北京市,门头沟,商务住宅;住宅区;住宅小区,120302,B000A87A4L,商务住宅,住宅区,住宅小区,
116.12768450380317,39.9497822114916,现代建材公司小区,石景山高井黑石头车站,北京市,北京市,,商务住宅;住宅区;住宅小区,120302,B0FFF5BJGM,商务住宅,住宅区,住宅小区,
116.11789415625991,39.951041690181555,京西景园,五里坨黑石头路1号,北京市,北京市,,商务住宅;住宅区;住宅小区,120302,B0FFGCV165,商务住宅,住宅区,住宅小区,
116.09973587124941,39.9358799086129,门头沟区大峪街道向阳社区,向阳楼13号楼北平房,北京市,北京市,龙泉,商务住宅;住宅区;住宅小区,120302,B000A85WP9,商务住宅,住宅区,住宅小区,
116.09256391486517,39.93637665326929,黑山东街,大峪二小路,北京市,北京市,门头沟,商务住宅;住宅区;住宅小区,120302,B0FFL6SPB8,商务住宅,住宅区,住宅小区,
116.096917859584,39.93396523792012,新桥花园,大峪南路9号,北京市,北京市,大峪村,商务住宅;住宅区;住宅小区,120302,B0FFFZJ4WH,商务住宅,住宅区,住宅小区,
116.10169686841995,39.934509678438104,双峪楼,双峪路北50米,北京市,北京市,门头沟,商务住宅;住宅区;住宅区,120300,B0FFGYZZJE,商务住宅,住宅区,住宅区,
116.12851789959441,39.92944012322192,金隅燕山水泥厂保障性住房项目,广宁路18号,北京市,北京市,广宁,商务住宅;商务住宅相关;商务住宅相关,120000,B0FFI92DRY,商务住宅,商务住宅相关,商务住宅相关,
116.10400876034828,39.93072187539342,梨园-六排,月季园路北150米,北京市,北京市,门头沟,商务住宅;住宅区;住宅区,120300,B0FFGBC5XV,商务住宅,住宅区,住宅区,
116.09291725688638,39.94285940601293,石龙商业大厦,门头沟路1-4号,北京市,北京市,门头沟,商务住宅;楼宇;商务写字楼,120201,B000A7IKCZ,商务住宅,楼宇,商务写字楼,
116.10364730077958,39.9312296772859,梨园-二排,龙泉梨园楼2排2号楼(石担路西),北京市,北京市,门头沟,商务住宅;住宅区;住宅区,120300,B0FFGBC346,商务住宅,住宅区,住宅区,
116.10396373469266,39.9305358604258,梨园-七排,龙泉霁月园西南(月季园路北),北京市,北京市,门头沟,商务住宅;住宅区;住宅区,120300,B0FFGBC39A,商务住宅,住宅区,住宅区,
116.10435126027986,39.92978608623015,梨园-十三排,月季园路北50米,北京市,北京市,门头沟,商务住宅;住宅区;住宅区,120300,B0FFGBC76Q,商务住宅,住宅区,住宅区,
116.1036833762554,39.930945706169894,梨园-四排,月季园路北150米,北京市,北京市,门头沟,商务住宅;住宅区;住宅区,120300,B0FFGBC6WQ,商务住宅,住宅区,住宅区,
116.09919472450807,39.925592152227075,桃园小区,大峪街道桃园6号楼和8号楼中间平房,北京市,北京市,门头沟,商务住宅;住宅区;住宅小区,120302,B0FFF0EU1O,商务住宅,住宅区,住宅小区,
116.1039818078791,39.93011988611416,梨园-十排,月季园路北100米,北京市,北京市,门头沟,商务住宅;住宅区;住宅区,120300,B0FFGBC3AO,商务住宅,住宅区,住宅区,
116.10351117590287,39.93105861856239,梨园-三排,月季园路北200米,北京市,北京市,门头沟,商务住宅;住宅区;住宅区,120300,B0FFGBC3NF,商务住宅,住宅区,住宅区,
116.10362042492596,39.93003471221102,梨园-十六排,龙泉晓刚串店(月季园路北),北京市,北京市,门头沟,商务住宅;住宅区;住宅区,120300,B0FFGBC41P,商务住宅,住宅区,住宅区,
116.09980867429057,39.94570454458593,阁外山水蓝龙家园,河滩镇滨河路,北京市,北京市,门头沟,商务住宅;住宅区;住宅小区,120302,B000A81EWZ,商务住宅,住宅区,住宅小区,
116.10409796705217,39.92987695398366,梨园-十二排,龙泉霁月园西南(月季园路北),北京市,北京市,门头沟,商务住宅;住宅区;住宅区,120300,B0FFGBC68V,商务住宅,住宅区,住宅区,
116.10388268572153,39.93022483274022,梨园-九排,龙泉霁月园西南(月季园路北),北京市,北京市,门头沟,商务住宅;住宅区;住宅区,120300,B0FFGBC488,商务住宅,住宅区,住宅区,
116.11560298946247,39.952973378127794,天翠·阳光新城,五里坨西街12号院,北京市,北京市,,商务住宅;住宅区;住宅小区,120302,B0FFF1WJBH,商务住宅,住宅区,住宅小区,
116.10327802836804,39.93026553979311,梨园-十八排,月季园路北100米,北京市,北京市,门头沟,商务住宅;住宅区;住宅区,120300,B0FFGBC69C,商务住宅,住宅区,住宅区,
116.09356015395089,39.938489609111954,新桥大街61号院,新桥大街61号,北京市,北京市,门头沟,商务住宅;住宅区;住宅小区,120302,B000A87BFS,商务住宅,住宅区,住宅小区,
116.13093344796233,39.93576219125133,高井路社区,广宁街道高井路21号,北京市,北京市,广宁,商务住宅;住宅区;社区中心,120304,B0FFJ7QJUU,商务住宅,住宅区,社区中心,
116.10357541480427,39.92973470254688,梨园-二十一排,月季园路北150米,北京市,北京市,门头沟,商务住宅;住宅区;住宅区,120300,B0FFGBC70P,商务住宅,住宅区,住宅区,
116.10363845865068,39.929923725393124,梨园-十五排,龙泉晓刚串店(月季园路北),北京市,北京市,门头沟,商务住宅;住宅区;住宅区,120300,B0FFGBC6L4,商务住宅,住宅区,住宅区,
116.1027993468005,39.931659263785875,梨园-二十八排,龙泉新桥南大街社区东,北京市,北京市,门头沟,商务住宅;住宅区;住宅区,120300,B0FFGBC4A2,商务住宅,住宅区,住宅区,
116.10296258810732,39.93110436003945,梨园-二十四排,龙泉新桥南大街社区东50米,北京市,北京市,门头沟,商务住宅;住宅区;住宅区,120300,B0FFGBC1YD,商务住宅,住宅区,住宅区,
116.10300665209357,39.93096538577746,梨园-二十三排,龙泉梨园楼23排4号楼,北京市,北京市,门头沟,商务住宅;住宅区;住宅区,120300,B0FFGBC4P4,商务住宅,住宅区,住宅区,
116.10236902688634,39.938504801498055,滨河路87号院,滨河路87号,北京市,北京市,大峪村,商务住宅;住宅区;住宅区,120300,B0FFGYR5DW,商务住宅,住宅区,住宅区,
116.10275434001363,39.93134825601945,梨园-二十六排,龙泉梨园楼,北京市,北京市,门头沟,商务住宅;住宅区;住宅区,120300,B0FFGBC12E,商务住宅,住宅区,住宅区,
116.1030697963782,39.930357439200925,梨园-十九排,月季园路北100米,北京市,北京市,门头沟,商务住宅;住宅区;住宅区,120300,B0FFGBC3ND,商务住宅,住宅区,住宅区,
116.09335386063142,39.94769923458746,闽龙商务办公区,城子大街90号207室,北京市,北京市,门头沟,商务住宅;楼宇;商务写字楼,120201,B0FFMB5MZX,商务住宅,楼宇,商务写字楼,
116.09280841581358,39.94119746814338,华远·华中心,新桥大街与门头沟路交叉口西南100米,北京市,北京市,门头沟,商务住宅;楼宇;商务写字楼,120201,B0FFFZIU8G,商务住宅,楼宇,商务写字楼,
116.09769954363212,39.94875782775476,永泰·西山御园,滨河路23号院,北京市,北京市,门头沟,商务住宅;住宅区;住宅小区,120302,B0FFG8RN0G,商务住宅,住宅区,住宅小区,
116.11566571186289,39.95595532047343,天翠阳光小区,[],北京市,北京市,,商务住宅;住宅区;住宅小区,120302,B0FFK7L5TY,商务住宅,住宅区,住宅小区,
116.10136556390603,39.93437355186908,情深花苑,双峪路4号,北京市,北京市,龙泉,商务住宅;住宅区;住宅区,120300,B0FFFW75OE,商务住宅,住宅区,住宅区,
116.10473815579117,39.92620443210804,月季园,新桥南大街蓝涧大厦东侧胡同东100米,北京市,北京市,门头沟,商务住宅;住宅区;住宅区,120300,B0FFFPTNPS,商务住宅,住宅区,住宅区,
116.10350811571067,39.93930028929166,西南横街,滨河路102号附近,北京市,北京市,门头沟,商务住宅;住宅区;住宅区,120300,B0FFG74R7H,商务住宅,住宅区,住宅区,
116.09252305384466,39.93514070172351,龙山家园4区,黑山大道,北京市,北京市,门头沟,商务住宅;住宅区;住宅小区,120302,B0FFGB6OJ5,商务住宅,住宅区,住宅小区,
116.09744257412117,39.93141945338142,门头沟区大峪街道峪园社区,新桥南大街物美超市对面,北京市,北京市,门头沟,商务住宅;住宅区;住宅小区,120302,B000A8U1PR,商务住宅,住宅区,住宅小区,
116.12728496688659,39.95512547826795,炮厂西小区,炮厂路附近,北京市,北京市,,商务住宅;住宅区;住宅小区,120302,B0FFL4ZEET,商务住宅,住宅区,住宅小区,
116.09490422350213,39.93620382139932,新桥路社区,新桥路16号楼前平房,北京市,北京市,门头沟,商务住宅;住宅区;住宅小区,120302,B000A7PZRW,商务住宅,住宅区,住宅小区,
116.10920175568533,39.91823750759134,石龙北路26号院,石龙北路26号院(石龙北路公路局背后),北京市,北京市,门头沟,商务住宅;住宅区;住宅小区,120302,B000A8U1Z8,商务住宅,住宅区,住宅小区,
116.11303150535794,39.91676053339149,惠康嘉园二区,体北路西(北京市永定职业学校南200米),北京市,北京市,门头沟,商务住宅;住宅区;住宅小区,120302,B0FFFACIEO,商务住宅,住宅区,住宅小区,
116.10196652837136,39.9392366017082,滨河79号院,滨河路79号,北京市,北京市,门头沟,商务住宅;住宅区;住宅区,120300,B0FFGBC3Q6,商务住宅,住宅区,住宅区,
116.11085103570477,39.918465707861245,迎晖北苑,永定镇体北路南侧,北京市,北京市,门头沟,商务住宅;住宅区;住宅小区,120302,B0FFJLO5RQ,商务住宅,住宅区,住宅小区,
116.13325484477028,39.927354860543744,石景山医院宿舍,广宁路5附近,北京市,北京市,,商务住宅;商务住宅相关;商务住宅相关,120000,B0FFIW5OCM,商务住宅,商务住宅相关,商务住宅相关,
116.09261258030722,39.939165543628874,新桥大街39号院,新桥大街39号,北京市,北京市,门头沟,商务住宅;住宅区;住宅小区,120302,B000A87BFJ,商务住宅,住宅区,住宅小区,
116.12958865969297,39.93405939120114,北京市高井中学教工宿舍,高井路26号,北京市,北京市,广宁,商务住宅;住宅区;宿舍,120303,B0FFF3C1T5,商务住宅,住宅区,宿舍,
116.10070890484604,39.92687360460026,傲山湾西山艺境II,桃园路与黑山大街交叉口东100米,北京市,北京市,大峪村,商务住宅;住宅区;住宅区,120300,B0FFHS1SX1,商务住宅,住宅区,住宅区,
116.12969306550077,39.948373971055105,北京市石景山高井甲32号职工小区,石俯路,北京市,北京市,,商务住宅;住宅区;住宅小区,120302,B0FFGKLLQH,商务住宅,住宅区,住宅小区,
116.11322612299392,39.914284801840296,惠康嘉园四区,永定曹各庄后街北350米(永兴住宅小区东北),北京市,北京市,门头沟,商务住宅;住宅区;住宅小区,120302,B0FFG8UKVY,商务住宅,住宅区,住宅小区,
116.11161290254913,39.920371222482096,滨河南路3号院,上园路与体北路交叉口西100米,北京市,北京市,门头沟,商务住宅;住宅区;住宅区,120300,B0FFH12XX5,商务住宅,住宅区,住宅区,
116.11176992487117,39.91419660381507,惠康嘉园三区,[],北京市,北京市,门头沟,商务住宅;住宅区;住宅小区,120302,B0FFG8UKVW,商务住宅,住宅区,住宅小区,
116.10749771366268,39.9166374329077,石龙北路30号院,石龙北路30号,北京市,北京市,门头沟,商务住宅;住宅区;住宅小区,120302,B0FFG75ICR,商务住宅,住宅区,住宅小区,
116.1139719337389,39.95615677315709,五里坨西街9号院,[],北京市,北京市,,商务住宅;住宅区;住宅小区,120302,B0FFFADV2I,商务住宅,住宅区,住宅小区,
116.14016977968515,39.918437898086566,模式口东里,金鼎街,北京市,北京市,,商务住宅;住宅区;住宅小区,120302,B0FFI2CKTR,商务住宅,住宅区,住宅小区,
116.09831987121741,39.934416549753216,门头沟区小白楼2期,政法路小白楼二期,北京市,北京市,大峪村,商务住宅;住宅区;住宅区,120300,B000AA1DCA,商务住宅,住宅区,住宅区,
116.09939621665296,39.93089100004609,北广家园,育园路与新桥大街交叉路口往西约50米(京汉铂寓),北京市,北京市,大峪村,商务住宅;住宅区;住宅区|购物服务;购物相关场所;购物相关场所,120300|060000,B0FFL9KA5L,商务住宅,住宅区,住宅区|购物服务,购物相关场所
116.1097133938108,39.95776729899185,石门南路1号院,石门南路1号,北京市,北京市,,商务住宅;住宅区;住宅小区,120302,B0FFKEYRIZ,商务住宅,住宅区,住宅小区,
116.12866874818494,39.956720252196575,石景山社区,潭峪路与秀府路交叉路口往东南约200米(炮厂小区),北京市,北京市,,商务住宅;住宅区;住宅小区,120302,B0HBBK1JP1,商务住宅,住宅区,住宅小区,
116.13775235633719,39.953044670936706,远洋五里雅苑,黑石头路(黑石头路九十九号院东北侧约200米),北京市,北京市,,商务住宅;住宅区;住宅小区,120302,B0H6H7HBMU,商务住宅,住宅区,住宅小区,
116.12579979576385,39.91629211632857,侯庄子新村,019县道附近,北京市,北京市,永定,商务住宅;住宅区;住宅小区,120302,B0FFHCO782,商务住宅,住宅区,住宅小区,
116.11123414143583,39.921976858975825,门头沟检测场办公楼,滨河南路3号204室附近,北京市,北京市,永定,商务住宅;楼宇;商务写字楼,120201,B0FFGIYBZI,商务住宅,楼宇,商务写字楼,
116.10864479967613,39.91203438180854,永兴住宅小区,曹各庄北路与石担路交叉路口向东南约200米,北京市,北京市,门头沟,商务住宅;住宅区;住宅小区,120302,B000A7R4IP,商务住宅,住宅区,住宅小区,
116.11356719487925,39.9100602728615,合景领汇长安(建设中),地铁S1号线桥户营站旁350米,北京市,北京市,门头沟,商务住宅;住宅区;住宅小区,120302,B0G3U7281Z,商务住宅,住宅区,住宅小区,
116.09571420066956,39.940398766113965,新桥大街26号院,新桥大街26号,北京市,北京市,门头沟,商务住宅;住宅区;住宅小区,120302,B000A87CD9,商务住宅,住宅区,住宅小区,
116.10962468602783,39.923309599579426,葡东南区,滨河路与石龙北路交叉口东南150米,北京市,北京市,门头沟,商务住宅;住宅区;住宅区,120300,B000AA1XPL,商务住宅,住宅区,住宅区,
116.11332054610692,39.912122973393025,惠康嘉园6区,曹各庄北路与上园路交叉口东南150米,北京市,北京市,门头沟,商务住宅;住宅区;住宅小区,120302,B0FFG8UKVX,商务住宅,住宅区,住宅小区,
116.10391522690402,39.95746577523125,三家店东老店,"西宁路1号北,紧邻门头沟供电局",北京市,北京市,门头沟,商务住宅;住宅区;住宅小区,120302,B0HAUGS70Q,商务住宅,住宅区,住宅小区,
116.09779882833617,39.931556531728894,峪园社区东区,育园路(峪园社区),北京市,北京市,门头沟,商务住宅;住宅区;住宅区,120300,B0FFL18EQO,商务住宅,住宅区,住宅区,
116.09837639994294,39.930649715396235,新希望素质中心(育园校区),新桥南大街育园小学斜对面,北京市,北京市,龙泉,商务住宅;商务住宅相关;商务住宅相关,120000,B0FFLC8I3L,商务住宅,商务住宅相关,商务住宅相关,
116.10574718737736,39.919511258905885,石龙北路23号院,石担路与葡山路交叉路口往西约100米,北京市,北京市,门头沟,商务住宅;住宅区;住宅小区,120302,B0FFGIGO1C,商务住宅,住宅区,住宅小区,
116.13327389438936,39.92731389010434,广宁宿舍区,复兴街与广宁村路交叉口东北50米,北京市,北京市,,商务住宅;住宅区;宿舍,120303,B0FFL4SHVW,商务住宅,住宅区,宿舍,
116.09426268638282,39.952974093562474,蓝龙小区,大峪,北京市,北京市,门头沟,商务住宅;住宅区;住宅小区,120302,B000A7PSXI,商务住宅,住宅区,住宅小区,
116.13017892272636,39.95796526730545,西山军工社区,炮厂路西50米,北京市,北京市,,商务住宅;住宅区;住宅小区,120302,B0FFI7PPGW,商务住宅,住宅区,住宅小区,
116.10242549226984,39.95870203368427,新河路小区,新河路3,北京市,北京市,门头沟,商务住宅;住宅区;住宅小区,120302,B000A7QVBN,商务住宅,住宅区,住宅小区,
116.09951483517672,39.934660886469956,门头沟区大峪街道双峪社区,大峪街道,北京市,北京市,大峪村,政府机构及社会团体;政府机关;乡镇以下级政府及事业单位|商务住宅;住宅区;住宅小区,130106|120302,B000A8XBC6,政府机构及社会团体,政府机关,乡镇以下级政府及事业单位|商务住宅,住宅区
116.10375539598178,39.931401723001414,梨园-一排,龙泉石担路霁月园西50米,北京市,北京市,门头沟,商务住宅;住宅区;住宅区,120300,B0FFGBC1YP,商务住宅,住宅区,住宅区,
116.09395438002777,39.930632949850114,高家园新区,成教路与规划路交叉口西150米,北京市,北京市,门头沟,商务住宅;住宅区;住宅小区,120302,B0FFGKE710,商务住宅,住宅区,住宅小区,
116.13132908822729,39.953454055608105,黑石头路九十九号院,黑石头路99号院3,北京市,北京市,,商务住宅;住宅区;住宅小区,120302,B000A886Q7,商务住宅,住宅区,住宅小区,
116.10281738412539,39.9315142777171,梨园-二十七排,龙泉新桥南大街社区东,北京市,北京市,门头沟,商务住宅;住宅区;住宅区,120300,B0FFGBC17M,商务住宅,住宅区,住宅区,
116.1039367794626,39.92995587031998,梨园-十一排,龙泉霁月园西南(月季园路北),北京市,北京市,门头沟,商务住宅;住宅区;住宅区,120300,B0FFGBC3B1,商务住宅,住宅区,住宅区,
116.14075641956222,39.92507957821224,广宁塔楼小区,复兴街与广宁路交叉口东北150米,北京市,北京市,广宁,商务住宅;住宅区;住宅小区,120302,B000A81EZ3,商务住宅,住宅区,住宅小区,
116.10703050312966,39.921474939782534,鸿坤七星长安A座,石龙北路15号-118室,北京市,北京市,门头沟,商务住宅;楼宇;商务写字楼,120201,B0FFH18QJ4,商务住宅,楼宇,商务写字楼,
116.10080512281684,39.9102713277871,西山墅北区,冯石环线,北京市,北京市,永定,商务住宅;住宅区;住宅小区,120302,B0GUKHBZBR,商务住宅,住宅区,住宅小区,
116.11146375431018,39.91199745363718,惠康嘉园五区,曹各庄后街东200米,北京市,北京市,门头沟,商务住宅;住宅区;住宅小区,120302,B0FFFX64MH,商务住宅,住宅区,住宅小区,
116.10541176601747,39.91190238828539,农林大厦-配楼,石龙北路33号农林大厦,北京市,北京市,永定,商务住宅;楼宇;商务写字楼,120201,B0FFGBC594,商务住宅,楼宇,商务写字楼,
116.10706945499253,39.95343969321107,三家店小区,双峪路东排三家店火车站南侧,北京市,北京市,门头沟,商务住宅;住宅区;住宅小区,120302,B0FFH12QBS,商务住宅,住宅区,住宅小区,
116.11105569248353,39.95468742220296,老宿舍17号院,新华路东200米,北京市,北京市,,商务住宅;住宅区;宿舍,120303,B0FFFADX5H,商务住宅,住宅区,宿舍,
116.10583027788408,39.91957730353473,石龙北路21号院,石龙工业区石龙北路21号,北京市,北京市,永定,商务住宅;住宅区;住宅区,120300,B0FFINI2WU,商务住宅,住宅区,住宅区,
116.10356640573382,39.92972969841098,梨园-十四排,月季园路北50米,北京市,北京市,门头沟,商务住宅;住宅区;住宅区,120300,B0FFGBC4YN,商务住宅,住宅区,住宅区,
116.10862872981036,39.95144378553722,华新建社区,三家店新建路28号甲,北京市,北京市,门头沟,商务住宅;住宅区;住宅小区|商务住宅;住宅区;社区中心,120302|120304,B0FFJ7QGWW,商务住宅,住宅区,住宅小区|商务住宅,住宅区
116.10523061246644,39.91145030754192,农林大厦-主楼,石龙北路33号农林大厦,北京市,北京市,永定,商务住宅;楼宇;商务写字楼,120201,B0FFGBC4FD,商务住宅,楼宇,商务写字楼,
116.10510869167489,39.95653243148898,东老店楼,西六环东150米,北京市,北京市,门头沟,商务住宅;住宅区;住宅小区,120302,B0FFFADV3W,商务住宅,住宅区,住宅小区,
116.09638847736572,39.934013133153286,新桥花园6号院,大峪南路附近,北京市,北京市,门头沟,商务住宅;商务住宅相关;商务住宅相关,120000,B0FFIPCNHV,商务住宅,商务住宅相关,商务住宅相关,
116.09514342899026,39.95133225549129,城子和平街小区,城子和平路,北京市,北京市,门头沟,商务住宅;住宅区;住宅小区,120302,B0FFFH0G3Y,商务住宅,住宅区,住宅小区,
116.11581826298104,39.95363655464818,五里坨社区菜站,[],北京市,北京市,,商务住宅;商务住宅相关;商务住宅相关,120000,B0G07C3M62,商务住宅,商务住宅相关,商务住宅相关,
116.10037287377942,39.95587633754091,新河西路小区,新河西路5号楼附近,北京市,北京市,门头沟,商务住宅;住宅区;住宅小区,120302,B0FFF0EU1U,商务住宅,住宅区,住宅小区,
116.137743574502,39.959016424214674,黑石头村,黑石头路与黑陈路交叉口,北京市,北京市,,商务住宅;住宅区;住宅小区,120302,B0FFK8ROSO,商务住宅,住宅区,住宅小区,
116.09856043111246,39.94714811202329,阁外山水,水厂路与桥东街交叉路口向北约200米,北京市,北京市,门头沟,商务住宅;商务住宅相关;商务住宅相关,120000,B000A9KQ5Q,商务住宅,商务住宅相关,商务住宅相关,
116.10703188958766,39.918471064392484,八五三家属院,永定镇石龙北路23号,北京市,北京市,门头沟,商务住宅;住宅区;住宅区,120300,B0FFM4ZD1F,商务住宅,住宅区,住宅区,
116.09431306610375,39.926886131840874,西山艺境7号院,黑山大街西150米,北京市,北京市,门头沟,商务住宅;商务住宅相关;商务住宅相关,120000,B0FFK6P5IH,商务住宅,商务住宅相关,商务住宅相关,
116.12590283920888,39.956808632673656,隆恩寺社区,潭峪路,北京市,北京市,,商务住宅;住宅区;社区中心,120304,B0FFH16UEN,商务住宅,住宅区,社区中心,
116.12633469461464,39.949347474166,高井社区,五里坨黑石头路1号五里坨派出所附近,北京市,北京市,,商务住宅;住宅区;社区中心,120304,B0FFJ7QJU0,商务住宅,住宅区,社区中心,
116.09565292148088,39.934470991827894,新桥花园7号院,大峪南路附近,北京市,北京市,门头沟,商务住宅;商务住宅相关;商务住宅相关,120000,B0FFIPCNHW,商务住宅,商务住宅相关,商务住宅相关,
116.09379474010696,39.93492376631036,龙山家园四区-东门人行门,大峪龙山家园四区(黑山东路西),北京市,北京市,门头沟,商务住宅;商务住宅相关;商务住宅相关,120000,B0FFKWNFKZ,商务住宅,商务住宅相关,商务住宅相关,
116.1384847391102,39.924947935691115,或广宁楼,广宁路10号,北京市,北京市,广宁,商务住宅;商务住宅相关;商务住宅相关,120000,B0FFI9O0F8,商务住宅,商务住宅相关,商务住宅相关,
116.09397535832103,39.93089394102888,高家园新区北区,高家园路,北京市,北京市,门头沟,商务住宅;住宅区;住宅区,120300,B0FFL6YKW9,商务住宅,住宅区,住宅区,
116.09502076451452,39.948124365580284,中骏·西山天璟(建设中),水厂路,北京市,北京市,门头沟,商务住宅;住宅区;住宅小区,120302,B0FFH6ZCXD,商务住宅,住宅区,住宅小区,
116.13979258751682,39.928220891127246,广宁新立楼,广宁村路西50米,北京市,北京市,广宁,商务住宅;住宅区;住宅小区,120302,B0FFG96X1O,商务住宅,住宅区,住宅小区,
116.09322643233175,39.92715404444186,西山艺境6号院,黑山大街西150米,北京市,北京市,门头沟,商务住宅;商务住宅相关;商务住宅相关,120000,B0FFKN6JZF,商务住宅,商务住宅相关,商务住宅相关,
116.09856638357185,39.94755609766225,永泰·西山御园营销中心,水厂北路与水厂路交叉口东100米,北京市,北京市,门头沟,商务住宅;商务住宅相关;商务住宅相关,120000,B0FFJGLIO8,商务住宅,商务住宅相关,商务住宅相关,
116.1267799957001,39.9151434178556,侯庄子新村7区,[],北京市,北京市,永定,商务住宅;商务住宅相关;商务住宅相关,120000,B0FFLECVQQ,商务住宅,商务住宅相关,商务住宅相关,
116.11031737048948,39.95674778171325,天翠阳光新城A区,石门南路1号院附近,北京市,北京市,,商务住宅;住宅区;住宅区,120300,B0FFISI3Q6,商务住宅,住宅区,住宅区,
116.10648573590154,39.91438390257037,石龙北路9号院,"滨河路石龙北路9号院,葡东小区对面",北京市,北京市,门头沟,商务住宅;住宅区;住宅区,120300,B0HG2CZIVQ,商务住宅,住宅区,住宅区,
116.1308031669474,39.935662012210514,广宁街道高井路社区社区文化室,高井路21号附近,北京市,北京市,广宁,商务住宅;住宅区;社区中心,120304,B0FFHB9A1C,商务住宅,住宅区,社区中心,
116.0958987461133,39.929315236849376,峪新社区服务站,龙泉峪园小区19号楼旁,北京市,北京市,门头沟,商务住宅;住宅区;社区中心,120304,B0FFJ7C1X2,商务住宅,住宅区,社区中心,
116.10979720781327,39.95232557229797,新景家园,新建路甲20号,北京市,北京市,,商务住宅;商务住宅相关;商务住宅相关,120000,B0FFGFHZTC,商务住宅,商务住宅相关,商务住宅相关,
116.09395726272973,39.95491399157284,城子大街小区,"水闸车站附近,城子大街22号院",北京市,北京市,门头沟,商务住宅;住宅区;住宅小区,120302,B0FFGYZZZU,商务住宅,住宅区,住宅小区,
116.09545591116681,39.94134169048814,剧场东街社区,剧场东街1号楼前平房,北京市,北京市,门头沟,商务住宅;住宅区;社区中心,120304,B0FFJ7QFQK,商务住宅,住宅区,社区中心,
116.0949754408166,39.95042526981019,城子东街13号院,城子东街南50米,北京市,北京市,门头沟,商务住宅;住宅区;住宅小区,120302,B000A879AL,商务住宅,住宅区,住宅小区,
116.11597281427132,39.91225936142519,迎晖南苑,石龙东路,北京市,北京市,永定,商务住宅;商务住宅相关;商务住宅相关,120000,B0FFK36ZPX,商务住宅,商务住宅相关,商务住宅相关,
116.0942903259483,39.932548901871236,门头沟区大峪街道南路二社区,大峪南路26楼前平房,北京市,北京市,大峪村,商务住宅;住宅区;住宅小区,120302,B000A81EX2,商务住宅,住宅区,住宅小区,
116.11266631570906,39.913864348336666,惠康嘉园,曹各庄北路与上园路交叉口西北100米,北京市,北京市,门头沟,商务住宅;住宅区;住宅区,120300,B0FFG7CPVV,商务住宅,住宅区,住宅区,
116.10590019352604,39.91308061433033,石龙北路29号院,滨河路石龙北路29号院,北京市,北京市,门头沟,商务住宅;住宅区;住宅区,120300,B0FFG7CPYK,商务住宅,住宅区,住宅区,
116.1372303795205,39.958510642418,黑石头社区,黑石头村路与黑陈路交叉口西南100米,北京市,北京市,,商务住宅;住宅区;社区中心,120304,B0FFH134CF,商务住宅,住宅区,社区中心,
116.11911743655209,39.911181561643396,中骏天峰(建设中),石龙东路(迎晖南苑东南侧约50米),北京市,北京市,永定,商务住宅;商务住宅相关;商务住宅相关,120000,B0FFKVTJ0D,商务住宅,商务住宅相关,商务住宅相关,
116.10942270233244,39.91319887400199,求是楼,曹各庄北路(首师大附中永定分校),北京市,北京市,门头沟,商务住宅;住宅区;住宅区,120300,B0FFMFC6FS,商务住宅,住宅区,住宅区,
116.14006274673216,39.92444647915277,东山社区,广宁村复兴街75号,北京市,北京市,广宁,商务住宅;住宅区;社区中心,120304,B0FFJ7QJUH,商务住宅,住宅区,社区中心,
116.09504338764897,39.95116724918052,蓝龙胜境嘉苑,城子东街38号,北京市,北京市,门头沟,商务住宅;商务住宅相关;商务住宅相关,120000,B0FFKCJBAO,商务住宅,商务住宅相关,商务住宅相关,
116.09408414662492,39.909644827113695,欣六园小区,大峪石龙西路北侧冯村西里,北京市,北京市,门头沟,商务住宅;住宅区;住宅小区,120302,B0FFFAD2V3,商务住宅,住宅区,住宅小区,
116.10590603454982,39.91437656321821,石龙北路27号院,石担路曹各庄西口西50米,北京市,北京市,门头沟,商务住宅;商务住宅相关;商务住宅相关,120000,B0FFG74QNH,商务住宅,商务住宅相关,商务住宅相关,
116.13201694173861,39.927683052899795,新立街社区居委会活动站,广宁路甲8号,北京市,北京市,,商务住宅;住宅区;社区中心,120304,B0FFHACGYG,商务住宅,住宅区,社区中心,
116.13471862888784,39.95609689751396,中飞科技园,黑石头路西100米,北京市,北京市,,商务住宅;商务住宅相关;商务住宅相关,120000,B0FFKKUVQB,商务住宅,商务住宅相关,商务住宅相关,
116.09405348903648,39.94579335675466,城子大街社区,城子大街126号,北京市,北京市,龙泉,商务住宅;住宅区;社区中心,120304,B0FFJ7QGWT,商务住宅,住宅区,社区中心,
116.11786015157571,39.958424367333336,北工院家属院,石门路368号,北京市,北京市,,商务住宅;住宅区;住宅区,120300,B0FFM1XG3O,商务住宅,住宅区,住宅区,
116.09799420242112,39.945407031374145,富裕家园,增产路西侧,北京市,北京市,门头沟,商务住宅;住宅区;住宅小区,120302,B000AA4HWQ,商务住宅,住宅区,住宅小区,
116.10822545488466,39.957224288267604,三家店东街8号院,石门路南200米,北京市,北京市,,商务住宅;住宅区;住宅区,120300,B0FFG74V5W,商务住宅,住宅区,住宅区,
116.13732913629318,39.954465954007574,远洋·五里春秋(建设中),五里坨黑石头路九十九号院东北侧200米,北京市,北京市,,商务住宅;商务住宅相关;商务住宅相关,120000,B0FFJ5Z1S7,商务住宅,商务住宅相关,商务住宅相关,
116.10723524115704,39.956735667744944,门头沟区三家店老宿舍7号院,[],北京市,北京市,,商务住宅;商务住宅相关;商务住宅相关,120000,B0HGHZ8R6Y,商务住宅,商务住宅相关,商务住宅相关,
116.09283846947841,39.94089648090891,新桥大街-23号院,剧场东街与新桥大街交叉口西150米,北京市,北京市,门头沟,商务住宅;住宅区;住宅区,120300,B0FFF8B2KX,商务住宅,住宅区,住宅区,
116.12907052997298,39.95748376543435,炮厂小区,炮厂路西100米,北京市,北京市,,商务住宅;住宅区;住宅小区,120302,B0FFG96OFZ,商务住宅,住宅区,住宅小区,
116.09510352755588,39.94258559366436,剧东社区,剧场东街12号附近,北京市,北京市,大峪村,商务住宅;住宅区;住宅小区,120302,B0FFHK53X7,商务住宅,住宅区,住宅小区,
116.09490402873651,39.91434471151261,冯村北坡甲9号公寓楼,永定镇冯村北坡甲9号公寓楼,北京市,北京市,门头沟,商务住宅;商务住宅相关;商务住宅相关,120000,B0FFJZ0E4W,商务住宅,商务住宅相关,商务住宅相关,
116.09738326152126,39.91012131757116,润西山B区,石龙环路10号,北京市,北京市,门头沟,商务住宅;住宅区;住宅小区,120302,B0FFGJ3ZJE,商务住宅,住宅区,住宅小区,
116.10927859718151,39.91248080224767,永兴社区,永兴住宅小区7号楼前平房,北京市,北京市,永定,商务住宅;住宅区;社区中心,120304,B0FFJ7QGX1,商务住宅,住宅区,社区中心,
116.10120042227267,39.957617573804626,老供电局家属楼,龙泉镇城区三家店西口新河路7号楼,北京市,北京市,门头沟,商务住宅;住宅区;住宅区,120300,B0G1D9IAMU,商务住宅,住宅区,住宅区,
116.12360710073268,39.91810633915304,侯庄子村文化活动中心,019县道东50米,北京市,北京市,永定,商务住宅;住宅区;社区中心|体育休闲服务;休闲场所;休闲场所,120304|080500,B000A8XDXZ,商务住宅,住宅区,社区中心|体育休闲服务,休闲场所
116.11837109780684,39.95809890267188,隆恩寺18号院,隆恩寺路18号,北京市,北京市,,商务住宅;住宅区;住宅小区,120302,B0FFFDN5FC,商务住宅,住宅区,住宅小区,
116.09338832672933,39.91305563441541,永定镇-北区,西北环线,北京市,北京市,永定,商务住宅;住宅区;住宅区,120300,B0FFH14MOF,商务住宅,住宅区,住宅区,
116.09926548451254,39.95909184881804,三家店邮局楼,[],北京市,北京市,,商务住宅;商务住宅相关;商务住宅相关,120000,B0G21H91J5,商务住宅,商务住宅相关,商务住宅相关,
116.13426100714172,39.95246835516481,卓越万科翡翠山晓(建设中),五里坨,北京市,北京市,,商务住宅;商务住宅相关;商务住宅相关,120000,B0FFKC95KK,商务住宅,商务住宅相关,商务住宅相关,
116.1008561074076,39.91076332569932,华润置地润西山,冯石环路7号院,北京市,北京市,门头沟,商务住宅;住宅区;住宅区,120300,B0FFHTTYFD,商务住宅,住宅区,住宅区,
116.11789918520883,39.95869839624016,北京工业职业技术学院青年教师公寓,石门路368号,北京市,北京市,,商务住宅;商务住宅相关;商务住宅相关,120000,B0FFKCJ4KD,商务住宅,商务住宅相关,商务住宅相关,
116.10533269926937,39.911701353037316,农林局大厦,石龙北路,北京市,北京市,永定,商务住宅;楼宇;商务写字楼,120201,B0FFG4PUWM,商务住宅,楼宇,商务写字楼,
116.11810752858338,39.95888960108503,南宫社区,石门路368号,北京市,北京市,,商务住宅;住宅区;社区中心,120304,B0FFJ7QDV9,商务住宅,住宅区,社区中心,
116.09576702638411,39.94202771006031,门头沟区大峪街道剧场东街社区,河滩路南100米,北京市,北京市,大峪村,商务住宅;住宅区;住宅小区,120302,B000A85WPA,商务住宅,住宅区,住宅小区,
116.13998655081349,39.924478354882844,广宁街道东山社区社区文化室,复兴街与广宁路交叉口东北50米,北京市,北京市,广宁,商务住宅;住宅区;社区中心,120304,B0FFFAD6D4,商务住宅,住宅区,社区中心,
116.09822599963384,39.95619766809794,河滩西街,,北京市,北京市,门头沟,商务住宅;住宅区;住宅区,120300,B0FFG7CRY4,商务住宅,住宅区,住宅区,
116.11093763977135,39.95376536732611,三家店新老宿舍,龙泉三家店,北京市,北京市,,商务住宅;住宅区;宿舍,120303,B0FFGYZYEU,商务住宅,住宅区,宿舍,
116.09738826963557,39.910087320148016,润西山苑,冯石环路10号院,北京市,北京市,门头沟,商务住宅;住宅区;住宅区,120300,B0FFH36OFF,商务住宅,住宅区,住宅区,
116.1096595582551,39.95590333304253,三家店老宿舍15排,龙泉镇西宁路老宿舍17号院旁,北京市,北京市,,商务住宅;住宅区;宿舍,120303,B0FFFPB8OS,商务住宅,住宅区,宿舍,
116.10855162524827,39.951458732594396,华新建社区居民活动中心,新建路28号附近,北京市,北京市,门头沟,商务住宅;住宅区;社区中心,120304,B0FFHB906D,商务住宅,住宅区,社区中心,
116.14133026732638,39.91414196594163,首钢建设生活区,秀池西街(首钢工业遗址公园),北京市,北京市,,商务住宅;住宅区;宿舍,120303,B0G3Z1TJ0R,商务住宅,住宅区,宿舍,
116.10252354957085,39.959036063469284,西宁路社区,新河路平房1号,北京市,北京市,门头沟,商务住宅;住宅区;社区中心,120304,B0FFJ7QGX9,商务住宅,住宅区,社区中心,
116.13192377471717,39.95870469772946,西山机械厂社区服务站,秀府南路炮厂小区北区五里坨,北京市,北京市,,政府机构及社会团体;政府机关;乡镇以下级政府及事业单位|商务住宅;住宅区;社区中心|生活服务;生活服务场所;生活服务场所,130106|120304|070000,B0FFHB900I,政府机构及社会团体,政府机关,乡镇以下级政府及事业单位|商务住宅,住宅区
116.12265966893997,39.95381079459268,五里坨街道社区文化服务中心,五里陀路与潭峪路交叉口东150米,北京市,北京市,,商务住宅;住宅区;社区中心,120304,B0FFHB8ZX5,商务住宅,住宅区,社区中心,
116.09297726177473,39.911899664799726,北区社区,北永定镇冯西园北1区,北京市,北京市,永定,商务住宅;住宅区;社区中心,120304,B0FFJ7QGX2,商务住宅,住宅区,社区中心,
116.1046011531827,39.95620217388569,西宁路社区人口文化活动室,西宁路10号,北京市,北京市,门头沟,商务住宅;住宅区;社区中心,120304,B0FFHBBMK1,商务住宅,住宅区,社区中心,
116.10305207529036,39.93583521235933,龙泉花园四合院和熙院,龙泉镇龙泉花园四和院和煦院龙泉花园四合院,北京市,北京市,门头沟,商务住宅;住宅区;住宅小区,120302,B0FFL6R6F3,商务住宅,住宅区,住宅小区,
116.10283481118064,39.936123101844,龙泉花园社区服务站,龙泉花园社区8号楼西侧平房,北京市,北京市,大峪村,商务住宅;住宅区;社区中心,120304,B0FFHLM3M8,商务住宅,住宅区,社区中心,
116.10314919943794,39.935665264022894,龙泉花园-四和院和睦院,滨河路附近,北京市,北京市,门头沟,商务住宅;住宅区;住宅区,120300,B0GKVN31AJ,商务住宅,住宅区,住宅区,
116.10238809218399,39.93814682392048,龙泉花园四和院和美院,滨河路西100米,北京市,北京市,门头沟,商务住宅;住宅区;住宅小区,120302,B0FFHC98Q7,商务住宅,住宅区,住宅小区,
116.10338638320275,39.93619735417405,龙泉花园四和院和煦院,新桥南大街12号,北京市,北京市,门头沟,商务住宅;住宅区;住宅小区,120302,B000AA1HDH,商务住宅,住宅区,住宅小区,
116.10188746271508,39.93913657287793,龙泉花园四和院和善院,滨河路79号,北京市,北京市,门头沟,商务住宅;住宅区;住宅小区,120302,B000A867YS,商务住宅,住宅区,住宅小区,
116.119556286044,39.90295338233241,远洋新天地,泰安路,北京市,北京市,永定,商务住宅;住宅区;住宅小区,120302,B0FFG5VXVM,商务住宅,住宅区,住宅小区,
116.12054510370072,39.89520980125912,石龙高科大厦,永安路20号,北京市,北京市,永定,商务住宅;楼宇;商务写字楼,120201,B000A8XFCO,商务住宅,楼宇,商务写字楼,
116.12482964596425,39.893954872641196,江泰保险大厦,莲石湖西路98号院9号楼,北京市,北京市,永定,商务住宅;楼宇;商务写字楼,120201,B0FFHWTNAX,商务住宅,楼宇,商务写字楼,
116.11580828388489,39.89860379738627,德山大厦,美安路7号,北京市,北京市,永定,商务住宅;楼宇;商务写字楼,120201,B0FFG84HSU,商务住宅,楼宇,商务写字楼,
116.11314173315311,39.892842667204384,小园二区惠润嘉园2C地块,上园路,北京市,北京市,永定,商务住宅;住宅区;住宅区,120300,B0FFFSDV8W,商务住宅,住宅区,住宅区,
116.11900470648109,39.89963694284922,西山燕庐,永定镇泰安路,北京市,北京市,永定,商务住宅;住宅区;住宅小区,120302,B0FFHBWT8L,商务住宅,住宅区,住宅小区,
116.12490162239179,39.89529290102207,中关村门头沟科技园,莲石湖西路98号院,北京市,北京市,永定,商务住宅;产业园区;产业园区,120100,B0FFHB902Z,商务住宅,产业园区,产业园区,
116.1178251550668,39.9031625695307,亚琦大厦,新城东街17号院5号楼,北京市,北京市,永定,商务住宅;楼宇;商务写字楼,120201,B0FFLM6RR3,商务住宅,楼宇,商务写字楼,
116.12350294994818,39.894138250900674,石龙创新大厦,[],北京市,北京市,永定,商务住宅;楼宇;商务写字楼,120201,B0GKYCK5TE,商务住宅,楼宇,商务写字楼,
116.1158126239399,39.895997918267646,创客花园,新城大街与永安路交叉路口往北约50米,北京市,北京市,永定,商务住宅;商务住宅相关;商务住宅相关,120000,B0FFJMKXCD,商务住宅,商务住宅相关,商务住宅相关,
116.13757710987366,39.896534715327626,梧桐嘉苑,永定镇东辛秤村,北京市,北京市,永定,商务住宅;住宅区;住宅小区,120302,B0FFF9OXN1,商务住宅,住宅区,住宅小区,
116.11026232811369,39.90180397391793,利德衡大厦,雅安路6号院1,北京市,北京市,永定,商务住宅;楼宇;商务写字楼,120201,B0FFK87LGF,商务住宅,楼宇,商务写字楼,
116.1173852270523,39.90441207275933,长安天街A座,新城东街17号院1号楼,北京市,北京市,永定,商务住宅;楼宇;商务写字楼,120201,B0H6JSCUZV,商务住宅,楼宇,商务写字楼,
116.11321384965694,39.89280473023563,小园二区惠润嘉园2C地块,永定美安路二地块,北京市,北京市,永定,商务住宅;住宅区;住宅小区,120302,B0H6DLB4NA,商务住宅,住宅区,住宅小区,
116.11858270670852,39.89369176887346,九三乐创空间,平安路与谭园路交叉口,北京市,北京市,永定,商务住宅;产业园区;产业园区,120100,B0FFL0LJKP,商务住宅,产业园区,产业园区,
116.10445210910359,39.908434021673365,门头沟冯村两限房,永定镇冯村,北京市,北京市,永定,商务住宅;住宅区;住宅小区,120302,B000A8511E,商务住宅,住宅区,住宅小区,
116.11201033234859,39.89816848964972,IDM智能科技园,长安街西延线美安路1号,北京市,北京市,永定,商务住宅;产业园区;产业园区,120100,B0FFLGJVZR,商务住宅,产业园区,产业园区,
116.1038556434354,39.906911786007356,冯村嘉园,永定镇冯村石龙北路西侧,北京市,北京市,门头沟,商务住宅;住宅区;住宅小区,120302,B000A88A1M,商务住宅,住宅区,住宅小区,
116.12235195183148,39.8999006362771,电建·金地华宸,上辛路9号(永定镇西长安街向南500米),北京市,北京市,永定,商务住宅;住宅区;住宅小区,120302,B0FFGZJQ33,商务住宅,住宅区,住宅小区,
116.11560948554745,39.894435797962345,云梦嘉苑,上园路栗园庄地铁站A2西口西100米,北京市,北京市,永定,商务住宅;商务住宅相关;商务住宅相关,120000,B0FFKH53BX,商务住宅,商务住宅相关,商务住宅相关,
116.12332977028103,39.89285010295583,北京石龙经济开发区产业孵化中心3期,平安路,北京市,北京市,永定,商务住宅;楼宇;商务写字楼,120201,B0GUB7ND0O,商务住宅,楼宇,商务写字楼,
116.12550692597709,39.894819677356615,新华阳光北楼,莲石湖西路98号院,北京市,北京市,永定,商务住宅;楼宇;商务写字楼,120201,B0FFHB9081,商务住宅,楼宇,商务写字楼,
116.12537471275587,39.89435253272131,新华阳光南楼,莲石湖西路98号院,北京市,北京市,永定,商务住宅;楼宇;商务写字楼,120201,B0FFHB9CBS,商务住宅,楼宇,商务写字楼,
116.11408272513829,39.896629310034996,乐乎城市青年社区(栗园地铁站店),上园路5号,北京市,北京市,永定,商务住宅;商务住宅相关;商务住宅相关,120000,B0HA3A38UN,商务住宅,商务住宅相关,商务住宅相关,
116.1005396874693,39.90394650394452,丽景长安(石龙西路),永定镇石龙西路与三石路交叉口西南角向西200米,北京市,北京市,永定,商务住宅;住宅区;住宅小区,120302,B000A8W7A5,商务住宅,住宅区,住宅小区,
116.11331385770507,39.893956762977,门头沟区惠润家园,上园路二地块,北京市,北京市,永定,商务住宅;住宅区;住宅区,120300,B0HA9P5WID,商务住宅,住宅区,住宅区,
116.12354403423834,39.89411830096895,石龙创业大厦,北京市 门头沟区 莲石湖西路98号院,北京市,北京市,永定,商务住宅;商务住宅相关;商务住宅相关,120000,B0FFHMW4M6,商务住宅,商务住宅相关,商务住宅相关,
116.10746227056222,39.90412194283149,中国兵器第一机械大厦,龙园路,北京市,北京市,永定,商务住宅;楼宇;商务写字楼,120201,B0FFKIQ577,商务住宅,楼宇,商务写字楼,
116.10408606987988,39.88993465910878,京西紫金新园小区,石门营小园村,北京市,北京市,永定,商务住宅;住宅区;住宅小区,120302,B000A87WT9,商务住宅,住宅区,住宅小区,
116.11477735007698,39.89264011265102,小园3区,上园路(三B块地),北京市,北京市,永定,商务住宅;住宅区;住宅区,120300,B0G0P4DIC2,商务住宅,住宅区,住宅区,
116.11833518732307,39.902137135420986,新城东街19号院,泰安路(远洋新天地西南侧),北京市,北京市,永定,商务住宅;住宅区;住宅区,120300,B0FFK7XA2M,商务住宅,住宅区,住宅区,
116.115601689447,39.892737868058575,小园三区三B块地,永定上原路16号,北京市,北京市,永定,商务住宅;住宅区;住宅区,120300,B0FFLIAET7,商务住宅,住宅区,住宅区,
116.10205478705348,39.906703973139436,信园,永定镇,北京市,北京市,门头沟,商务住宅;住宅区;住宅小区,120302,B000A81G3Y,商务住宅,住宅区,住宅小区,
116.119176564693,39.90318496804196,付联盟招商中心,金安路(远洋新天地),北京市,北京市,永定,商务住宅;商务住宅相关;商务住宅相关,120000,B0FFL948WH,商务住宅,商务住宅相关,商务住宅相关,
116.12363217630597,39.89438139466475,中关村门头沟园高精尖产业服务中心,永定镇石龙经济开发区莲石湖西路98号院6号楼石龙创新大厦西侧裙楼1层,北京市,北京市,永定,商务住宅;产业园区;产业园区,120100,B0FFLC745X,商务住宅,产业园区,产业园区,
116.11557764882774,39.89274384528601,惠润嘉园3B地块,上园路东50米,北京市,北京市,永定,商务住宅;住宅区;住宅小区,120302,B0FFFSCCPH,商务住宅,住宅区,住宅小区,
116.12160598937328,39.904004599243336,华润·悦景湾,上岸村地铁站东380米,北京市,北京市,永定,商务住宅;住宅区;住宅小区,120302,B0FFH01LC8,商务住宅,住宅区,住宅小区,
116.1186812894721,39.906177318114835,西长安壹号,曹各庄路34号院,北京市,北京市,永定,商务住宅;楼宇;商住两用楼宇,120203,B0FFFEC39J,商务住宅,楼宇,商住两用楼宇,
116.10837562642898,39.89496694588678,锦绣江文创园,永安路4号,北京市,北京市,永定,商务住宅;产业园区;产业园区,120100,B0G0OCV4PF,商务住宅,产业园区,产业园区,
116.1153653640551,39.892226671190116,惠润嘉园,石城南路15号,北京市,北京市,永定,商务住宅;住宅区;住宅区,120300,B0FFK7JVR1,商务住宅,住宅区,住宅区,
116.11983001055599,39.89337610419808,北京北神州叶蜡公司宿舍,永定镇京市市平安路5号,北京市,北京市,永定,商务住宅;住宅区;宿舍,120303,B0FFKXKJW1,商务住宅,住宅区,宿舍,
116.11776826089817,39.909382243529805,北京诺德彩园,桥户营站向南200米,北京市,北京市,永定,商务住宅;住宅区;住宅小区,120302,B0FFLOYZ2W,商务住宅,住宅区,住宅小区,
116.13328272546963,39.8973631694054,格格小区,永定镇龙兴南二路11号,北京市,北京市,永定,商务住宅;住宅区;住宅小区,120302,B0FFL1SVGO,商务住宅,住宅区,住宅小区,
116.11804193784498,39.8921872810553,华悦大厦,谭园路1号院附近,北京市,北京市,永定,商务住宅;商务住宅相关;商务住宅相关,120000,B0FFI55H7T,商务住宅,商务住宅相关,商务住宅相关,
116.12170414963134,39.9042227015009,华润悦景居,泰安路远洋新天地东北侧300米,北京市,北京市,永定,商务住宅;住宅区;住宅区,120300,B0HAF6S271,商务住宅,住宅区,住宅区,
116.12224837977045,39.89496773712658,北京石龙开发区产业孵化中心2期A区,桥园路与莲石湖西路交叉口南100米,北京市,北京市,永定,商务住宅;产业园区;产业园区,120100,B0FFH17IMS,商务住宅,产业园区,产业园区,
116.1240148845867,39.894833835602384,中关村人工智能科技园,莲石湖西路98号创新大厦4层,北京市,北京市,永定,商务住宅;商务住宅相关;商务住宅相关,120000,B0FFIWCH6F,商务住宅,商务住宅相关,商务住宅相关,
116.11841963437183,39.90764498353028,长安生活港,[],北京市,北京市,永定,商务住宅;住宅区;住宅小区,120302,B0FFFAF3AE,商务住宅,住宅区,住宅小区,
116.12540076491281,39.894364564808214,门头沟新华阳光小区,莲石湖西路98号,北京市,北京市,永定,商务住宅;住宅区;住宅小区,120302,B0FFHMTLOS,商务住宅,住宅区,住宅小区,
116.10155186548957,39.89441431112329,常谙雅苑,首开保利欢乐大都会下沉广场B120,北京市,北京市,永定,商务住宅;住宅区;住宅小区,120302,B0G035FDJG,商务住宅,住宅区,住宅小区,
116.12411006740874,39.894900948020876,京西创客工场,莲石湖西路98号院,北京市,北京市,永定,商务住宅;产业园区;产业园区,120100,B0FFGW0Y7V,商务住宅,产业园区,产业园区,
116.10750932341575,39.9041779703301,中国兵器大厦,石龙工业区石龙东路3号,北京市,北京市,永定,商务住宅;楼宇;商务写字楼,120201,B0FFIRVWA7,商务住宅,楼宇,商务写字楼,
116.13567144925176,39.896800763114975,梧桐苑10号院,,北京市,北京市,永定,商务住宅;住宅区;住宅小区,120302,B0G0CXZAB4,商务住宅,住宅区,住宅小区,
116.10417235827273,39.904051068070466,骏洋大厦,石龙北路与石龙南路交叉口西南100米,北京市,北京市,永定,商务住宅;楼宇;商务写字楼,120201,B0FFGBC5ET,商务住宅,楼宇,商务写字楼,
116.12381047276641,39.894849587863455,石龙阳光大厦,莲石湖西路98号,北京市,北京市,永定,商务住宅;商务住宅相关;商务住宅相关,120000,B0FFH148A0,商务住宅,商务住宅相关,商务住宅相关,
116.10486527024716,39.895210820532974,中关村门头沟科技园,永安路20号,北京市,北京市,永定,商务住宅;产业园区;产业园区,120100,B0FFKLTIQS,商务住宅,产业园区,产业园区,
116.11545574810991,39.890386839985226,小园三区惠润嘉园七地块,上园路,北京市,北京市,永定,商务住宅;住宅区;住宅小区,120302,B0FFFS7XBR,商务住宅,住宅区,住宅小区,
116.10133624322859,39.89764608018611,四季怡园,永定镇石门营环岛北侧,北京市,北京市,永定,商务住宅;住宅区;住宅小区,120302,B0FFG9URGO,商务住宅,住宅区,住宅小区,
116.10027575606584,39.9015325168855,锦绣西山,何各庄中街,北京市,北京市,永定,商务住宅;住宅区;住宅区,120300,B0H69UL8ML,商务住宅,住宅区,住宅区,
116.0982053252544,39.89897100248308,石厂新村,西北环线东50米,北京市,北京市,永定,商务住宅;住宅区;住宅小区,120302,B0FFJH5UVI,商务住宅,住宅区,住宅小区,
116.13609526654419,39.89839833863731,梧桐苑清露园,莲石湖西路与规划三路交叉口西北100米,北京市,北京市,永定,商务住宅;住宅区;住宅小区,120302,B0FFHJP5C6,商务住宅,住宅区,住宅小区,
116.10028680244655,39.90124853323422,北京城建·上悦居,永定镇石龙南路,北京市,北京市,永定,商务住宅;住宅区;住宅小区,120302,B0FFGAT8GM,商务住宅,住宅区,住宅小区,
116.12867678549746,39.90165649852507,翡翠长安9号楼108底商,泰安路与迎宾东街交叉路口往西约100米(翡翠长安),北京市,北京市,永定,商务住宅;商务住宅相关;商务住宅相关,120000,B0HAF4U1IG,商务住宅,商务住宅相关,商务住宅相关,
116.1154962537312,39.88695103808712,小园1区惠润嘉园10地块,[],北京市,北京市,永定,商务住宅;住宅区;住宅小区,120302,B0FFGD1X2V,商务住宅,住宅区,住宅小区,
116.13466211382972,39.89622226490479,知秋园,白庄子路与龙兴南二路交叉口西南200米,北京市,北京市,永定,商务住宅;住宅区;住宅小区,120302,B0FFF9OXO2,商务住宅,住宅区,住宅小区,
116.12372449039924,39.893362551921406,石龙经济开发区产业孵化中心,莲石西路98号楼,北京市,北京市,永定,商务住宅;产业园区;产业园区,120100,B0FFFWDK4P,商务住宅,产业园区,产业园区,
116.10624174363696,39.904188193494726,中关村软件园领昱,金安路与石担路交叉路口往东约50米,北京市,北京市,永定,商务住宅;产业园区;产业园区,120100,B0FFM4397H,商务住宅,产业园区,产业园区,
116.10872176271411,39.889675423095035,云泽嘉苑,小园S1线北侧,北京市,北京市,永定,商务住宅;商务住宅相关;商务住宅相关,120000,B0FFK58LXG,商务住宅,商务住宅相关,商务住宅相关,
116.11904474690407,39.90772063249639,曹各庄路32院,石龙东路(西长安壹号),北京市,北京市,永定,商务住宅;住宅区;住宅区,120300,B0FFM9FATK,商务住宅,住宅区,住宅区,
116.12099137534302,39.907493755672284,曹各庄30号院,金安路(西长安壹号),北京市,北京市,永定,商务住宅;住宅区;住宅区,120300,B0FFL50VWP,商务住宅,住宅区,住宅区,
116.1101800027841,39.8877985484016,云翔嘉苑,永定镇小园8地块,北京市,北京市,永定,商务住宅;商务住宅相关;商务住宅相关,120000,B0FFJF8WE1,商务住宅,商务住宅相关,商务住宅相关,
116.10150644618008,39.88953451744152,紫金新源小区,石门营,北京市,北京市,永定,商务住宅;住宅区;住宅小区,120302,B0FFHMKDU9,商务住宅,住宅区,住宅小区,
116.09934324310021,39.90693497647875,冯村新园,永定镇石龙西路,北京市,北京市,门头沟,商务住宅;住宅区;住宅小区,120302,B000A837VL,商务住宅,住宅区,住宅小区,
116.12901542371324,39.90245692084811,翡翠长安,泰安路,北京市,北京市,永定,商务住宅;住宅区;住宅小区,120302,B0FFGYR5AS,商务住宅,住宅区,住宅小区,
116.13740244179746,39.89842335804067,清露园,龙兴南二路7号院4号,北京市,北京市,永定,商务住宅;住宅区;住宅小区,120302,B0FFF9OXNR,商务住宅,住宅区,住宅小区,
116.10954730824987,39.886344156707565,紫金新园三区,京昆路与龙林路交叉口南50米,北京市,北京市,永定,商务住宅;商务住宅相关;商务住宅相关,120000,B0FFKHUHCN,商务住宅,商务住宅相关,商务住宅相关,
116.10657214059044,39.888610091828475,金融街融悦中心(建设中),紫金路地铁S1号线小园站西侧,北京市,北京市,永定,商务住宅;商务住宅相关;商务住宅相关,120000,B0FFLHR7NE,商务住宅,商务住宅相关,商务住宅相关,
116.09916515901293,39.89860528757893,永和新苑,西北环线附近,北京市,北京市,永定,商务住宅;住宅区;住宅小区,120302,B0FFGRRX38,商务住宅,住宅区,住宅小区,
116.10595849457691,39.887834766957454,紫金新园2区,永定镇小园紫金路与小圆路交叉口东南200米,北京市,北京市,永定,商务住宅;商务住宅相关;商务住宅相关,120000,B0FFK54JDJ,商务住宅,商务住宅相关,商务住宅相关,
116.14017736257765,39.898241775193036,电建地产·泷悦长安,龙兴南二路5号院,北京市,北京市,永定,商务住宅;住宅区;住宅小区,120302,B0FFFWPNQ7,商务住宅,住宅区,住宅小区,
116.09482062308953,39.88590896601948,石门营A5区,[],北京市,北京市,永定,商务住宅;住宅区;住宅小区,120302,B0FFJIY38I,商务住宅,住宅区,住宅小区,
116.1001155143496,39.88667713875497,石门营新区七区B1,紫金路,北京市,北京市,永定,商务住宅;住宅区;住宅小区,120302,B0FFHHMWCQ,商务住宅,住宅区,住宅小区,
116.09925710465369,39.907441928300464,冯村新园1期,冯村中路南,北京市,北京市,门头沟,商务住宅;住宅区;住宅小区,120302,B0FFHJZXUG,商务住宅,住宅区,住宅小区,
116.10362694643224,39.9026058615246,安保宿舍,永定镇石龙南路3号院丽景长安1期14号楼安保宿舍,北京市,北京市,永定,商务住宅;住宅区;宿舍,120303,B0HG0NUP15,商务住宅,住宅区,宿舍,
116.09900868622968,39.885653836672816,石门营新区七区B2,紫金路,北京市,北京市,永定,商务住宅;住宅区;住宅小区,120302,B0FFFABW1K,商务住宅,住宅区,住宅小区,
116.09938799221298,39.90138823207311,上悦嘉园(西区),何各庄西街2号院,北京市,北京市,永定,商务住宅;商务住宅相关;商务住宅相关,120000,B0FFJ8O3YZ,商务住宅,商务住宅相关,商务住宅相关,
116.10478570970685,39.90669127118568,冯村商业街嘉园区A区,石龙北路53号附近,北京市,北京市,永定,商务住宅;住宅区;住宅区,120300,B0FFK2YO9K,商务住宅,住宅区,住宅区,
116.10379682549498,39.8893665420079,石门营地块,永定镇石门营,北京市,北京市,永定,商务住宅;住宅区;住宅区,120300,B0FFGDDWX9,商务住宅,住宅区,住宅区,
116.13761621295885,39.89647877900302,栖凤园,龙兴南二路8号院,北京市,北京市,永定,商务住宅;住宅区;住宅小区,120302,B0FFGI9JDR,商务住宅,住宅区,住宅小区,
116.13918958222389,39.90062408203754,泷悦·长安牛津园,龙兴南一路3号院,北京市,北京市,永定,商务住宅;住宅区;住宅小区,120302,B0FFJ9DI6R,商务住宅,住宅区,住宅小区,
116.13401231814606,39.89827320437691,永升嘉园,龙兴南二路11号院,北京市,北京市,永定,商务住宅;住宅区;住宅小区,120302,B0FFGBAWCI,商务住宅,住宅区,住宅小区,
116.13707474019797,39.8976388830002,金萃湾,[],北京市,北京市,永定,商务住宅;商务住宅相关;商务住宅相关,120000,B0G3YCUR4N,商务住宅,商务住宅相关,商务住宅相关,
116.10385231244086,39.909467674755966,润西山-南区,冯石环路北6,北京市,北京市,永定,商务住宅;住宅区;别墅,120301,B0FFI8II57,商务住宅,住宅区,别墅,
116.14009949397197,39.89565976511205,泷悦·长安剑桥园,龙兴南二路4号院,北京市,北京市,永定,商务住宅;住宅区;住宅小区,120302,B0FFJCNYYX,商务住宅,住宅区,住宅小区,
116.09527893643002,39.9090929818142,冯村西里小区,冯村中路与石龙西路交叉口北150米,北京市,北京市,门头沟,商务住宅;住宅区;住宅小区,120302,B0FFFAC9IJ,商务住宅,住宅区,住宅小区,
116.10143076793088,39.90206792105118,龙樾西山,友谊路南50米,北京市,北京市,永定,商务住宅;商务住宅相关;商务住宅相关,120000,B0FFI7S01N,商务住宅,商务住宅相关,商务住宅相关,
116.10600361904294,39.895101458142584,何各庄村民文化活动中心,永定镇永安路1号,北京市,北京市,永定,商务住宅;住宅区;社区中心,120304,B0FFFAD2TU,商务住宅,住宅区,社区中心,
116.10008048465865,39.88666412749409,石门营新区七区北苑,石门营新区七区,北京市,北京市,永定,商务住宅;住宅区;住宅区,120300,B0H6LYCLIR,商务住宅,住宅区,住宅区,
116.10384930916139,39.90946767327662,润西山C区南区,冯石环路与石担路交叉路口往西约150米(润景公馆),北京市,北京市,永定,商务住宅;住宅区;住宅区,120300,B0FFL34ONV,商务住宅,住宅区,住宅区,
116.09980937516885,39.88564108572202,石门营新区7区,石园中路与紫金路交叉口西100米,北京市,北京市,永定,商务住宅;住宅区;住宅区,120300,B0FFK4VZJ1,商务住宅,住宅区,住宅区,
116.14073274135863,39.89843866740498,泷悦长安·伊顿园,永定镇龙兴南二路三号院,北京市,北京市,永定,商务住宅;住宅区;住宅区,120300,B0FFI8DF54,商务住宅,住宅区,住宅区,
116.10355918564761,39.907975595935724,冯村嘉园一区3号楼1单元101底商,石担路(冯村嘉园-一区),北京市,北京市,永定,商务住宅;商务住宅相关;商务住宅相关,120000,B0FFLAT4IW,商务住宅,商务住宅相关,商务住宅相关,
116.10328187375403,39.90809445904463,嘉园社区,永定镇冯村嘉园1区3号楼西侧,北京市,北京市,永定,商务住宅;住宅区;社区中心,120304,B0FFJ7QGX8,商务住宅,住宅区,社区中心,
116.09498134674841,39.90443914427397,西山梧桐(建设中),永定镇政府南临,北京市,北京市,永定,商务住宅;商务住宅相关;商务住宅相关,120000,B0FFJ8JTJW,商务住宅,商务住宅相关,商务住宅相关,
116.09557009920229,39.90928301494287,冯村西里物业办,冯村中路(冯村西里),北京市,北京市,永定,商务住宅;商务住宅相关;商务住宅相关,120000,B0FFKYRVNG,商务住宅,商务住宅相关,商务住宅相关,
116.14072897830482,39.89649574818909,电建地产泷悦公馆,永定镇长安街西延线南约800米,北京市,北京市,永定,商务住宅;住宅区;住宅区,120300,B0FFILFQPR,商务住宅,住宅区,住宅区,
116.09613935582914,39.88683311214814,石门营新区4区,石门营新区4区15号楼2层,北京市,北京市,永定,商务住宅;住宅区;住宅小区|商务住宅;住宅区;社区中心,120302|120304,B0FFHQ3LYG,商务住宅,住宅区,住宅小区|商务住宅,住宅区
116.14084802044827,39.898542850525196,泷悦长安瞰景平墅,白庄子路与龙兴南二路交叉口东北150米,北京市,北京市,永定,商务住宅;住宅区;住宅区,120300,B0FFKJIJVE,商务住宅,住宅区,住宅区,
116.14087179583427,39.90078878978419,中铁·西城北区,龙兴南一路1号,北京市,北京市,永定,商务住宅;住宅区;住宅小区,120302,B0FFHO20W9,商务住宅,住宅区,住宅小区,
116.10187318490344,39.89438044301119,首开保利欢乐大都汇,冯石环线与石龙南路交汇处北,北京市,北京市,永定,商务住宅;楼宇;商住两用楼宇,120203,B0FFH72J8J,商务住宅,楼宇,商住两用楼宇,
116.09712434500338,39.90797035269524,冯村新园2期,冯村中路南50米,北京市,北京市,门头沟,商务住宅;住宅区;住宅小区,120302,B0FFFSAAUF,商务住宅,住宅区,住宅小区,
116.10014954166947,39.88670214915869,石门营小区,门头沟冯村石门营环岛,北京市,北京市,永定,商务住宅;住宅区;住宅小区,120302,B000AA4G99,商务住宅,住宅区,住宅小区,
116.11913991396113,39.89992807254262,西山燕庐东区,门头沟永定镇新城东街22号院,北京市,北京市,永定,商务住宅;商务住宅相关;商务住宅相关,120000,B0FFLIZLKP,商务住宅,商务住宅相关,商务住宅相关,
116.11853173815673,39.900566407679776,西山燕庐四季花厅,永定镇新城东街22号院,北京市,北京市,永定,商务住宅;住宅区;住宅区,120300,B0FFMEXCRJ,商务住宅,住宅区,住宅区,
116.12033168018107,39.89540755767919,石龙高科大厦1号楼,高科大厦1号楼,北京市,北京市,永定,商务住宅;楼宇;商务写字楼,120201,B0FFG4L66I,商务住宅,楼宇,商务写字楼,
116.15415421022287,40.13708492366893,东贯市南路甲一号院,东贯市开发区甲1号附近,北京市,北京市,阳坊村,商务住宅;商务住宅相关;商务住宅相关,120000,B0FFKPA0L3,商务住宅,商务住宅相关,商务住宅相关,
116.15273835050897,40.12877515213705,中关村新兴领域科技园,S324(沙阳路),北京市,北京市,阳坊村,商务住宅;产业园区;产业园区,120100,B0G3AXK48Q,商务住宅,产业园区,产业园区,
116.15250189013847,40.12727086474567,极东·未来产业园,沙阳路与阳坊镇南桥交叉口东南150米,北京市,北京市,阳坊村,商务住宅;产业园区;产业园区,120100,B0FFJDKJ2Y,商务住宅,产业园区,产业园区,
116.14587223228773,40.11707709113068,福园森林,S218(温阳路),北京市,北京市,,商务住宅;住宅区;住宅区,120300,B0FFL9PVNN,商务住宅,住宅区,住宅区,
116.18202519301829,40.11274445335408,八家村文化活动中心,[],北京市,北京市,,商务住宅;住宅区;社区中心,120304,B0G0D5B59M,商务住宅,住宅区,社区中心,
116.16363109790004,40.08020707841202,苏三四村2区,苏家坨路北100米,北京市,北京市,,商务住宅;住宅区;住宅小区,120302,B0FFFH0IHF,商务住宅,住宅区,住宅小区,
116.16804295094327,40.07730551351144,苏三四南区,三星庄路(苏三四小学北侧约50米),北京市,北京市,,商务住宅;住宅区;住宅小区,120302,B0FFFGYRJ2,商务住宅,住宅区,住宅小区,
116.16697043782852,40.08109725778839,苏三四北-1区,苏家坨路(中心市场东北侧约150米),北京市,北京市,,商务住宅;住宅区;住宅区,120300,B0FFL18606,商务住宅,住宅区,住宅区,
116.17298353232268,40.071907047230084,知识理性大厦,翠湖南环路13号院7号楼,北京市,北京市,,商务住宅;楼宇;商务写字楼,120201,B0FFGDQ5VR,商务住宅,楼宇,商务写字楼,
116.16426205567929,40.07885634707566,苏三四西-2区,苏家坨路(中心市场西南侧约200米),北京市,北京市,,商务住宅;住宅区;住宅区,120300,B0FFMECWFP,商务住宅,住宅区,住宅区,
116.16800824431783,40.07421764996748,人大附中北大附小联合实验学校家属楼,苏家坨镇三星庄路,北京市,北京市,,商务住宅;住宅区;住宅小区,120302,B0FFKXF96H,商务住宅,住宅区,住宅小区,
116.15665733187507,40.06533409062999,西颐小区,温阳路,北京市,北京市,,商务住宅;住宅区;住宅小区,120302,B000A81HZ5,商务住宅,住宅区,住宅小区,
116.17228950936915,40.072541722807046,智谷中心,玉津东路,北京市,北京市,,商务住宅;产业园区;产业园区,120100,B0FFG85RQR,商务住宅,产业园区,产业园区,
116.17828948528283,40.0777743754643,稻香湖科技创新园南区,[],北京市,北京市,,商务住宅;产业园区;产业园区,120100,B0G0X50QHX,商务住宅,产业园区,产业园区,
116.18649636090215,40.07025130490742,海淀绿地中央广场,北清路与稻香湖路交汇处,北京市,北京市,,商务住宅;楼宇;商务写字楼,120201,B0FFFQ4LQI,商务住宅,楼宇,商务写字楼,
116.17505476153802,40.09200549608724,员工宿舍,苏家沱镇稻香湖路28号员工宿舍,北京市,北京市,,商务住宅;住宅区;宿舍,120303,B0FFME0QEJ,商务住宅,住宅区,宿舍,
116.14758502830274,40.07616812633615,北环小区,温阳路附近,北京市,北京市,,商务住宅;住宅区;住宅小区,120302,B0FFFJ8E9G,商务住宅,住宅区,住宅小区,
116.18503894816453,40.0830089680113,大北农生物技术创新基地(建设中),西马坊路南200米,北京市,北京市,,商务住宅;产业园区;产业园区,120100,B0FFIS1FXN,商务住宅,产业园区,产业园区,
116.15933781282818,40.06568901612087,北分厂家属区,北清路与温阳路交叉口,北京市,北京市,,商务住宅;住宅区;住宅小区,120302,B000A8UFTP,商务住宅,住宅区,住宅小区,
116.15406837136071,40.079056486325776,西小营新村,北清路向北苏家坨乡政府对面,北京市,北京市,,商务住宅;住宅区;住宅区,120300,B0FFFWEB7X,商务住宅,住宅区,住宅区,
116.15411250026692,40.07900556987663,苏家坨新村,温阳路东150米,北京市,北京市,,商务住宅;住宅区;住宅区,120300,B0FFGBC5K7,商务住宅,住宅区,住宅区,
116.15972650518839,40.06098701937702,佳讯飞鸿大楼,锦带路88号院1号楼,北京市,北京市,,商务住宅;楼宇;商务写字楼,120201,B0FFHDKMY2,商务住宅,楼宇,商务写字楼,
116.16505456810734,40.06097295019153,中国人寿研发中心B座,景天路(中国人寿研发中心),北京市,北京市,,商务住宅;楼宇;商务写字楼,120201,B0FFI7PWBB,商务住宅,楼宇,商务写字楼,
116.18669210987017,40.08419871963148,和义广业医疗创新谷,澄湾街9号院纳通科技集团总部,北京市,北京市,,商务住宅;产业园区;产业园区,120100,B0HGJPFUH8,商务住宅,产业园区,产业园区,
116.16048566038047,40.06087343564003,中科海讯大厦,地锦路33号,北京市,北京市,,商务住宅;楼宇;商务写字楼,120201,B0FFG7MO1V,商务住宅,楼宇,商务写字楼,
116.18242854845329,40.078905691561424,翠湖北环路2号院,三星庄路,北京市,北京市,,商务住宅;住宅区;住宅区,120300,B0FFL5K8DR,商务住宅,住宅区,住宅区,
116.17124971233602,40.079488341021595,北京海峰二色农业科技园,苏家坨东路与苏家坨路交叉口东南200米,北京市,北京市,,商务住宅;产业园区;产业园区,120100,B000A5DF88,商务住宅,产业园区,产业园区,
116.18486247795603,40.083061659561366,大北农生物农业科技创新园(总部)基地,苏家坨镇西马坊路南侧,北京市,北京市,,商务住宅;产业园区;产业园区,120100,B0FFL8BOIO,商务住宅,产业园区,产业园区,
116.15032189074523,40.06472066308624,合锐赛尔大厦,高里掌路(中关村翠湖科技园云中心),北京市,北京市,,商务住宅;楼宇;商务写字楼,120201,B0HG65F8CY,商务住宅,楼宇,商务写字楼,
116.18617324860477,40.08034609708191,实创医谷(建设中),苏家坨镇稻香湖路与三星庄路交叉口创新园5号楼,北京市,北京市,,商务住宅;商务住宅相关;商务住宅相关,120000,B0FFLFGSKT,商务住宅,商务住宅相关,商务住宅相关,
116.18520073230975,40.09600631836754,常乐新村别墅,常乐村123号,北京市,北京市,,商务住宅;住宅区;别墅,120301,B000A7OMGZ,商务住宅,住宅区,别墅,
116.18544372250332,40.093204943846104,荷颐苑,上庄,北京市,北京市,,商务住宅;住宅区;别墅,120301,B000A81HTM,商务住宅,住宅区,别墅,
116.15126948145019,40.08040535071243,海淀北部新区实验学校中学部家属院,温阳路与柳林路交叉路口往南约50米,北京市,北京市,,商务住宅;住宅区;住宅区,120300,B0FFL96YA5,商务住宅,住宅区,住宅区,
116.17734841716465,40.065790431355666,实创科技园区,温泉地区中关村环保园实创科技园区,北京市,北京市,,商务住宅;产业园区;产业园区,120100,B0HGFA6GGN,商务住宅,产业园区,产业园区,
116.17338153166605,40.064895217884576,万科翠湖国际(建设中),忍冬路与景天路交叉口北50米,北京市,北京市,,商务住宅;住宅区;住宅小区,120302,B0FFJ591WH,商务住宅,住宅区,住宅小区,
116.15071508827326,40.06374242183442,中关村翠湖科技园云中心,温泉高里掌路1号院,北京市,北京市,,商务住宅;产业园区;产业园区,120100,B0FFG8VPUP,商务住宅,产业园区,产业园区,
116.18795206342625,40.070659743426646,衢时代绿海飞地,[],北京市,北京市,,商务住宅;产业园区;产业园区,120100,B0G0R5E8EF,商务住宅,产业园区,产业园区,
116.15958389443193,40.06263165700917,谱尼测试总部大厦,中关村环保科技示范园锦带路66号院1号楼,北京市,北京市,,商务住宅;楼宇;商务写字楼,120201,B0FFIY0TKK,商务住宅,楼宇,商务写字楼,
116.14570730452624,40.07396002513164,老管公寓,西小营村,北京市,北京市,,商务住宅;商务住宅相关;商务住宅相关,120000,B0FFL0C4G2,商务住宅,商务住宅相关,商务住宅相关,
116.15315730564282,40.067616569362606,蜂巢公寓,温阳路地铁站D西南口西北150米,北京市,北京市,,商务住宅;商务住宅相关;商务住宅相关,120000,B0FFHOAPFQ,商务住宅,商务住宅相关,商务住宅相关,
116.14470660352607,40.07443428736175,聂公馆,西小营村和平北街89号,北京市,北京市,,商务住宅;商务住宅相关;商务住宅相关,120000,B0FFLLWHVV,商务住宅,商务住宅相关,商务住宅相关,
116.14770076087564,40.07286054179188,西小营村文化活动中心,西小营温阳路苏家坨小学西北350米西小营村村委会附近,北京市,北京市,,商务住宅;住宅区;社区中心,120304,B0FFL5V9MT,商务住宅,住宅区,社区中心,
116.1652879425812,40.06322925178833,中国人寿科技园,温泉镇环保科技示范园,北京市,北京市,,商务住宅;商务住宅相关;商务住宅相关,120000,B0FFKPXTH8,商务住宅,商务住宅相关,商务住宅相关,
116.18684057641286,40.09940086882519,491号院,马坊中路,北京市,北京市,,商务住宅;住宅区;住宅区,120300,B0FFMDR5V0,商务住宅,住宅区,住宅区,
116.18896599844923,40.099629425570456,北京优伦宿舍,马坊中路北50米,北京市,北京市,,商务住宅;商务住宅相关;商务住宅相关,120000,B0FFJXRHJS,商务住宅,商务住宅相关,商务住宅相关,
116.19113396099192,40.103500691405294,億起玩绿色生活社区,上庄镇常乐村437号,北京市,北京市,,体育休闲服务;休闲场所;游乐场|商务住宅;住宅区;住宅小区|生活服务;生活服务场所;生活服务场所,080501|120302|070000,B0FFGDXZFP,体育休闲服务,休闲场所,游乐场|商务住宅,住宅区
116.17897010297759,40.06386348174693,龙湖·云域,北清路稻香湖地铁站西侧,北京市,北京市,,商务住宅;商务住宅相关;商务住宅相关,120000,B0FFLESM09,商务住宅,商务住宅相关,商务住宅相关,
116.17348900499597,40.06352549902493,京台数字文化产业发展基地,温泉镇万科翠湖国际产业园B2楼,北京市,北京市,,商务住宅;产业园区;产业园区,120100,B0G2CR9XQO,商务住宅,产业园区,产业园区,
116.15255011108576,40.0638387041207,高里掌路1号院,高里掌路1号,北京市,北京市,,商务住宅;住宅区;住宅小区,120302,B0FFGBC74X,商务住宅,住宅区,住宅小区,
116.15437625157095,40.06314305231346,(海淀)留学人员创业园翠湖云中心分园,北清路和温阳路口西南角翠湖云中心展示中心,北京市,北京市,,商务住宅;产业园区;产业园区,120100,B0FFKIRJG7,商务住宅,产业园区,产业园区,
116.19021261214569,40.095937764946946,常乐村文化活动中心,马坊中路西50米,北京市,北京市,,商务住宅;住宅区;社区中心,120304,B0FFH67NJK,商务住宅,住宅区,社区中心,
116.17293185106446,40.060341659654775,中科院计算所龙芯产业园,北京市海淀区北清路158,北京市,北京市,,商务住宅;产业园区;产业园区,120100,B0FFG7X47Q,商务住宅,产业园区,产业园区,
116.1509968732188,40.06362693128059,一号院云中心东区,高里掌路(中关村翠湖科技园云中心),北京市,北京市,,商务住宅;住宅区;住宅小区,120302,B0FFMFUY2N,商务住宅,住宅区,住宅小区,
116.16919008131252,40.06237458987045,北京市仪器仪表高级技工学校男生公寓,景天路附近,北京市,北京市,,商务住宅;住宅区;宿舍,120303,B0FFH98N15,商务住宅,住宅区,宿舍,
116.16824488413612,40.0349623320576,西山雅园,温泉镇白家疃路白家疃小区119号,北京市,北京市,,商务住宅;住宅区;住宅小区,120302,B0FFGG6K26,商务住宅,住宅区,住宅小区,
116.17790560713422,40.044727646089115,尚峰尚水,温北路8号,北京市,北京市,,商务住宅;住宅区;住宅小区,120302,B000A8511P,商务住宅,住宅区,住宅小区,
116.17753031624385,40.030945674244315,横山,白家疃路83号附近,北京市,北京市,,商务住宅;住宅区;住宅区,120300,B0FFIK7BHQ,商务住宅,住宅区,住宅区,
116.17111254812146,40.03823050610315,华兴创新园,白家疃路45号,北京市,北京市,,商务住宅;产业园区;产业园区,120100,B0G0VDKFZH,商务住宅,产业园区,产业园区,
116.17229977281038,40.039062665174995,秀山公寓,温泉镇白家疃,北京市,北京市,,商务住宅;住宅区;住宅小区,120302,B000A8UU55,商务住宅,住宅区,住宅小区,
116.16673601068263,40.04767784723559,温泉凯盛家园,温泉路与双坡路交汇处北侧,北京市,北京市,,商务住宅;住宅区;住宅小区,120302,B000A8W7BK,商务住宅,住宅区,住宅小区,
116.17550245785777,40.02511326010276,颐西庄园,温泉镇白家疃北辰香麓观麓园16号,北京市,北京市,,商务住宅;住宅区;住宅小区,120302,B000A81HYT,商务住宅,住宅区,住宅小区,
116.17434630303586,40.04051536790476,龙疃文体社区,白家疃村,北京市,北京市,,商务住宅;住宅区;住宅小区,120302,B0FFH18RNS,商务住宅,住宅区,住宅小区,
116.18514393797064,40.037671836784995,颐阳二区社区,温泉路,北京市,北京市,,商务住宅;住宅区;住宅小区,120302,B0FFHHLH7Y,商务住宅,住宅区,住宅小区,
116.17457204953881,40.04749241128061,海淀SOHO永丰文创园,白家疃西路与显龙山路交叉路口西北侧,北京市,北京市,,商务住宅;住宅区;住宅区,120300,B0FFG7FMOM,商务住宅,住宅区,住宅区,
116.17314687137363,40.03329152575468,白家疃,西北旺站,北京市,北京市,,商务住宅;住宅区;住宅区,120300,B0FFL7HIT1,商务住宅,住宅区,住宅区,
116.1851132835366,40.04223054665587,温泉人家,白家疃东路9号温泉体育中心院内正东方向160米,北京市,北京市,,商务住宅;住宅区;住宅小区,120302,B000A844MI,商务住宅,住宅区,住宅小区,
116.174196598853,40.04279097282933,中航工业航材院青年公寓,白家疃193号温泉路康益生平价大药房东20米正西方向150米,北京市,北京市,,商务住宅;住宅区;住宅小区,120302,B0FFFY9L3T,商务住宅,住宅区,住宅小区,
116.18588807601607,40.044081780728476,福溪家园,温泉镇杨庄村叠风路15号院,北京市,北京市,,商务住宅;住宅区;住宅小区,120302,B000A8XPVS,商务住宅,住宅区,住宅小区,
116.1720982451137,40.03877130692337,秀山家园,温泉镇白家疃,北京市,北京市,,商务住宅;住宅区;住宅区,120300,B0FFFES9N9,商务住宅,住宅区,住宅区,
116.17250864200142,40.044723753995605,北辰·香麓望麓园东区,御风路与簸箕水路交叉口东南150米,北京市,北京市,,商务住宅;住宅区;住宅小区,120302,B0FFH9TZ8J,商务住宅,住宅区,住宅小区,
116.173982683467,40.02948725616093,颜西庄园,白家瞳路(白家疃南侧),北京市,北京市,,商务住宅;住宅区;住宅区,120300,B0GK66O4J0,商务住宅,住宅区,住宅区,
116.18455403741068,40.04045667265807,温泉路45号院,温泉路45号,北京市,北京市,,商务住宅;住宅区;住宅小区,120302,B000A81HYU,商务住宅,住宅区,住宅小区,
116.1694392243013,40.0588962596591,中关村环保科技示范园(夏雪路),地锦路55号院,北京市,北京市,,商务住宅;产业园区;产业园区,120100,B000A4CBDF,商务住宅,产业园区,产业园区,
116.18371747080484,40.03535248029584,古香道南街8号院,温泉路(颐阳山水居养心园西侧约150米),北京市,北京市,,商务住宅;住宅区;住宅小区,120302,B0FFHOD117,商务住宅,住宅区,住宅小区,
116.18187927523616,40.03769813114119,中国航发航材院青年公寓,温泉镇白家疃小区东,北京市,北京市,,商务住宅;住宅区;住宅小区,120302,B0H666CHWZ,商务住宅,住宅区,住宅小区,
116.1849982437104,40.04015045713237,杨庄社区,温泉路45号,北京市,北京市,,商务住宅;住宅区;住宅小区,120302,B000A8VNYF,商务住宅,住宅区,住宅小区,
116.15607304635245,40.04686707912634,办公楼(北京老年医院西南),西三旗环岛东南95号,北京市,北京市,,商务住宅;楼宇;商务写字楼,120201,B0FFINFKMQ,商务住宅,楼宇,商务写字楼,
116.16708506041215,40.055077087007845,中关村环保园创中心,中关村北清路156号,北京市,北京市,,商务住宅;楼宇;商务写字楼,120201,B000A86895,商务住宅,楼宇,商务写字楼,
116.16042268076872,40.05143686044209,温泉85号院,海淀温泉老年医院对面,北京市,北京市,,商务住宅;住宅区;住宅区,120300,B0FFILFQXG,商务住宅,住宅区,住宅区,
116.16918645094677,40.027764444869206,天籁碧水种植合作社簸箕水67号院,白家瞳路,北京市,北京市,,商务住宅;商务住宅相关;商务住宅相关,120000,B0FFM96FJ8,商务住宅,商务住宅相关,商务住宅相关,
116.17402294826118,40.05202515073299,华为北京研究所Q20大楼,稻香湖路北清路156号中关村环保科技示范园内,北京市,北京市,,商务住宅;楼宇;商务写字楼,120201,B0FFG0UHAW,商务住宅,楼宇,商务写字楼,
116.17676563370381,40.051373212349816,华为北京研究所Q21大楼,稻香湖路北清路156号中关村环保科技示范园内,北京市,北京市,,商务住宅;楼宇;商务写字楼,120201,B0FFG0UHAY,商务住宅,楼宇,商务写字楼,
116.15013222687591,40.04232159276105,温泉北坡11号,温泉镇温泉村北坡11号,北京市,北京市,,商务住宅;住宅区;住宅小区,120302,B0G055JO6A,商务住宅,住宅区,住宅小区,
116.1864524201458,40.03711910922997,颐阳山水居,温泉路,北京市,北京市,,商务住宅;住宅区;住宅小区,120302,B0FFF6W53Q,商务住宅,住宅区,住宅小区,
116.17881543722756,40.042026433605436,晶达园,[],北京市,北京市,,商务住宅;住宅区;住宅小区,120302,B0G39AN5FV,商务住宅,住宅区,住宅小区,
116.17353850307344,40.052771215820826,华为北京研究所Q19大楼,温泉镇紫雀路中关村环保科技示范园,北京市,北京市,,商务住宅;楼宇;商务写字楼,120201,B0FFG0UHAV,商务住宅,楼宇,商务写字楼,
116.17474009308316,40.042929964982164,白家疃,温泉路84号小博士幼儿园,北京市,北京市,,商务住宅;住宅区;住宅小区,120302,B0FFGFI5NF,商务住宅,住宅区,住宅小区,
116.16941887300193,40.0454179767734,望麓园西区,显龙山路19号,北京市,北京市,,商务住宅;住宅区;住宅区,120300,B0HGFL5CCK,商务住宅,住宅区,住宅区,
116.18913714201311,40.03842356195816,人人房国际青年社区,温泉路南,北京市,北京市,,商务住宅;住宅区;住宅小区,120302,B0FFH1YHJJ,商务住宅,住宅区,住宅小区,
116.1768826893187,40.05348730691537,华为北京研究所Q13大楼,木荷路19号院2,北京市,北京市,,商务住宅;楼宇;商务写字楼,120201,B0FFG0UHAS,商务住宅,楼宇,商务写字楼,
116.17903861866994,40.053338219113236,华为北研所Q10大楼,稻香湖路与银铧路交叉口西北200米,北京市,北京市,,商务住宅;楼宇;商务写字楼,120201,B0FFG0UHAQ,商务住宅,楼宇,商务写字楼,
116.17506558786526,40.05408395167419,华为北京研究所Q16大楼,温泉北清路156号中关村环保园,北京市,北京市,,商务住宅;楼宇;商务写字楼,120201,B0FFG0UHAT,商务住宅,楼宇,商务写字楼,
116.17130122711471,40.04495950304267,北辰.香麓-欣麓园,御风路与簸箕水路交叉口南100米,北京市,北京市,,商务住宅;住宅区;住宅小区,120302,B0FFGBC1LV,商务住宅,住宅区,住宅小区,
116.17335489207638,40.05354983308627,华为北京研究所Q27大楼,北清路156号,北京市,北京市,,商务住宅;楼宇;商务写字楼,120201,B0FFJ9VBUX,商务住宅,楼宇,商务写字楼,
116.17372278080374,40.04672988904636,北辰香麓,温泉镇白家疃,北京市,北京市,,商务住宅;住宅区;住宅小区,120302,B0FFGDZ3BN,商务住宅,住宅区,住宅小区,
116.17335489207638,40.05354983308627,华为北京研究所M03大楼,北清路156号,北京市,北京市,,商务住宅;楼宇;商务写字楼,120201,B0FFKNRUYI,商务住宅,楼宇,商务写字楼,
116.18446717725853,40.0375296735277,颐春小区,温泉路南,北京市,北京市,,商务住宅;住宅区;住宅小区,120302,B000A81HYW,商务住宅,住宅区,住宅小区,
116.17465132498218,40.054970140584246,华为北京研究所Q15大楼,银桦路19号院1,北京市,北京市,,商务住宅;楼宇;商务写字楼,120201,B0FFG0UHAU,商务住宅,楼宇,商务写字楼,
116.16569414213441,40.054947495331675,新晨科技大厦,温泉镇地锦路8号院12号楼C4,北京市,北京市,,商务住宅;楼宇;商务写字楼,120201,B0FFMBCO6U,商务住宅,楼宇,商务写字楼,
116.17690156362048,40.054894261476974,华为北京研究所Q14大楼,稻香湖路北清路156号中关村环保科技示范园内,北京市,北京市,,商务住宅;楼宇;商务写字楼,120201,B0FFG0UHAR,商务住宅,楼宇,商务写字楼,
116.19018861737165,40.03982422629043,卫生局党校家属楼,温泉镇17号院(杨庄加油站后方),北京市,北京市,,商务住宅;住宅区;住宅小区,120302,B0FFH14V0W,商务住宅,住宅区,住宅小区,
116.19108013026572,40.03754980090149,四季蓝山公馆,温泉路26附近,北京市,北京市,,商务住宅;住宅区;住宅小区,120302,B0FFFYA1DB,商务住宅,住宅区,住宅小区,
116.18406291226157,40.03910389005822,天兰lifestyle社区,温泉路59号,北京市,北京市,,商务住宅;商务住宅相关;商务住宅相关,120000,B0FFKYSJ77,商务住宅,商务住宅相关,商务住宅相关,
116.17620889369634,40.05298310676783,华为北京研究所M园区,北清路156号中关村环保科技示范园内,北京市,北京市,,商务住宅;产业园区;产业园区,120100,B0FFG0UHB2,商务住宅,产业园区,产业园区,
116.16980430435476,40.058491963323746,华为北京研究所Q5大楼,文松路6号院,北京市,北京市,,商务住宅;楼宇;商务写字楼,120201,B0FFH0MLND,商务住宅,楼宇,商务写字楼,
116.17918482925238,40.05482739782086,华为北京研究所Q11大楼,稻香湖路北清路156号中关村环保科技示范园内,北京市,北京市,,商务住宅;楼宇;商务写字楼,120201,B0FFG0UHAP,商务住宅,楼宇,商务写字楼,
116.1766140820335,40.04451331057837,白家瞳尚居园,尚峰尚水,北京市,北京市,,商务住宅;商务住宅相关;商务住宅相关,120000,B0GUNZHGET,商务住宅,商务住宅相关,商务住宅相关,
116.172814429837,40.05316885599707,地锦路4号院,景天路附近,北京市,北京市,,商务住宅;住宅区;住宅区,120300,B0FFGBC21F,商务住宅,住宅区,住宅区,
116.18412752853918,40.035566183793534,古香道南街7号院,内环西路,北京市,北京市,,商务住宅;商务住宅相关;商务住宅相关,120000,B0FFIWBAQQ,商务住宅,商务住宅相关,商务住宅相关,
116.18365729260796,40.03550136772267,古香道南街9号院,白家疃村社区路,北京市,北京市,,商务住宅;商务住宅相关;商务住宅相关,120000,B0HB478BC4,商务住宅,商务住宅相关,商务住宅相关,
116.17115705158974,40.058955452196244,华为北京研究所Q9大楼,华为北京研究所J园区,北京市,北京市,,商务住宅;楼宇;商务写字楼,120201,B0FFH0OP3N,商务住宅,楼宇,商务写字楼,
116.16807752925862,40.05772978783131,同有科技大厦,温泉中关村环保科技示范园地锦路9号院,北京市,北京市,,商务住宅;楼宇;商务写字楼,120201,B0FFFONHEF,商务住宅,楼宇,商务写字楼,
116.16804323911995,40.05925563492131,联动天翼大楼,紫雀路33号院1号楼,北京市,北京市,,商务住宅;楼宇;商务写字楼,120201,B0FFGKDY8D,商务住宅,楼宇,商务写字楼,
116.17869850733183,40.05478852402057,华为q11大厦,地锦路与稻香湖路交叉口,北京市,北京市,,商务住宅;楼宇;商务写字楼,120201,B0FFL4RLD7,商务住宅,楼宇,商务写字楼,
116.16500427962403,40.054238246438054,环保嘉苑南区,秋枫路17号,北京市,北京市,,商务住宅;住宅区;住宅小区,120302,B0FFH9TNRB,商务住宅,住宅区,住宅小区,
116.17863205626595,40.05692328178227,华为北京研究所Q1大楼,温泉北清路156号实创科技示范园,北京市,北京市,,商务住宅;楼宇;商务写字楼,120201,B0FFG0UH9C,商务住宅,楼宇,商务写字楼,
116.18454664671627,40.03546391669173,古香道南街6号院,颐阳山水居西区西100米,北京市,北京市,,商务住宅;商务住宅相关;商务住宅相关,120000,B0FFMEDGKI,商务住宅,商务住宅相关,商务住宅相关,
116.18523651164774,40.035042130427094,南山17号院,内环东路与内环西路交叉口西南50米,北京市,北京市,,商务住宅;商务住宅相关;商务住宅相关,120000,B0FFHJ98YD,商务住宅,商务住宅相关,商务住宅相关,
116.17591988229071,40.046746923015775,一禾国际,显龙山路与白家疃西路交叉路口东侧,北京市,北京市,,商务住宅;住宅区;住宅区,120300,B0H6FKZBPA,商务住宅,住宅区,住宅区,
116.16313068270034,40.056560614383514,中国铁建·理想谷,中关村环保科技园地锦路环保嘉苑13号院西侧,北京市,北京市,,商务住宅;楼宇;商务写字楼,120201,B0G35CUNDK,商务住宅,楼宇,商务写字楼,
116.18637999620694,40.03899388919648,颐阳山水居百合园,温泉路,北京市,北京市,,商务住宅;住宅区;住宅区,120300,B0FFILDYC4,商务住宅,住宅区,住宅区,
116.17905884266635,40.04407576348137,正源尚峰尚水,叠风路与白家疃路交叉路口北侧(尚峰尚水c区),北京市,北京市,,商务住宅;住宅区;住宅区,120300,B0FFH36WDX,商务住宅,住宅区,住宅区,
116.17053807120797,40.04504808019154,辰尚社区文体活动服务站,温泉路与簸箕水路交叉口东北100米,北京市,北京市,,商务住宅;住宅区;社区中心,120304,B0FFH9VR6G,商务住宅,住宅区,社区中心,
116.16467701586444,40.049011926591334,燕保·温泉家园,温泉镇温泉路凯盛家园二区对面,北京市,北京市,,商务住宅;住宅区;住宅小区,120302,B0FFHU18U6,商务住宅,住宅区,住宅小区,
116.1775522977078,40.05533941880559,地锦路2号院,地锦路(华为北研所),北京市,北京市,,商务住宅;住宅区;住宅区,120300,B0FFGBC109,商务住宅,住宅区,住宅区,
116.17230031948709,40.05847660049023,荣耀Q6大楼,华为北京研究所J园区,北京市,北京市,,商务住宅;楼宇;商务写字楼,120201,B0GKMSRWQU,商务住宅,楼宇,商务写字楼,
116.15059446636725,40.042481405934204,胜利公寓,温泉镇温泉村北坡三号,北京市,北京市,,商务住宅;住宅区;住宅区,120300,B0G0D1C40F,商务住宅,住宅区,住宅区,
116.14962284015145,40.042337689497145,青年公寓,温泉村北坡17号,北京市,北京市,,商务住宅;商务住宅相关;商务住宅相关,120000,B0HGFM5DIX,商务住宅,商务住宅相关,商务住宅相关,
116.17073613437789,40.056854792035494,地锦路7号院,地锦路13号院1号楼7单元603,北京市,北京市,,商务住宅;产业园区;产业园区,120100,B0FFH16UWQ,商务住宅,产业园区,产业园区,
116.17882561393566,40.05669364409268,地锦路1号院,稻香湖路西150米,北京市,北京市,,商务住宅;住宅区;住宅区,120300,B0FFH18M9Y,商务住宅,住宅区,住宅区,
116.14918057975295,40.04281988315128,奕铭公寓,温泉村北坡21号,北京市,北京市,,商务住宅;商务住宅相关;商务住宅相关,120000,B0G0HHIIR1,商务住宅,商务住宅相关,商务住宅相关,
116.17885764278556,40.05715767504253,华为北京研究所L05园区,温泉北清路156号实创科技示范园华为北京研究所Q1大楼附近,北京市,北京市,,商务住宅;产业园区;产业园区,120100,B0FFG0UH9D,商务住宅,产业园区,产业园区,
116.18466058279321,40.03835296637285,农商行宿舍楼,温泉路与白家疃东路交叉口东南200米,北京市,北京市,,商务住宅;住宅区;宿舍,120303,B0FFIYVH8F,商务住宅,住宅区,宿舍,
116.17650881043363,40.052282693431245,华为北京研究所Q22大楼,稻香湖路北清路156号中关村环保科技示范园内,北京市,北京市,,商务住宅;楼宇;商务写字楼,120201,B0FFK2SPTR,商务住宅,楼宇,商务写字楼,
116.19034627577082,40.037731593212044,西山阁,温泉路南150米,北京市,北京市,,商务住宅;商务住宅相关;商务住宅相关,120000,B0FFJRIWNM,商务住宅,商务住宅相关,商务住宅相关,
116.18802184663369,40.02613631112707,海淀区温泉镇杨家庄南山1号院,温泉镇南山1号院,北京市,北京市,,商务住宅;住宅区;住宅区,120300,B0FFII5NG0,商务住宅,住宅区,住宅区,
116.15605399545059,40.04684904518737,办公楼,温泉路118号,北京市,北京市,,商务住宅;楼宇;商务写字楼,120201,B000A81HYQ,商务住宅,楼宇,商务写字楼,
116.16598587660374,40.05566599950894,地锦路8号院,温泉环保科技示范园北清路156号,北京市,北京市,,商务住宅;住宅区;住宅区,120300,B0FFHDVLFB,商务住宅,住宅区,住宅区,
116.16779512717994,40.05460544000611,中关村环保园创中心8号楼,[],北京市,北京市,,商务住宅;产业园区;产业园区,120100,B0G2RHIQEW,商务住宅,产业园区,产业园区,
116.157921580649,40.05191520135594,教工宿舍,温泉镇海淀南院教工宿舍,北京市,北京市,,商务住宅;商务住宅相关;商务住宅相关,120000,B0FFL78Z1I,商务住宅,商务住宅相关,商务住宅相关,
116.16696277636207,40.05458988630063,中关村环保园创中心10号楼,[],北京市,北京市,,商务住宅;产业园区;产业园区,120100,B0G2RHIXNL,商务住宅,产业园区,产业园区,
116.16801134726379,40.05769066655879,中关村环保科技示范园9号院2号楼,北清路156号中关村环保科技示范园,北京市,北京市,,商务住宅;产业园区;产业园区,120100,B0FFGBC21V,商务住宅,产业园区,产业园区,
116.18791330097639,40.036214629519826,颐阳山水居丁香园,内环东路与内环西路交叉口东150米,北京市,北京市,,商务住宅;住宅区;住宅区,120300,B0FFFDKR6N,商务住宅,住宅区,住宅区,
116.16703186135503,40.05546096571068,中关村环保园创中心3号楼,[],北京市,北京市,,商务住宅;产业园区;产业园区,120100,B0G2RHIXMI,商务住宅,产业园区,产业园区,
116.16982861943936,40.05654412139784,竞业达大厦,北清路156号中关村环保科技示范园地锦路7号院9号楼,北京市,北京市,,商务住宅;楼宇;商务写字楼,120201,B0FFJRWRP3,商务住宅,楼宇,商务写字楼,
116.167424794033,40.05686761891736,九州风神大厦,地锦路9号院10号,北京市,北京市,,商务住宅;楼宇;商务写字楼,120201,B0FFK8CYP8,商务住宅,楼宇,商务写字楼,
116.16667963396749,40.05728620271216,安控大厦,地锦路,北京市,北京市,,商务住宅;楼宇;商务写字楼,120201,B0FFJRVC1H,商务住宅,楼宇,商务写字楼,
116.16480859091989,40.05530182024332,环保嘉苑15号院,环保科技园内,北京市,北京市,,商务住宅;商务住宅相关;商务住宅相关,120000,B0FFHI6B1W,商务住宅,商务住宅相关,商务住宅相关,
116.1670830076093,40.0554480619953,环保科技园8号院,地锦路(中关村环保园原动力空间),北京市,北京市,,商务住宅;商务住宅相关;商务住宅相关,120000,B0FFHKUAAE,商务住宅,商务住宅相关,商务住宅相关,
116.16473919064211,40.05690959829772,中国铁建环保嘉苑-13号院,温泉镇环保科技园,北京市,北京市,,商务住宅;住宅区;住宅区,120300,B0FFH94IDR,商务住宅,住宅区,住宅区,
116.19031217663834,40.03784053169048,航天小院,温泉镇温泉路36号院,北京市,北京市,,商务住宅;住宅区;宿舍,120303,B0GR9LPOLS,商务住宅,住宅区,宿舍,
116.16591170921022,40.05533088006206,盛景大厦,地锦路(中关村环保园原动力空间),北京市,北京市,,商务住宅;商务住宅相关;商务住宅相关,120000,B0FFKRUJDO,商务住宅,商务住宅相关,商务住宅相关,
116.1540612099175,40.04873830592924,老年医院家属楼,海淀北京市海淀区温泉镇温泉镇老年人医院北侧,北京市,北京市,,商务住宅;住宅区;住宅小区,120302,B0FFF70KK5,商务住宅,住宅区,住宅小区,
116.16925269411,40.05892991006909,中关村环保科技示范园,紫雀路与地锦路交叉路口往南约50米,北京市,北京市,,商务住宅;产业园区;产业园区,120100,B0HAD7F14W,商务住宅,产业园区,产业园区,
116.17100091990825,40.05652930286804,中关村环保科技示范园12号楼,[],北京市,北京市,,商务住宅;产业园区;产业园区,120100,B0G21C8YQ1,商务住宅,产业园区,产业园区,
116.1714892923556,40.0565232100521,中关村环保科技示范园14号楼,[],北京市,北京市,,商务住宅;产业园区;产业园区,120100,B0G21Z6ZRB,商务住宅,产业园区,产业园区,
116.17155843022266,40.05696731275409,中关村环保科技示范园1号楼,[],北京市,北京市,,商务住宅;产业园区;产业园区,120100,B0G2R5IY1O,商务住宅,产业园区,产业园区,
116.17129271656299,40.05671183430347,中关村环保科技示范园13号楼,[],北京市,北京市,,商务住宅;产业园区;产业园区,120100,B0G2RCHY5L,商务住宅,产业园区,产业园区,
116.1729472961751,40.0571638736822,中关村环保科技示范园5号楼,[],北京市,北京市,,商务住宅;产业园区;产业园区,120100,B0G2R5HX91,商务住宅,产业园区,产业园区,
116.1609936289261,40.05666162594379,安朴悅庭公寓,温泉镇北清路阅西山家园5号楼,北京市,北京市,,商务住宅;商务住宅相关;商务住宅相关,120000,B0FFIRWG81,商务住宅,商务住宅相关,商务住宅相关,
116.1722995311745,40.05678569702061,百卓大厦,地锦路5号院3号楼,北京市,北京市,,商务住宅;楼宇;商务写字楼,120201,B0FFF4218R,商务住宅,楼宇,商务写字楼,
116.1609214120993,40.056763485740916,北京安朴怡庭公寓,温泉镇北清路阅西山家园5号楼,北京市,北京市,,商务住宅;商务住宅相关;商务住宅相关,120000,B0FFJ43ZVM,商务住宅,商务住宅相关,商务住宅相关,
116.17228449018351,40.05677666968603,中关村环保科技示范园5号院3号楼,北清路156号中关村环保科技示范园,北京市,北京市,,商务住宅;产业园区;产业园区,120100,B0G21CA0BT,商务住宅,产业园区,产业园区,
116.14658237260578,40.05245382359934,海淀区温泉村温泉公寓,S210(温泉路),北京市,北京市,,商务住宅;商务住宅相关;商务住宅相关,120000,B0FFH1ZQYF,商务住宅,商务住宅相关,商务住宅相关,
116.16728560950317,40.05521845356344,紫雀路55号院6号楼,[],北京市,北京市,,商务住宅;楼宇;商务写字楼,120201,B0G0L5HL3H,商务住宅,楼宇,商务写字楼,
116.1676184977769,40.05563405152571,紫雀路55号院2号楼,[],北京市,北京市,,商务住宅;楼宇;商务写字楼,120201,B0G0GZHCBM,商务住宅,楼宇,商务写字楼,
116.15984040067954,40.05646349463238,阅西山家园,地锦路27号院,北京市,北京市,,商务住宅;住宅区;住宅小区,120302,B0FFFFJI5R,商务住宅,住宅区,住宅小区,
116.16817560969275,40.05928188046182,北京联动原创科研生产楼,文松路与紫雀路交叉口南200米,北京市,北京市,,商务住宅;楼宇;工业大厦建筑物,120202,B0FFG8VRUI,商务住宅,楼宇,工业大厦建筑物,
116.16985368866092,40.05655516744443,中关村环保科技示范园7号院9号楼,[],北京市,北京市,,商务住宅;产业园区;产业园区,120100,B0FFHQ7SZB,商务住宅,产业园区,产业园区,
116.16931516943951,40.056567163530644,中关村环保科技示范园7号院7号楼,中关村环保科技示范园(紫雀路东),北京市,北京市,,商务住宅;产业园区;产业园区,120100,B0FFF83GSG,商务住宅,产业园区,产业园区,
116.16956787771285,40.0565996325483,中关村环保科技示范园7号院8号楼,中关村环保科技示范园地锦路7号院8号,北京市,北京市,,商务住宅;产业园区;产业园区,120100,B0FFF89MMA,商务住宅,产业园区,产业园区,
116.17042630648253,40.05651023574591,中关村环保科技示范园7号院11号楼,中关村环保科技示范园地锦路7号院,北京市,北京市,,商务住宅;产业园区;产业园区,120100,B0FFF8IWUY,商务住宅,产业园区,产业园区,
116.1693702591714,40.057085236329705,中关村环保科技示范园7号院6号楼,温泉镇紫雀路中关村环保科技示范园,北京市,北京市,,商务住宅;产业园区;产业园区,120100,B0FFF7SO1I,商务住宅,产业园区,产业园区,
116.16737463934923,40.05696951936515,中关村环保科技示范园9号院10号楼,[],北京市,北京市,,商务住宅;产业园区;产业园区,120100,B0FFGZEBBH,商务住宅,产业园区,产业园区,
116.16714297699197,40.057028083267355,中关村环保科技示范园9号院11号楼,北清路环保园156号地锦路9号院,北京市,北京市,,商务住宅;产业园区;产业园区,120100,B0FFGY0IBX,商务住宅,产业园区,产业园区,
116.17040715933567,40.05724715762815,中关村环保科技示范园7号院3号楼,[],北京市,北京市,,商务住宅;产业园区;产业园区,120100,B0FFGSDWH6,商务住宅,产业园区,产业园区,
116.16828013410688,40.05747218090269,中关村环保科技示范园9号院1号楼,北清路156号中关村环保科技示范园,北京市,北京市,,商务住宅;产业园区;产业园区,120100,B0FFF87AAZ,商务住宅,产业园区,产业园区,
116.16733144580746,40.057533406093235,中关村环保科技示范园9号院7号楼,[],北京市,北京市,,商务住宅;产业园区;产业园区,120100,B0FFFCST3Q,商务住宅,产业园区,产业园区,
116.16677482424053,40.057909344467355,中关村环保科技示范园9号院4号楼,[],北京市,北京市,,商务住宅;产业园区;产业园区,120100,B0FFF8X48W,商务住宅,产业园区,产业园区,
116.1671368466508,40.05792002018301,中关村环保科技示范园9号院3号楼,北清路156号中关村环保科技示范园,北京市,北京市,,商务住宅;产业园区;产业园区,120100,B0FFF8VN95,商务住宅,产业园区,产业园区,
116.17894571813763,40.04261763717451,白家疃尚品园,叠风路与白家疃路交汇处西南150米,北京市,北京市,,商务住宅;住宅区;住宅小区,120302,B0FFG8VS0E,商务住宅,住宅区,住宅小区,
116.16708502736509,40.047442512100794,首开凯盛家园2区,双坡路附近,北京市,北京市,,商务住宅;住宅区;住宅小区,120302,B0FFFADTBE,商务住宅,住宅区,住宅小区,
116.17894240226573,40.045049501738994,尚峰尚水东区,显龙山路与白家疃路交叉口西南200米,北京市,北京市,,商务住宅;住宅区;住宅小区,120302,B0FFG8VRYR,商务住宅,住宅区,住宅小区,
116.17681443212648,40.04611558955901,尚峰尚水尚峰园,御风路与白家疃西路交叉口东北200米,北京市,北京市,,商务住宅;住宅区;住宅小区,120302,B0FFH9VVZD,商务住宅,住宅区,住宅小区,
116.16806370713405,40.04812030277934,温泉凯盛家园1区,双坡路与显龙山路交叉口西150米,北京市,北京市,,商务住宅;住宅区;住宅小区,120302,B0FFFGZ37Y,商务住宅,住宅区,住宅小区,
116.17675747892865,40.044501572506356,尚峰尚水尚居园,温泉镇白家疃北辰香麓观麓园16号,北京市,北京市,,商务住宅;住宅区;住宅区,120300,B0FFK1HKHF,商务住宅,住宅区,住宅区,
116.18378228610916,39.99049862991268,香山独号院,香山公园,北京市,北京市,香山,商务住宅;住宅区;住宅小区,120302,B0FFFH8Q5D,商务住宅,住宅区,住宅小区,
116.19248015831079,39.99317009793795,香山饭店生活区,煤厂街27号院,北京市,北京市,香山,商务住宅;住宅区;住宅小区,120302,B0FFFW7L14,商务住宅,住宅区,住宅小区,
116.18986669806615,39.992945861970654,煤厂街26号院,煤厂街26号,北京市,北京市,香山,商务住宅;住宅区;住宅小区,120302,B000A81EZ8,商务住宅,住宅区,住宅小区,
116.181527551499,39.996240424796675,壹号院,香山塔后身1号,北京市,北京市,香山,商务住宅;商务住宅相关;商务住宅相关,120000,B0FFM3CRSS,商务住宅,商务住宅相关,商务住宅相关,
116.18945667029082,39.992901186445536,香山公园家属院,煤厂街26号院5楼3门5号,北京市,北京市,香山,商务住宅;住宅区;住宅区,120300,B0FFG74AJ3,商务住宅,住宅区,住宅区,
116.18197552176022,39.99808014003994,西山小院贰号院,碧云寺路(香山公园北侧约100米),北京市,北京市,香山,商务住宅;商务住宅相关;商务住宅相关,120000,B0FFI1YM4R,商务住宅,商务住宅相关,商务住宅相关,
116.18945667544995,39.99286018816223,香山饭店-家属区,枫林路与煤厂街交叉路口往南约100米(煤厂街26号院),北京市,北京市,香山,商务住宅;住宅区;住宅区,120300,B0G3NBPIA6,商务住宅,住宅区,住宅区,
116.18663993213538,39.99715127755108,香山9号院,玉皇百果生态园东南侧30米,北京市,北京市,香山,商务住宅;商务住宅相关;商务住宅相关,120000,B0FFI5AZ8F,商务住宅,商务住宅相关,商务住宅相关,
116.18977504949596,39.99627557127832,香云别苑,碧云寺路与枫林路交叉路口往北约150米,北京市,北京市,香山,商务住宅;商务住宅相关;商务住宅相关,120000,B0FFILKA2D,商务住宅,商务住宅相关,商务住宅相关,
116.19021812198545,39.99659928696131,香山西营甲9号院,碧云寺路与枫林路交叉路口往北约200米,北京市,北京市,香山,商务住宅;住宅区;住宅区,120300,B0GKN46D6T,商务住宅,住宅区,住宅区,
116.1920320941749,39.99288439115942,香山第一社区,碧云寺路184号附近,北京市,北京市,香山,商务住宅;商务住宅相关;商务住宅相关,120000,B0FFJL0FPB,商务住宅,商务住宅相关,商务住宅相关,
116.14552312930326,39.993039843842624,新望京楼,1105瞭望塔,北京市,北京市,,商务住宅;商务住宅相关;商务住宅相关,120000,B0FFI0IJBO,商务住宅,商务住宅相关,商务住宅相关,
116.19257840630173,39.99311025750079,煤厂街27号院,煤厂街27号,北京市,北京市,香山,商务住宅;住宅区;住宅小区,120302,B000AA4O6S,商务住宅,住宅区,住宅小区,
116.19251495138225,39.99549905605199,香山老年公寓D座,碧云寺路北100米,北京市,北京市,香山,商务住宅;楼宇;商务写字楼,120201,B000A9O4B5,商务住宅,楼宇,商务写字楼,
116.19207989126163,39.99543936108112,香山老年公寓C座,碧云寺路北50米,北京市,北京市,香山,商务住宅;楼宇;商务写字楼,120201,B000A9O4DA,商务住宅,楼宇,商务写字楼,
116.17375308808923,39.93390981665776,琳琅庄园,刘娘府路与琅山北路交汇处,北京市,北京市,石景山,商务住宅;住宅区;住宅小区|体育休闲服务;体育休闲服务场所;体育休闲服务场所,120302|080000,B000A7PVZI,商务住宅,住宅区,住宅小区|体育休闲服务,体育休闲服务场所
116.16357332917954,39.926937138831924,金顶街教工楼,金顶北街68号,北京市,北京市,石景山,商务住宅;商务住宅相关;商务住宅相关,120000,B000A81CFM,商务住宅,商务住宅相关,商务住宅相关,
116.16203768157351,39.9294091743906,金隅科技大厦,金顶街街道金顶北路69号,北京市,北京市,金顶街,商务住宅;楼宇;商务写字楼,120201,B000A876YW,商务住宅,楼宇,商务写字楼,
116.1709526732829,39.938563447153726,金府公寓,金府南路89号院4号楼,北京市,北京市,西山,商务住宅;楼宇;商务写字楼,120201,B0GKCZSDWG,商务住宅,楼宇,商务写字楼,
116.17349419704009,39.92730860338224,石景山区苹果园街道苹三社区,苹果园街道,北京市,北京市,石景山,商务住宅;住宅区;住宅小区,120302,B0FFHLM3DT,商务住宅,住宅区,住宅小区,
116.16068310232272,39.92750672918719,枫景园,金顶北路18号院2,北京市,北京市,金顶街,商务住宅;住宅区;住宅小区,120302,B000A878CL,商务住宅,住宅区,住宅小区,
116.18273588903547,39.9317121268079,海特花园(苹果园大街),苹果园大街东侧,北京市,北京市,石景山,商务住宅;住宅区;住宅小区,120302,B000A833RO,商务住宅,住宅区,住宅小区,
116.17255955265188,39.93554854663533,西山奥园,琳琅庄园北侧,北京市,北京市,石景山,商务住宅;住宅区;住宅小区,120302,B0FFFHB43M,商务住宅,住宅区,住宅小区,
116.15831343978824,39.92751233601041,槐满园,金顶北路20号院-6,北京市,北京市,金顶街,商务住宅;住宅区;住宅小区,120302,B000A878T0,商务住宅,住宅区,住宅小区,
116.18646399374643,39.93724036582671,西山汇,中关村科技园区石景山园北2区,北京市,北京市,石景山,商务住宅;产业园区;产业园区,120100,B000A878YC,商务住宅,产业园区,产业园区,
116.17476669418309,39.93558961560737,刘娘府8号院,刘娘府路东50米,北京市,北京市,石景山,商务住宅;住宅区;住宅小区,120302,B0FFG8S2LQ,商务住宅,住宅区,住宅小区,
116.16036349346439,39.92519922840854,金顶阳光,金顶街,北京市,北京市,金顶街,商务住宅;住宅区;住宅小区,120302,B000A877V8,商务住宅,住宅区,住宅小区,
116.15242199443375,39.92806455442846,青年公寓,金顶西街8号,北京市,北京市,金顶街,商务住宅;住宅区;住宅小区,120302,B000A85RZA,商务住宅,住宅区,住宅小区,
116.18012805835323,39.93034055538783,林业楼,苹果园北大街82号正东方向140米,北京市,北京市,石景山,商务住宅;住宅区;住宅小区,120302,B000A8TZVS,商务住宅,住宅区,住宅小区,
116.17065867388443,39.939946846115234,北河沿一号院,刘娘府村永引渠北路西北,北京市,北京市,西山,商务住宅;住宅区;住宅小区,120302,B0FFHINKYF,商务住宅,住宅区,住宅小区,
116.16419969105831,39.93016917876619,金福苑(金顶北街),金顶街,北京市,北京市,石景山,商务住宅;住宅区;住宅小区,120302,B0FFG65BER,商务住宅,住宅区,住宅小区,
116.16683994501315,39.92385236762583,首钢金顶街四区,苹果园南路与金顶东街交叉口西北100米,北京市,北京市,石景山,商务住宅;住宅区;住宅小区,120302,B000A8439Q,商务住宅,住宅区,住宅小区,
116.15937256247246,39.93425102656245,民泰园,模式口大街15附近,北京市,北京市,,商务住宅;住宅区;住宅小区,120302,B0FFL4A44F,商务住宅,住宅区,住宅小区,
116.16253904642653,39.92980709320547,金隅科技创意园,金顶北路与金顶街交叉口北150米,北京市,北京市,金顶街,商务住宅;产业园区;产业园区,120100,B0FFFAE62A,商务住宅,产业园区,产业园区,
116.16534709420944,39.9288893741476,金顶北路9号院,金顶东街与金顶北路交叉口西北100米,北京市,北京市,石景山,商务住宅;住宅区;住宅小区,120302,B0FFF6VDQR,商务住宅,住宅区,住宅小区,
116.17898464582662,39.924830724875775,宏鑫家园,杨庄大街5号院,北京市,北京市,石景山,商务住宅;住宅区;住宅小区,120302,B000A7PC5N,商务住宅,住宅区,住宅小区,
116.18439474276073,39.93601185382349,宏昌商务园,实兴大街9号,北京市,北京市,石景山,商务住宅;楼宇;商务写字楼,120201,B000A878YH,商务住宅,楼宇,商务写字楼,
116.18063805243669,39.93340134411901,诚海大厦,西井路17号,北京市,北京市,石景山,商务住宅;楼宇;商务写字楼,120201,B000A7WD5W,商务住宅,楼宇,商务写字楼,
116.1613646221261,39.93068386958344,金顶北街59号院,金顶北街59号,北京市,北京市,金顶街,商务住宅;住宅区;住宅小区,120302,B000A876YP,商务住宅,住宅区,住宅小区,
116.16235515134919,39.932786631213126,首钢模式口东里小区,金顶北街西100米,北京市,北京市,金顶街,商务住宅;住宅区;住宅小区,120302,B000A8TZKB,商务住宅,住宅区,住宅小区,
116.18284800486313,39.92519358622711,龙德嘉园,苹果园地铁东,北京市,北京市,石景山,商务住宅;住宅区;住宅小区,120302,B000A843BU,商务住宅,住宅区,住宅小区,
116.16613151525188,39.92726090573876,金顶科技楼,金顶东街1号,北京市,北京市,石景山,商务住宅;楼宇;商务写字楼,120201,B0FFG8S2F8,商务住宅,楼宇,商务写字楼,
116.18978809365336,39.924374460248764,鼎城,阜石路165号,北京市,北京市,石景山,商务住宅;楼宇;商住两用楼宇,120203,B000A87CM0,商务住宅,楼宇,商住两用楼宇,
116.16073947759769,39.925791903241134,梧桐园,金顶北路18号院-13,北京市,北京市,金顶街,商务住宅;住宅区;住宅小区,120302,B000A878CI,商务住宅,住宅区,住宅小区,
116.1649154541039,39.93222543395974,首钢模东居民区(金顶北街),模式口东里14号,北京市,北京市,金顶街,商务住宅;住宅区;住宅小区,120302,B000A7QDZV,商务住宅,住宅区,住宅小区,
116.16459480908149,39.930155917504926,金顶山路168号院,金顶北街辅路,北京市,北京市,石景山,商务住宅;住宅区;住宅小区,120302,B0FFL6IWLP,商务住宅,住宅区,住宅小区,
116.18481168994936,39.92922084731748,苹一社区,苹果园街道,北京市,北京市,石景山,商务住宅;住宅区;住宅小区,120302,B0FFHLM1DF,商务住宅,住宅区,住宅小区,
116.15846762111005,39.929500541047815,金顶街赵山小区,金顶北路19号,北京市,北京市,金顶街,商务住宅;住宅区;住宅小区,120302,B0HG5SBUJ9,商务住宅,住宅区,住宅小区,
116.1626216957873,39.92650938003954,金二区居民区,金顶北路14附近,北京市,北京市,金顶街,商务住宅;住宅区;住宅小区,120302,B0FFMF0H8F,商务住宅,住宅区,住宅小区,
116.17826678401252,39.9320271397061,海特金梦园,苹果园地铁站东海特花园内,北京市,北京市,石景山,商务住宅;住宅区;住宅小区,120302,B000AA4HZD,商务住宅,住宅区,住宅小区,
116.16500972297327,39.92427293009601,金顶街三区,金顶街,北京市,北京市,石景山,商务住宅;住宅区;住宅小区,120302,B000A7QDZL,商务住宅,住宅区,住宅小区,
116.18067588582579,39.93554232648345,八大处高科技园区,双园路与实兴西街交叉口东北150米,北京市,北京市,石景山,商务住宅;产业园区;产业园区,120100,B0FFFOHPO7,商务住宅,产业园区,产业园区,
116.16293354323041,39.93469763412024,电厂模式口小区,金顶北街,北京市,北京市,,商务住宅;住宅区;住宅小区,120302,B000A95CKA,商务住宅,住宅区,住宅小区,
116.16919953164802,39.92437575103279,中铁建耀中心,苹果园南路134号,北京市,北京市,石景山,商务住宅;楼宇;商务写字楼,120201,B0HADHBY30,商务住宅,楼宇,商务写字楼,
116.178657678983,39.9333997910632,宏开花园(诚海大厦西),西井路19号院附近,北京市,北京市,石景山,商务住宅;住宅区;住宅小区,120302,B0FFFAEP2O,商务住宅,住宅区,住宅小区,
