lon,lat,name,address,pname,cityname,business_area,type,typecode,id,type1,type2,type3,type4
116.0859257423908,40.09301678098161,北京蓝洁利德环境科技有限公司,苏家坨镇车耳营村78号平房,北京市,北京市,,公司企业;公司;网络科技,170206,B0FFH0M6BJ,公司企业,公司,网络科技,
116.08362044649803,40.094531420605364,证道草堂,北京市海淀区苏家坨车耳营62号,北京市,北京市,,公司企业;公司;公司,170200,B0GKHAYEZQ,公司企业,公司,公司,
116.08447124818512,40.096073000833,陶然园艺设计所,凤凰岭路19号北京凤凰岭自然风景公园,北京市,北京市,,公司企业;公司;广告装饰,170201,B000A9Q1C0,公司企业,公司,广告装饰,
116.0840795649201,40.09358132215841,北京医心和协健康科技有限责任公司,车耳路车耳营养老院,北京市,北京市,,公司企业;公司;公司,170200,B0GRXX9MGS,公司企业,公司,公司,
116.0852359455855,40.0986945564754,车耳营村鲜杏园,凤凰岭路19号-8号平房,北京市,北京市,,公司企业;农林牧渔基地;其它农林牧渔基地,170400,B0FFFADUUW,公司企业,农林牧渔基地,其它农林牧渔基地,
116.09026834642762,40.0807338736815,董师科技发展(北京)有限公司,苏家坨镇七王坟村30-2,北京市,北京市,,公司企业;公司;公司,170200,B0HGMCXETV,公司企业,公司,公司,
116.0904253370934,40.07350933798329,妙应山居,[],北京市,北京市,,公司企业;公司企业;公司企业,170000,B0G3VHEEFB,公司企业,公司企业,公司企业,
116.090098082674,40.07457429599338,北京金山泉水农产品专业合作社,管家岭路,北京市,北京市,,公司企业;公司企业;公司企业,170000,B0FFMDRUMA,公司企业,公司企业,公司企业,
116.08694541630042,40.06570135640861,苏家坨镇林业站护林防火观察点,[],北京市,北京市,,公司企业;公司;公司,170200,B0FFL6SPA2,公司企业,公司,公司,
116.05161946662757,40.03288105066878,北京妙峰紫云生态农业有限公司,妙峰山镇桃园村东沟紫云山庄樱桃采摘园,北京市,北京市,,公司企业;农林牧渔基地;其它农林牧渔基地,170400,B0GUSUM04V,公司企业,农林牧渔基地,其它农林牧渔基地,
116.04372159713519,40.02351372755343,妙峰山趣儿,妙峰山镇桃园村,北京市,北京市,,公司企业;公司;公司,170200,B0G325IFMJ,公司企业,公司,公司,
116.09191992470633,40.050456654692255,北京航空航天大学西山绿化基地,大觉寺路(北京鹫峰国家森林公园),北京市,北京市,,公司企业;农林牧渔基地;其它农林牧渔基地,170400,B0G3T9QO1C,公司企业,农林牧渔基地,其它农林牧渔基地,
116.06309154802403,39.98264465425893,北京市政路桥建材集团门头沟沥青厂,011县道东,北京市,北京市,,公司企业;工厂;工厂,170300,B000A9JU3U,公司企业,工厂,工厂,
116.08369464457682,39.976782633317605,金瀑布,雾兴隆大街80号,北京市,北京市,龙泉,公司企业;公司;公司,170200,B000A8XLIL,公司企业,公司,公司,
116.07702239828282,39.98194092815394,北京恒泰佳业装饰工程有限公司,龙泉镇龙泉雾村西街27号,北京市,北京市,龙泉,公司企业;公司;公司,170200,B0FFKVE0BW,公司企业,公司,公司,
116.07043309412038,39.99152596183618,中国中铁国道109新线高速公路总承包部一工区,龙泉雾镇,北京市,北京市,龙泉,公司企业;公司;公司,170200,B0G3PST7FE,公司企业,公司,公司,
116.07884682252504,39.98141179245165,门头沟龙泉雾特菜种植基地,X011(城子大街),北京市,北京市,龙泉,公司企业;农林牧渔基地;其它农林牧渔基地,170400,B0FFKV4B4W,公司企业,农林牧渔基地,其它农林牧渔基地,
116.08052686290847,39.98558368985109,北京金汇利建筑工程公司,S209(石担路),北京市,北京市,龙泉,公司企业;公司;公司,170200,B0FFL9AIS7,公司企业,公司,公司,
116.08180516666562,39.98158122835727,北京龙城奥通,兴隆街与龙泉雾村横街交叉口东南150米,北京市,北京市,龙泉,公司企业;公司企业;公司企业,170000,B0FFJV76H8,公司企业,公司企业,公司企业,
116.07814858333688,39.99276675050547,龙泉务特菜基地,石担路与龙泉雾村西街交叉口北200米,北京市,北京市,龙泉,公司企业;农林牧渔基地;其它农林牧渔基地,170400,B000A8XK8R,公司企业,农林牧渔基地,其它农林牧渔基地,
116.08361659992762,39.97714264827088,北京荣锋精密工具有限公司,龙泉雾南兴隆街80号,北京市,北京市,龙泉,公司企业;公司;公司,170200,B000A8XL1K,公司企业,公司,公司,
116.049843906813,39.977459723054345,北京智识医学研究有限公司,妙峰山镇陇上科技文化产业园,北京市,北京市,,公司企业;公司;网络科技,170206,B0H6U7T46A,公司企业,公司,网络科技,
116.07644663163971,39.99754067743494,北京花露蝴蝶养殖专业合作社,龙泉务村村北,北京市,北京市,龙泉,公司企业;公司;公司|公司企业;农林牧渔基地;其它农林牧渔基地,170200|170400,B000A8U1XV,公司企业,公司,公司|公司企业,农林牧渔基地
116.0859416836207,39.99279725001033,华彬集团,西六环路(中国石化西南侧约150米),北京市,北京市,军庄镇,公司企业;公司;公司,170200,B0H6GL32HV,公司企业,公司,公司,
116.07832684198621,39.998055416659064,糖糖农场,龙泉雾村香杏路花露蝴蝶园东侧巷子直走河边右转50米,北京市,北京市,龙泉,公司企业;农林牧渔基地;农场,170402,B0FFMGIJ5I,公司企业,农林牧渔基地,农场,
116.0833013550694,39.9713580005362,北京五色土文化用品厂,城子大街附近,北京市,北京市,龙泉,公司企业;公司;冶金化工,170205,B0FFL50LZ4,公司企业,公司,冶金化工,
116.07894028212179,39.969860199657084,琉璃渠北厂,琉璃渠后街125号,北京市,北京市,,公司企业;工厂;工厂,170300,B0FFGLQK4S,公司企业,工厂,工厂,
116.08379863799331,39.969051902312486,北京大云广业,琉璃渠后街156号,北京市,北京市,龙泉,公司企业;公司;公司,170200,B0H6LZETEE,公司企业,公司,公司,
116.085930320503,39.99560613516792,北京力超金属结构有限公司,军庄镇军庄村109国道西50米,北京市,北京市,军庄镇,公司企业;公司;公司,170200,B0FFHBC8CL,公司企业,公司,公司,
116.08742239636442,39.9967767256469,北京国汇鸿乐科技发展有限公司,军庄村南坡2号,北京市,北京市,军庄镇,公司企业;公司;公司,170200,B000A9SU60,公司企业,公司,公司,
116.04538871403167,39.97112457464338,北京红景天公司,水韭路(妙峰山民族学校东南侧约250米),北京市,北京市,,公司企业;公司;公司,170200,B0FFL69O94,公司企业,公司,公司,
116.04309125183504,39.97481115097273,北京妙峰谷香园食品厂,妙峰山陇驾庄村3号2幢,北京市,北京市,,公司企业;工厂;工厂,170300,B0H67H2RBR,公司企业,工厂,工厂,
116.04931580978197,39.97054597926357,柿利康工厂,水峪嘴村,北京市,北京市,,公司企业;工厂;工厂,170300,B0FFI0T7BB,公司企业,工厂,工厂,
116.08477183660357,39.967617620008625,北京市琉璃制品厂,琉璃渠大街3号附近,北京市,北京市,龙泉,公司企业;工厂;工厂,170300,B0FFGOQERF,公司企业,工厂,工厂,
116.04453017808275,39.97408119913325,北京市兴华电器厂,水峪嘴桥北(妙峰山镇人民政府附近),北京市,北京市,,公司企业;公司;冶金化工,170205,B0FFH17A3C,公司企业,公司,冶金化工,
116.08174654958304,39.96312999013671,北京大云广业总部基地,龙泉镇林美宾馆附近,北京市,北京市,龙泉,公司企业;公司企业;公司企业,170000,B0FFLQEE1B,公司企业,公司企业,公司企业,
116.04454024199065,39.9967812442781,中国中铁国道109高速公路总包部二工区,[],北京市,北京市,,公司企业;公司;公司,170200,B0HABHPMXT,公司企业,公司,公司,
116.04458327555173,39.972425156818026,北京京西妙峰商贸有限责任公司,妙峰山镇陇驾庄村小前街1号,北京市,北京市,,公司企业;公司;商业贸易,170207,B0HGHZ72GD,公司企业,公司,商业贸易,
116.04450330922722,39.99688131557447,中国中铁中国中铁国道109高速公路二工区,[],北京市,北京市,,公司企业;公司;公司,170200,B0HABHPUDL,公司企业,公司,公司,
116.08479283789396,39.96761461327967,北京明珠玻璃制品有限公司,龙泉琉璃渠大街3号,北京市,北京市,龙泉,公司企业;公司;公司,170200,B000A88923,公司企业,公司,公司,
116.06813028795992,39.93532855848378,北京京能京西房地产开发有限公司,东辛房街道门头沟路47号,北京市,北京市,东辛房村,公司企业;公司;公司,170200,B0G2UC55HD,公司企业,公司,公司,
116.06961423133234,39.94121977908144,石泉砖厂A5区,龙门新区A5小区,北京市,北京市,东辛房村,公司企业;公司;冶金化工,170205,B0FFMBV37O,公司企业,公司,冶金化工,
116.06934387701064,39.930183493774514,西辛房村绿色生态涵养修复基地,龙泉镇西辛房村,北京市,北京市,龙泉,公司企业;公司企业;公司企业,170000,B0HGUSGI83,公司企业,公司企业,公司企业,
116.09130808210459,39.93846558203558,北大医院医疗集团,黑山大街18号,北京市,北京市,大峪村,公司企业;公司;公司,170200,B000A8XLX8,公司企业,公司,公司,
116.07706228261812,39.93608271607542,北京潭柘紫石砚有限公司,增产路166号(潭柘紫石砚厂制作室),北京市,北京市,东辛房村,公司企业;公司;公司,170200,B0FFGI882R,公司企业,公司,公司,
116.07670897836338,39.93958681776862,北京恒勤达苗木中心,门头沟路76号院,北京市,北京市,东辛房村,公司企业;农林牧渔基地;其它农林牧渔基地,170400,B000A9SN9O,公司企业,农林牧渔基地,其它农林牧渔基地,
116.06964102110001,39.94268169427479,龙门石泉砖厂,13号楼5单元303,北京市,北京市,龙泉,公司企业;工厂;工厂,170300,B0FFGJ0KXU,公司企业,工厂,工厂,
116.07714724559234,39.93610565807273,国砚艺术品(北京)有限公司,增产路166号,北京市,北京市,东辛房村,公司企业;公司;公司,170200,B0FFF06B3T,公司企业,公司,公司,
116.07826972961043,39.93692290189924,鑫源聚鑫丰农副产品市场有限公司,东辛房东街与矿建街交叉口西北100米,北京市,北京市,门头沟,公司企业;公司;公司,170200,B0FFJH5TDX,公司企业,公司,公司,
116.07662551595037,39.927900343106494,北京柏宇环保科技有限公司,中门家园5号楼1101,北京市,北京市,门头沟,公司企业;公司;公司,170200,B0GRBHFBSW,公司企业,公司,公司,
116.08149795780713,39.93689813850713,北京中门清泉矿泉水厂,增产南路,北京市,北京市,门头沟,公司企业;工厂;工厂,170300,B0FFMH7QJI,公司企业,工厂,工厂,
116.08001631806923,39.928498226482134,北京锋必达矿山机械有限公司,中门寺街69号,北京市,北京市,门头沟,公司企业;公司;机械电子,170204,B000A85SGF,公司企业,公司,机械电子,
116.07988132477688,39.928694291949526,新发展艺术工场,中门寺69号,北京市,北京市,门头沟,公司企业;工厂;工厂,170300,B0H6HZG36Y,公司企业,工厂,工厂,
116.08647694166942,39.93690533613442,北京地人星餐飲有限公司,大峪街道黑山西街5號院9號樓106號,北京市,北京市,龙泉,公司企业;公司;公司,170200,B0FFHQYKAC,公司企业,公司,公司,
116.07785816918427,39.926827565902656,北京斋城建筑工程有限公司,中门寺观景台,北京市,北京市,门头沟,公司企业;公司;公司,170200,B0FFLNA5O1,公司企业,公司,公司,
116.07776624878571,39.926465639429914,北京进万丰建筑工程有限公司,中门寺观景台,北京市,北京市,门头沟,公司企业;公司;建筑公司,170202,B0G2GHMUYY,公司企业,公司,建筑公司,
116.08387083649495,39.936400160752804,北京鑫华源,中门寺街11号,北京市,北京市,门头沟,公司企业;公司;公司,170200,B0FFL4YVX4,公司企业,公司,公司,
116.08290648325301,39.93942941540819,广告制作,中门寺街5号院附近,北京市,北京市,门头沟,公司企业;公司;广告装饰,170201,B0FFL6D85J,公司企业,公司,广告装饰,
116.05494118209124,39.92809079886609,北京公交客四分公司第十一车队,门头沟路与九龙路交叉路口东南侧,北京市,北京市,门头沟,公司企业;公司;公司,170200,B0FFLC7HTU,公司企业,公司,公司,
116.08972098061949,39.9424735372612,北京渝城居餐饮有限公司,门头沟路11号院2号楼3-07,北京市,北京市,门头沟,公司企业;公司;公司,170200,B0FFKHMF96,公司企业,公司,公司,
116.0838437159727,39.93734013336608,门城物业,东辛房东街与增产路交叉口南100米,北京市,北京市,门头沟,公司企业;公司;公司,170200,B0FFGJQMKM,公司企业,公司,公司,
116.0587812905831,39.92783281647487,北京市政路桥门头沟采空棚户区黑一路西延道路工程一标段项目经理部,滑石道,北京市,北京市,门头沟,公司企业;公司;公司,170200,B0FFL7DS9E,公司企业,公司,公司,
116.08044237012079,39.94292442512683,门头沟石油公司,耿王路与门头沟北路交叉口东北100米,北京市,北京市,龙泉,公司企业;公司;公司,170200,B000A7PZVG,公司企业,公司,公司,
116.08210582155696,39.937347840962886,北京鸿运帅志土石方工程有限公司,东辛房东街与增产南路交叉口东100米,北京市,北京市,门头沟,公司企业;公司企业;公司企业,170000,B0FFKEGNDX,公司企业,公司企业,公司企业,
116.08154808053425,39.943665847018636,石泉砖厂B4区,增北路与福泰路交叉路口向南约100米(龙门新区),北京市,北京市,龙泉,公司企业;公司;冶金化工,170205,B0FFL8NLQP,公司企业,公司,冶金化工,
116.07983933298486,39.928709314339,北京新发展互联网文化创意产业管理有限公司,中门寺69号,北京市,北京市,门头沟,公司企业;公司;公司,170200,B0H6HZGQ33,公司企业,公司,公司,
116.08392479750674,39.936700129082006,北京市京西林场,中门寺街7号,北京市,北京市,门头沟,公司企业;公司企业;公司企业,170000,B0FFI17KQL,公司企业,公司企业,公司企业,
116.09008503685966,39.93520178941613,两个庆火锅公司,黑山大街大峪一小幼儿园斜对面,北京市,北京市,门头沟,公司企业;公司;公司,170200,B0FFM5BQYE,公司企业,公司,公司,
116.087781658557,39.90976216012709,北京双吉制药有限公司,永定镇冯村,北京市,北京市,永定,公司企业;公司;医药公司,170203,B000A7QEO7,公司企业,公司,医药公司,
116.08445560618543,39.9382248812962,英丽娜制衣厂,东辛房东街与增产路交叉口东北50米,北京市,北京市,门头沟,公司企业;工厂;工厂,170300,B0FFHCO7BH,公司企业,工厂,工厂,
116.08048438317648,39.942755409932275,中国石化(北京门头沟石油分公司),建设街29号,北京市,北京市,龙泉,公司企业;公司;公司,170200,B0FFLKI6GV,公司企业,公司,公司,
116.08916744231989,39.93754879771224,德恩国际,惠民家园二区29号102-2三层,北京市,北京市,门头沟,公司企业;公司;公司,170200,B0G0U5OFR6,公司企业,公司,公司,
116.08316987422114,39.93626943429459,北京鑫华源机械制造有限责任公司新总部,中门寺街13号,北京市,北京市,门头沟,公司企业;公司企业;公司企业,170000,B0FFK6O141,公司企业,公司企业,公司企业,
116.08758878438056,39.93961597773853,绿海物业,增产路19附近,北京市,北京市,门头沟,公司企业;公司;公司,170200,B0FFJHB00X,公司企业,公司,公司,
116.08486392280446,39.935874839223395,北京多乐淘教育咨询有限公司,黑山西街5号院丽湾西园11号楼2层,北京市,北京市,大峪村,公司企业;公司;公司,170200,B0FFHH7VRV,公司企业,公司,公司,
116.08613217941469,39.94248720423202,昊泰地产,门头沟路30号,北京市,北京市,门头沟,公司企业;公司;建筑公司,170202,B000AA1FH9,公司企业,公司,建筑公司,
116.08486108651188,39.942380582422935,北京京能建设集团有限公司,门头沟路36号,北京市,北京市,门头沟,公司企业;公司;建筑公司,170202,B0FFKKC8B8,公司企业,公司,建筑公司,
116.08952749548345,39.93798573609328,北京京煤集团,黑山大街20号附近,北京市,北京市,大峪村,公司企业;公司;公司,170200,B0G3ACFTBR,公司企业,公司,公司,
116.08930050768339,39.93734778865349,北京宏浩康第一分公司,惠民家园二区29-102-6,北京市,北京市,门头沟,公司企业;公司企业;公司企业,170000,B0FFL333VP,公司企业,公司企业,公司企业,
116.08923747559562,39.9374507925377,北京北方华蒙商贸有限公司,惠民家园二区29-102-4,北京市,北京市,门头沟,公司企业;公司;公司,170200,B0FFLASF59,公司企业,公司,公司,
116.04631584323188,39.931506293274865,北京华泰利康门窗有限公司,九龙驾校院内科二考场南侧,北京市,北京市,,公司企业;公司企业;公司企业,170000,B0FFK5PHPI,公司企业,公司企业,公司企业,
116.08724430381105,39.942835922439436,北京晟诚通达咨询有限公司,门头沟路24号院内6号小白楼2层,北京市,北京市,龙泉,公司企业;公司;公司,170200,B0H6FR44LN,公司企业,公司,公司,
116.08722870936788,39.93965805131017,京煤集团有限责任公司企业管理中心,黑山北小街13号附近,北京市,北京市,门头沟,公司企业;公司;公司,170200,B0GR7CHV48,公司企业,公司,公司,
116.09056519773273,39.943074439382535,晟诺广告,门头沟路门头沟博物馆中昂小时代3号楼,北京市,北京市,门头沟,公司企业;公司;广告装饰,170201,B0FFL05NAY,公司企业,公司,广告装饰,
116.09073648759535,39.94132149727125,北京迪摩嘟科技有限公司,增产路24号附近,北京市,北京市,门头沟,公司企业;公司;公司,170200,B0FFMENU0C,公司企业,公司,公司,
116.09101623797795,39.93632967936833,南方特艺装饰,黑山东街42号1层2号,北京市,北京市,门头沟,公司企业;公司;广告装饰,170201,B0FFG8FNZP,公司企业,公司,广告装饰,
116.09083251131463,39.941424487475814,北京昭福君安科贸有限公司,增产路22-4号附近,北京市,北京市,龙泉,公司企业;公司;公司,170200,B0FFMC0EIZ,公司企业,公司,公司,
116.08936183331396,39.942740567828736,北京摇一摇艺术文化有限公司,门头沟路11号院6号楼11层1106室,北京市,北京市,门头沟,公司企业;公司;公司,170200,B0G146AG8T,公司企业,公司,公司,
116.0819277497542,39.94584658539488,京能集团北京市华源热力管网有限公司(门头沟分公司),城子大街二斜井5号楼,北京市,北京市,龙泉,公司企业;公司;公司,170200,B0FFJSZSIZ,公司企业,公司,公司,
116.08782637275712,39.94320778944887,中合联宇房地产开发有限公司,门头沟路24号2幢,北京市,北京市,门头沟,公司企业;公司;公司,170200,B0FFIJ311M,公司企业,公司,公司,
116.089593526018,39.94569242449971,北京洁蕊环保科技有限公司,车站街79号楼,北京市,北京市,龙泉,公司企业;公司;公司,170200,B0GUXOB3LM,公司企业,公司,公司,
116.07908262383849,39.928003770895785,华诺维科技发展有限公司生产基地,大峪南路与305乡道交叉口东北200米,北京市,北京市,门头沟,公司企业;公司;网络科技,170206,B000A8873H,公司企业,公司,网络科技,
116.09117443004459,39.92754302417143,西山意境物业管理中心,高家园路(西山艺境),北京市,北京市,门头沟,公司企业;公司;公司,170200,B0FFGIXLB2,公司企业,公司,公司,
116.08920433691087,39.938453757029,北京市保安服务总公司门头沟分公司,黑山大街15号楼附近,北京市,北京市,门头沟,公司企业;公司;公司,170200,B0FFI1O1GH,公司企业,公司,公司,
116.0910543141777,39.93585469639895,北京伊岚国际商贸有限公司门头沟分公司,黑山东街13号1幢1层13-6-1号,北京市,北京市,门头沟,公司企业;公司;公司,170200,B0H6RA6CQ3,公司企业,公司,公司,
116.08962714364588,39.940969606786034,北京大云广业技术服务有限公司,增产路45号附近,北京市,北京市,门头沟,公司企业;公司;公司,170200,B0FFFAEO7P,公司企业,公司,公司,
116.0899999221418,39.951431157451196,住总集团,城子西街43号楼,北京市,北京市,门头沟,公司企业;公司;公司,170200,B0FFLC38Q0,公司企业,公司,公司,
116.07295171837936,39.91048791783597,龙口灰场,[],北京市,北京市,,公司企业;公司企业;公司企业,170000,B0FFKRKDEQ,公司企业,公司企业,公司企业,
116.0890811940053,39.95484612879774,北京顺成达兴商贸中心,和平路33号,北京市,北京市,门头沟,公司企业;公司;商业贸易,170207,B0FFHJ4QWQ,公司企业,公司,商业贸易,
116.08381197515224,39.91197018178239,北京公共交通控股(集团)有限公司客八分公司第八车队,石龙西路附近,北京市,北京市,,公司企业;公司;公司,170200,B0FFL5V9LG,公司企业,公司,公司,
116.08780859779206,39.88689317954037,北京博艺涵科技发展有限责任公司,石门营石厂村村委会西院旁边,北京市,北京市,,公司企业;公司;网络科技,170206,B0FFFABV60,公司企业,公司,网络科技,
116.08531043706587,39.908720816436144,北京真格文具有限公司,雅安路1172号,北京市,北京市,,公司企业;公司;公司,170200,B000A7V1VL,公司企业,公司,公司,
116.08407739985606,39.90865022675914,北京市门头沟区西峰寺林场,西峰寺林场,北京市,北京市,,公司企业;农林牧渔基地;其它农林牧渔基地,170400,B0FFHC507R,公司企业,农林牧渔基地,其它农林牧渔基地,
116.08868009402431,39.90804807850432,北京华谷减振器设备有限公司(西北环线),永定镇冯村宝林寺,北京市,北京市,永定,公司企业;公司;公司,170200,B000A7PDHT,公司企业,公司,公司,
116.08864699005929,39.90879005174029,北京惠鑫通达重型电机修理厂,冯村冯西园,北京市,北京市,永定,公司企业;工厂;工厂,170300,B000A7PG1Z,公司企业,工厂,工厂,
116.1178764020969,40.120170369947104,北京利德华福电气技术有限公司,阳坊工业南区,北京市,北京市,阳坊村,公司企业;公司;机械电子,170204,B000A7PUSD,公司企业,公司,机械电子,
116.1329776630809,40.14260610616019,中交一公局第一工程有限公司,阳坊镇阳坊村中心北街5号,北京市,北京市,,公司企业;公司;公司,170200,B000A88102,公司企业,公司,公司,
116.13229272147726,40.13757361550483,阳坊胜利涮羊肉(旗舰店),阳坊镇中心街-12-号阳坊胜利饭店,北京市,北京市,,公司企业;公司;公司,170200,B0FFJH0MW2,公司企业,公司,公司,
116.13221651740632,40.1377934841069,北京万事食品有限公司,阳坊镇中心街10号西北方向110米,北京市,北京市,,公司企业;公司;公司,170200,B000A9Q2NR,公司企业,公司,公司,
116.11591123893788,40.11845659001274,建工华创,阳坊镇阳坊工业园南区,北京市,北京市,,公司企业;公司;公司,170200,B000A9Q2DY,公司企业,公司,公司,
116.12037298865498,40.127562344420994,北京欧浪雅服装有限公司,阳坊镇后白虎涧村东小桥北,北京市,北京市,阳坊村,公司企业;公司;公司,170200,B0FFHIKWYM,公司企业,公司,公司,
116.11836753822526,40.1258783624906,中讯源仓库,[],北京市,北京市,阳坊村,公司企业;公司;公司,170200,B0GKKUXEBT,公司企业,公司,公司,
116.11329384098681,40.1274334275915,机趣科技(北京)有限公司·总部基地,阳坊镇后白虎涧平安大街125号,北京市,北京市,阳坊村,公司企业;公司;公司,170200,B0FFLJ32SJ,公司企业,公司,公司,
116.10951703868272,40.12933628418862,北京市昌扬西山养殖场,摩崖石刻旁边,北京市,北京市,,公司企业;农林牧渔基地;其它农林牧渔基地,170400,B0FFI9E45C,公司企业,农林牧渔基地,其它农林牧渔基地,
116.12057644097706,40.1270126190191,北京白虎涧西山花岗石厂,阳坊镇后白虎涧村西,北京市,北京市,阳坊村,公司企业;工厂;工厂,170300,B0FFFT95WB,公司企业,工厂,工厂,
116.11804279574056,40.11939960679712,北京利龄恒泰药业有限公司,阳坊镇前白虎涧,北京市,北京市,,公司企业;公司;公司,170200,B000A8Y9IX,公司企业,公司,公司,
116.11842668817302,40.12553545478196,北京金博盛科技发展有限公司,阳坊镇后白虎涧村888号,北京市,北京市,阳坊村,公司企业;公司;公司,170200,B0G0XU0YUO,公司企业,公司,公司,
116.11841657441909,40.126277376744326,北京中成石英玻璃制品有限责任公司,阳坊镇后白虎涧26号,北京市,北京市,阳坊村,公司企业;公司;公司,170200,B000ABCMHB,公司企业,公司,公司,
116.10475375804974,40.12364683631938,北京中控山庄农业观光有限公司,阳坊镇前白虎涧村后二路,北京市,北京市,,体育休闲服务;度假疗养场所;度假村|公司企业;公司;公司,080401|170200,B0FFF3TNQL,体育休闲服务,度假疗养场所,度假村|公司企业,公司
116.11847624134293,40.121932829571236,北京市康而富商贸中心,前后路与聂各庄路交叉路口往西北约100米,北京市,北京市,阳坊村,公司企业;公司;商业贸易,170207,B0FFLATQ52,公司企业,公司,商业贸易,
116.11927549578132,40.12341053611094,新汉电脑有限公司,阳坊镇工业南区恒立铭综合楼3层,北京市,北京市,阳坊村,公司企业;公司;公司,170200,B0FFIDQ4PQ,公司企业,公司,公司,
116.1115743016197,40.12685806404281,北京科丰益源科技有限公司昌平分公司,阳坊镇后白虎涧村梨园巷100号,北京市,北京市,阳坊村,公司企业;工厂;工厂,170300,B0GRC7CN7G,公司企业,工厂,工厂,
116.11058181343145,40.127192265450404,北京市昌平区后白虎涧京白梨种植专业合作社,后二路,北京市,北京市,阳坊村,公司企业;农林牧渔基地;其它农林牧渔基地,170400,B0FFM71S2O,公司企业,农林牧渔基地,其它农林牧渔基地,
116.12023636221335,40.12268363680777,北京拓普集团,白虎涧路,北京市,北京市,阳坊村,公司企业;公司企业;公司企业,170000,B0GDTAYYXO,公司企业,公司企业,公司企业,
116.11923340316015,40.12353348041195,北京兰光精密机电有限公司,南下河路南100米,北京市,北京市,阳坊村,公司企业;公司企业;公司企业,170000,B0FFKBF17R,公司企业,公司企业,公司企业,
116.12086258540093,40.122317360613344,北京恒立铭,阳坊镇工业南区阳昊东路临2号,北京市,北京市,阳坊村,公司企业;公司;公司,170200,B0FFF6WGTE,公司企业,公司,公司,
116.12001613706138,40.121251523862234,北京翰林航宇科技发展股份公司,北京市昌平区科技园区兴阳一路9号院2号,北京市,北京市,阳坊村,公司企业;公司;网络科技,170206,B0H6S503NW,公司企业,公司,网络科技,
116.13215914712737,40.13964521826531,北京鼎盛华威科技有限公司,温南路与阳坊村西大街交叉路口往南约150米,北京市,北京市,,公司企业;公司;公司,170200,B0FFMBPQ9D,公司企业,公司,公司,
116.13185356922466,40.13089562695284,北京远大复盛机械有限公司,佛山福路与沙阳路交叉口东150米,北京市,北京市,阳坊村,公司企业;公司企业;公司企业,170000,B0FFGZ61XK,公司企业,公司企业,公司企业,
116.11835932940392,40.119627911717316,施耐德电气,光阳一路11正西方向150米,北京市,北京市,阳坊村,公司企业;公司;公司,170200,B0FFJ20PW2,公司企业,公司,公司,
116.12988447388844,40.12810712002926,北京天路恒基市政工程有限公司,阳坊镇京密引水渠东侧新天路,北京市,北京市,阳坊村,公司企业;公司企业;公司企业,170000,B0FFKE6WFR,公司企业,公司企业,公司企业,
116.11927572626013,40.121625695346474,翰林精工,阳坊镇工业南区,北京市,北京市,阳坊村,公司企业;公司;公司,170200,B0FFH9CWW7,公司企业,公司,公司,
116.10377561704723,40.1240143043077,北京市花岗石厂,花岗石厂(后二路北),北京市,北京市,,公司企业;工厂;工厂,170300,B000A7PD20,公司企业,工厂,工厂,
116.13049061017847,40.153149449288044,清华阳光,温南路518号附近,北京市,北京市,,购物服务;家居建材市场;厨卫市场|公司企业;公司;公司,060604|170200,B000A85ZTO,购物服务,家居建材市场,厨卫市场|公司企业,公司
116.13483168909163,40.13751735987153,飞翔广告,[],北京市,北京市,阳坊村,公司企业;公司;广告装饰,170201,B0G3L1J7IO,公司企业,公司,广告装饰,
116.12085884164657,40.12027353702869,永聊华业,前后路(北京利德华福电气技术有限公司东侧约100米),北京市,北京市,阳坊村,公司企业;公司;公司,170200,B0G3Z7SYSP,公司企业,公司,公司,
116.10465365850521,40.12353379364561,北京中控服务站,后二路南50米,北京市,北京市,,公司企业;公司;公司,170200,B0FFKTJMYJ,公司企业,公司,公司,
116.13576694282663,40.13744278284706,老毕室内外装修设计,[],北京市,北京市,阳坊,公司企业;公司;广告装饰,170201,B0G3L1ICZY,公司企业,公司,广告装饰,
116.12070868983749,40.127012765374154,北京玉海雕刻艺术有限公司,北安河路东50米,北京市,北京市,阳坊村,公司企业;公司;公司,170200,B000A7R5F6,公司企业,公司,公司,
116.12004732122128,40.12027164403364,永联伟业,光阳一路11号院,北京市,北京市,阳坊村,公司企业;公司;公司,170200,B0FFI17ELK,公司企业,公司,公司,
116.13730173403928,40.13701719034209,宇宏兴顺装饰有限公司,[],北京市,北京市,阳坊,公司企业;公司;公司,170200,B0G0OHUDR5,公司企业,公司,公司,
116.13437478711081,40.13607681646257,北京西贯市金象大药房有限公司,阳坊镇阳坊村,北京市,北京市,阳坊,公司企业;公司企业;公司企业,170000,B0FFJD0PKY,公司企业,公司企业,公司企业,
116.11699739369817,40.116088843773525,邦泰软通,阳坊镇极东未来产业园双创社区新业一楼三层3053号,北京市,北京市,,公司企业;公司;网络科技,170206,B0FFLKR24P,公司企业,公司,网络科技,
116.11825584101348,40.12198459755681,北京康而福药业有限责任公司,阳坊镇后二路北京新东方学校西北,北京市,北京市,阳坊村,公司企业;公司;医药公司,170203,B000A9Q353,公司企业,公司,医药公司,
116.11578914910805,40.117566551509086,航天电子,阳坊镇前后路建工华创南,北京市,北京市,,公司企业;公司;机械电子,170204,B0FFHUILRH,公司企业,公司,机械电子,
116.13694367903867,40.13839949787637,五得利面粉仓库,阳坊镇市场内,北京市,北京市,阳坊,公司企业;公司;公司,170200,B0FFGIVRD0,公司企业,公司,公司,
116.09413065869909,40.12315157401765,北京修成药业有限公司,阳坊镇前白虎涧村,北京市,北京市,,公司企业;公司;医药公司,170203,B0FFIG4F54,公司企业,公司,医药公司,
116.13512197405237,40.132914242479146,中国电影出版社印刷厂北京昌平分厂,温南路(回家乐乡村酒店南侧约250米),北京市,北京市,阳坊村,公司企业;公司;冶金化工,170205,B0FFL50JU6,公司企业,公司,冶金化工,
116.11675999163444,40.11603761516975,北京中圣煌通科技有限公司,阳坊镇极东未来产业园新业一楼四层4035,北京市,北京市,,公司企业;公司;网络科技,170206,B0FFM9CLKI,公司企业,公司,网络科技,
116.13142419912937,40.118351147883374,北京加创志发科技有限公司,苏家坨镇,北京市,北京市,,公司企业;公司;网络科技,170206,B0FFFT5N70,公司企业,公司,网络科技,
116.10601258151175,40.12098377162927,北京前白虎涧燕山花岗石厂,阳坊镇前白虎涧后二路南350米,北京市,北京市,,公司企业;工厂;工厂,170300,B000A01C27,公司企业,工厂,工厂,
116.12017370659544,40.11910488373361,北京万泰利克药业有限公司,阳坊镇建业二路10号院,北京市,北京市,,公司企业;公司;医药公司,170203,B0FFKO6KRP,公司企业,公司,医药公司,
116.12051404927479,40.121383057213784,北京苏试创博环境可靠性技术有限公司试验二区,科技园区兴阳一路9号院2号,北京市,北京市,阳坊村,公司企业;公司;公司,170200,B0H6Y66AD9,公司企业,公司,公司,
116.11789853307879,40.11945745481059,北京利龄恒泰药业有限公司工会,[],北京市,北京市,阳坊村,公司企业;公司企业;公司企业,170000,B0G33HXD8W,公司企业,公司企业,公司企业,
116.12042361380928,40.11568545197202,奥天奇科技,阳坊镇昌平科技园区阳坊开发区南区甲8号,北京市,北京市,,公司企业;公司;网络科技,170206,B000A9V2WX,公司企业,公司,网络科技,
116.11569083794384,40.11870536034463,北京建华控制开关有限公司,阳坊镇工业开发区南区前白虎涧村口,北京市,北京市,,公司企业;公司企业;公司企业,170000,B0FFIVJYHZ,公司企业,公司企业,公司企业,
116.10446661283096,40.12224781092999,北京东晟先创科技发展有限公司,阳坊镇白虎涧风景区666号东盛科技,北京市,北京市,,公司企业;公司;公司,170200,B0FFMCTNF1,公司企业,公司,公司,
116.13725287670256,40.14276154138913,北京贝天市政工程有限公司,阳坊镇阳坊村,北京市,北京市,阳坊村,公司企业;公司;建筑公司,170202,B0G3ML28LB,公司企业,公司,建筑公司,
116.10422941906742,40.12168773888327,北京艾微佳生物技术有限公司,阳坊镇前白虎涧,北京市,北京市,,公司企业;公司;公司,170200,B0FFJF15AX,公司企业,公司,公司,
116.1385004743196,40.13875390261411,北京丽月晴朗商贸有限公司,西贯市村北街与阳坊村西大街交叉口西北50米,北京市,北京市,阳坊,公司企业;公司;公司,170200,B0FFI8D8KU,公司企业,公司,公司,
116.11663871124411,40.116600448771045,三奇浩普有限公司,[],北京市,北京市,,公司企业;公司企业;公司企业,170000,B0FFK8BLXY,公司企业,公司企业,公司企业,
116.1037626029607,40.12401329801837,北京九城建筑装饰有限责任公司,后二路北50米,北京市,北京市,,公司企业;公司;建筑公司,170202,B000A8XQYP,公司企业,公司,建筑公司,
116.11730596320068,40.11582017239368,北京炫群科技有限公司,极东未来产业园南区374,北京市,北京市,,公司企业;公司;公司,170200,B0FFLA67U9,公司企业,公司,公司,
116.11707251565592,40.11614991268289,北京天地通木箱包装厂,[],北京市,北京市,,公司企业;公司;冶金化工,170205,B0G33KTFH3,公司企业,公司,冶金化工,
116.139524094794,40.13828258090555,华北最大商显触摸加工基地,东河滩街与裕成街交叉口西50米,北京市,北京市,阳坊,公司企业;公司企业;公司企业,170000,B0FFKKZ7V3,公司企业,公司企业,公司企业,
116.10185519191597,40.119548833198095,丰华热镀锌,阳坊镇白虎涧村后二路,北京市,北京市,,公司企业;公司;公司,170200,B0GKDCTHHX,公司企业,公司,公司,
116.11324452629272,40.11377958714023,Touch假日牧场,梁家园路288号,北京市,北京市,,公司企业;农林牧渔基地;其它农林牧渔基地,170400,B0FFFYO4C8,公司企业,农林牧渔基地,其它农林牧渔基地,
116.14049879814314,40.136401338613524,北京伊光圣火商贸有限公司,阳坊镇西贯市村巨鼎风云药店隔壁,北京市,北京市,阳坊村,公司企业;公司;公司,170200,B0FFGBHG67,公司企业,公司,公司,
116.12021021454558,40.115690217640825,北京中凯电气有限公司,阳坊镇昌平科技园区阳坊开发区南区甲8号,北京市,北京市,,公司企业;公司;公司,170200,B0FFHZQ8VP,公司企业,公司,公司,
116.14204610982327,40.13362014200405,北京鑫辰泽科技有限公司,阳东路西50米,北京市,北京市,阳坊村,公司企业;公司;公司,170200,B0FFLEKL11,公司企业,公司,公司,
116.11723377480067,40.116308058938024,北京森克商显科技有限公司,北京市昌平区阳坊镇极东产业园双创社区四楼,北京市,北京市,,公司企业;公司;公司,170200,B0FFMF779W,公司企业,公司,公司,
116.1167650073331,40.115982624764385,北京易首达科技有限公司,[],北京市,北京市,,公司企业;公司企业;公司企业,170000,B0FFKE5HDW,公司企业,公司企业,公司企业,
116.12838836258702,40.157744068517545,中科中自,温南路东50米,北京市,北京市,,公司企业;公司;公司,170200,B000A8XLWE,公司企业,公司,公司,
116.11713566868569,40.11581100406022,北京集特智能科技有限公司,阳坊镇极东未来产业园新业一楼三层3067号,北京市,北京市,,公司企业;公司;公司,170200,B0HB7X3IVK,公司企业,公司,公司,
116.11717173222692,40.11580304046988,北京力源兴达科技有限公司,极东未来产业园双创社区南区1号楼2层,北京市,北京市,,公司企业;公司;公司,170200,B0G2AK3T1K,公司企业,公司,公司,
116.1172357813797,40.116284062983134,北京森克触控科技有限公司,北京市昌平区阳坊镇前白虎涧极东产业园双创社区四楼,北京市,北京市,,公司企业;公司企业;公司企业,170000,B0FFMFILQ3,公司企业,公司企业,公司企业,
116.14216420919495,40.1352181834982,北京珊琳装饰装修有限公司,阳坊镇回民幼儿园向南一百米,北京市,北京市,阳坊村,公司企业;公司;广告装饰,170201,B0FFKZXHTM,公司企业,公司,广告装饰,
116.09960472041858,40.12242175562575,北京后花园开心农场,后二路(北京后花园东南侧约100米),北京市,北京市,,公司企业;农林牧渔基地;其它农林牧渔基地,170400,B0HB3D72LV,公司企业,农林牧渔基地,其它农林牧渔基地,
116.11753430492746,40.1162603631365,晶创越世科技(北京)有限公司,极东产业园双创社区3层391室,北京市,北京市,,公司企业;公司;公司,170200,B0GDROF1KW,公司企业,公司,公司,
116.12001488315093,40.11544302584694,北京百开兴业科技有限公司,阳坊镇昌平科技园区阳坊开发区南区甲8号附近,北京市,北京市,,公司企业;公司;公司,170200,B0FFL5CLA7,公司企业,公司,公司,
116.10667780137494,40.11784344009342,一心果园,阳坊镇前白虎涧村临29号,北京市,北京市,,公司企业;农林牧渔基地;其它农林牧渔基地,170400,B0GKTSPYXX,公司企业,农林牧渔基地,其它农林牧渔基地,
116.13478020319396,40.140344002374285,北京鼎维通电气安装有限公司,阳坊镇阳坊村中心街22号,北京市,北京市,阳坊村,公司企业;公司;机械电子,170204,B000A7OU89,公司企业,公司,机械电子,
116.11728500563444,40.115208203575634,北京民族印务有限责任公司,前白虎涧农民就业产业基地,北京市,北京市,,公司企业;公司;公司,170200,B0FFFVACWG,公司企业,公司,公司,
116.13190822594665,40.15786993343658,新成龙集团,阳坊镇工业北区,北京市,北京市,,公司企业;公司;公司,170200,B000A9Q1XJ,公司企业,公司,公司,
116.09746592589622,40.12280813361024,中控山庄农业园,后二路(北京后花园东南侧约100米),北京市,北京市,,公司企业;农林牧渔基地;其它农林牧渔基地,170400,B0GKOU7VNG,公司企业,农林牧渔基地,其它农林牧渔基地,
116.13386489813608,40.15695288507895,北京瑞诚易科科技有限公司,阳坊镇北工业区国家电网东,北京市,北京市,,公司企业;公司;公司,170200,B0FFMD5WND,公司企业,公司,公司,
116.11196090438034,40.1111537408456,北京阳光雨露饮品有限责任公司,梁家园98号,北京市,北京市,,公司企业;公司;公司,170200,B000A8XNCZ,公司企业,公司,公司,
116.1320815586313,40.158382124655986,森立强机电设备有限公司,凯嘉鑫苑基地西南500米,北京市,北京市,,公司企业;公司企业;公司企业,170000,B0FFJN8ZP9,公司企业,公司企业,公司企业,
116.09538005842731,40.110489804088076,北京尔东科技有限公司,苏家坨镇凤凰岭自然风景区长安园路路西,北京市,北京市,,公司企业;公司企业;公司企业,170000,B0FFJQ6K7V,公司企业,公司企业,公司企业,
116.0995590366707,40.111938643524645,北京金星园林绿化有限公司,苏家坨镇台头村长安园路,北京市,北京市,,公司企业;公司;公司,170200,B000A7PMAH,公司企业,公司,公司,
116.1338488509216,40.15702585321658,北京万鑫盛达风机电机销售部(北一库),阳坊镇阳坊工业园北区,北京市,北京市,,公司企业;公司;商业贸易,170207,B0GDV58G9L,公司企业,公司,商业贸易,
116.11647480304389,40.08267189094853,汉维大库房,北安河路西埠头村委会旁,北京市,北京市,,公司企业;公司企业;公司企业,170000,B0FFI5CT34,公司企业,公司企业,公司企业,
116.11530987740322,40.08245680234756,北京吉通轮胎翻修利用有限公司,北安河路38号,北京市,北京市,,公司企业;公司;公司,170200,B000A882QH,公司企业,公司,公司,
116.11797977948585,40.079840577160034,西埠头村猪场,西埠头路,北京市,北京市,,公司企业;公司企业;公司企业,170000,B0FFHJ1DZ8,公司企业,公司企业,公司企业,
116.11477748946722,40.078694567451535,北京永亮鞋业有限公司,苏家坨镇草厂村,北京市,北京市,,公司企业;公司;公司,170200,B000A8XMJC,公司企业,公司,公司,
116.11191446102542,40.08303582200128,北京敬业机械设备有限公司,苏家坨镇西埠头村栖云路9号五矿观山25楼,北京市,北京市,,公司企业;公司企业;公司企业,170000,B0FFJHJJTR,公司企业,公司企业,公司企业,
116.12188694204119,40.08036877398986,餐厨垃圾收集运输有限公司,北安河路38号,北京市,北京市,,公司企业;公司;公司,170200,B0G2DSMN4H,公司企业,公司,公司,
116.11604109254588,40.09025194354491,北京新牧置业发展有限公司,北安河路50号院内北侧院,北京市,北京市,,公司企业;公司企业;公司企业,170000,B0FFKF3XW5,公司企业,公司企业,公司企业,
116.11927468301116,40.083120702088195,北京云方机械设备制造公司,苏家坨镇西埠头村,北京市,北京市,,公司企业;公司;机械电子,170204,B000A7R6O3,公司企业,公司,机械电子,
116.11413989522438,40.07532721738138,山东豪康面粉(北京总代理),北安河路东50米,北京市,北京市,,购物服务;综合市场;农副产品市场|公司企业;公司;公司,060703|170200,B0FFLAL1R2,购物服务,综合市场,农副产品市场|公司企业,公司
116.11436090596328,40.077994238795384,北京瑞果嘉品科贸有限公司,苏家坨镇草厂村360号,北京市,北京市,,公司企业;公司;商业贸易,170207,B0G0ZAXZ82,公司企业,公司,商业贸易,
116.12862247272935,40.090874448561664,北京三建机械设备公司,柳林村西北一区1号稻香湖马场西门斜对门,北京市,北京市,,公司企业;公司;机械电子,170204,B0FFHCY97V,公司企业,公司,机械电子,
116.10848709594016,40.09484844196565,西山凤凰岭果树种植场,聂各庄路47号,北京市,北京市,,体育休闲服务;休闲场所;采摘园|公司企业;农林牧渔基地;其它农林牧渔基地,080503|170400,B000A9ZY5D,体育休闲服务,休闲场所,采摘园|公司企业,农林牧渔基地
116.11270755701486,40.09160186782516,远大,[],北京市,北京市,,公司企业;公司;公司,170200,B0G02A1HFM,公司企业,公司,公司,
116.13513436758346,40.08329929199799,北京圣洁防水材料有限公司,苏家坨镇柳林村,北京市,北京市,,公司企业;公司;公司,170200,B000A8XP07,公司企业,公司,公司,
116.09924750509305,40.09076618802453,北京环绿艺苑,苏家坨4810办公室西院,北京市,北京市,,公司企业;公司;公司|体育休闲服务;休闲场所;休闲场所,170200|080500,B0FFGYKGXM,公司企业,公司,公司|体育休闲服务,休闲场所
116.11088594840885,40.075281531854216,北京龙鑫天宇科技有限公司,草场村45号,北京市,北京市,,公司企业;公司;公司,170200,B0G1TMTBEW,公司企业,公司,公司,
116.13072604296737,40.09165928116194,稻香湖马场,温北路旁边,北京市,北京市,,公司企业;农林牧渔基地;其它农林牧渔基地,170400,B0FFFZDIKG,公司企业,农林牧渔基地,其它农林牧渔基地,
116.12941131010277,40.07448363783991,老马渔场,温北路附近,北京市,北京市,,公司企业;农林牧渔基地;其它农林牧渔基地,170400,B000A8Y9AX,公司企业,农林牧渔基地,其它农林牧渔基地,
116.13591315970164,40.08392443178468,北京京高气体有限公司,苏家坨西路柳林村幼儿园附近,北京市,北京市,,公司企业;公司;公司,170200,B000A8XPGL,公司企业,公司,公司,
116.12384139856002,40.09898674086104,老崔甜园,聂各庄东路北50米,北京市,北京市,,公司企业;农林牧渔基地;水果基地,170407,B0FFG84FXA,公司企业,农林牧渔基地,水果基地,
116.09969247412074,40.09398609273366,凤凰慧品有机农场,苏家坨车耳营路口二炮对面,北京市,北京市,,购物服务;综合市场;果品市场|公司企业;农林牧渔基地;其它农林牧渔基地,060704|170400,B0FFHWJFDM,购物服务,综合市场,果品市场|公司企业,农林牧渔基地
116.10349526522621,40.07793774145612,北京金山建筑机械厂,阳台山路东150米,北京市,北京市,,公司企业;工厂;工厂,170300,B0FFFADWFE,公司企业,工厂,工厂,
116.13217621825888,40.084879820951,北京蓝天蛟电子技术有限公司,苏家坨柳林河北一区73号,北京市,北京市,,公司企业;公司;公司,170200,B000A9VBLT,公司企业,公司,公司,
116.10322499663373,40.077777624079346,北京铭浩云仓,苏家坨镇草场村西侧,北京市,北京市,,公司企业;公司;公司,170200,B0HGUUG4LP,公司企业,公司,公司,
116.13222013410493,40.08632478356864,北京云锐晟科技有限公司库房,柳林村河北1区62号,北京市,北京市,,公司企业;公司;公司,170200,B0G3TCPTP1,公司企业,公司,公司,
116.13463905671601,40.08430847764535,中电永亮,苏家坨西路(亿清佳华光电产业基地),北京市,北京市,,公司企业;公司;公司,170200,B0GUX7AZKK,公司企业,公司,公司,
116.11566531436509,40.09916692807612,北京安吉康塑料制品有限公司,苏家坨镇聂各庄东路6号,北京市,北京市,,公司企业;公司;公司,170200,B000A884EZ,公司企业,公司,公司,
116.13541185041746,40.08472161386514,瑞祥福海木业有限公司,苏家坨西路东50米,北京市,北京市,,公司企业;公司企业;公司企业,170000,B0FFIUG3WD,公司企业,公司企业,公司企业,
116.13163405329054,40.07646761151161,老吴机柜库房,温北路,北京市,北京市,,公司企业;公司;公司,170200,B0G1ZP31ZB,公司企业,公司,公司,
116.10905856562361,40.073898283747575,北京鸿利兴业制冷设备技术有限公司,苏家坨镇草厂村九王坟8号,北京市,北京市,,公司企业;公司;公司,170200,B000AA496T,公司企业,公司,公司,
116.13170921151435,40.07657371171341,兴华机柜库房,柳林村河边,北京市,北京市,,公司企业;公司企业;公司企业,170000,B0G1ZY3JEH,公司企业,公司企业,公司企业,
116.13222536378319,40.0768284347547,尖锋创新库房,苏家屯镇柳林村柳林桥南200米路西,北京市,北京市,,公司企业;公司企业;公司企业,170000,B0FFLLWMAG,公司企业,公司企业,公司企业,
116.12484832175383,40.06878305448404,同享源商贸有限公司,安河家园三里九号楼三单元107,北京市,北京市,,公司企业;公司;公司,170200,B0FFKXYVK8,公司企业,公司,公司,
116.12817175473594,40.096612423245695,北京基地,温北路(北京八维研修学院滨河校区西北侧约50米),北京市,北京市,,公司企业;公司;公司,170200,B0HGKAI3R1,公司企业,公司,公司,
116.11181878332869,40.07166549544127,麦工装(北京)服装有限公司,苏家坨镇北安河路43号,北京市,北京市,,公司企业;公司;公司,170200,B0FFFD5V20,公司企业,公司,公司,
116.10200328063998,40.089053307558,北京允承电气安装工程有限公司,海淀驾校京海考试场北50米,北京市,北京市,,公司企业;公司;公司,170200,B0FFKQ14SQ,公司企业,公司,公司,
116.13110627092533,40.0731990749495,猎户科技集团有限公司,柳林村西,北京市,北京市,,公司企业;公司;公司,170200,B0GRAS4DT9,公司企业,公司,公司,
116.13527464352782,40.08376747186704,北京车驰天下汽车科技有限公司,苏家坨镇柳林村苏家坨西路亿清佳华产业园内,北京市,北京市,,公司企业;公司;公司,170200,B0GR5O507C,公司企业,公司,公司,
116.13512825482192,40.08406523013852,北京科海金龙韩瑞斯锂氢能基地,苏家坨镇柳林村苏家坨西路西侧,北京市,北京市,,公司企业;公司企业;公司企业,170000,B0FFKM5IGY,公司企业,公司企业,公司企业,
116.13513916009525,40.08500818143829,北京京快达货运代理有限公司柳林仓库,苏家坨西路西50米,北京市,北京市,,公司企业;公司企业;公司企业,170000,B0FFIIPOZB,公司企业,公司企业,公司企业,
116.12445850039283,40.06898956162671,中润置家房地产经纪有限公司,通元路安河家园八里6号楼2单元101,北京市,北京市,,公司企业;公司企业;公司企业,170000,B0FFI4SUVJ,公司企业,公司企业,公司企业,
116.13108320671154,40.073292036444876,维高时代(北京)科技有限公司,老马渔场东南200米,北京市,北京市,,公司企业;公司;公司,170200,B0GD1MMTV6,公司企业,公司,公司,
116.0940600253565,40.081353836514566,神农书院,大西山书院村(宏伟村)90-2号,北京市,北京市,,公司企业;公司;公司,170200,B0FFL4SU1Y,公司企业,公司,公司,
116.11326840763444,40.0994817543311,北京方园文仪家具制造有限公司,聂各庄东路9号,北京市,北京市,,公司企业;公司;公司,170200,B000A7OX17,公司企业,公司,公司,
116.13961063060373,40.08115541661799,北京创亿无限柳林库房,柳林村东锅炉厂东院内,北京市,北京市,,公司企业;公司;公司,170200,B0G1371A61,公司企业,公司,公司,
116.13689011090882,40.079408240920294,北京世纪诚丰科技有限公司,苏家坨地区柳林路2号,北京市,北京市,,公司企业;公司;公司,170200,B000A9QU3V,公司企业,公司,公司,
116.113061028926,40.099920544417905,北京得福祥餐饮管理有限公司,苏家坨镇聂各庄东路10号院,北京市,北京市,,公司企业;公司;公司,170200,B0GK9CR10M,公司企业,公司,公司,
116.13666352754215,40.079647874447254,北京瑞益精诚环保设备有限公司,柳林村河南2区78号,北京市,北京市,,公司企业;公司;公司,170200,B0FFF05OIQ,公司企业,公司,公司,
116.113577680004,40.10112389396246,安鑫国际,聂各庄路与聂各庄东路交叉路口往北约200米,北京市,北京市,,公司企业;公司;公司,170200,B0FFL9PPX7,公司企业,公司,公司,
116.11360876242009,40.10086394094359,金鑫鼎盛物业管理有限公司,聂各庄路附近,北京市,北京市,,公司企业;公司;公司,170200,B0FFL5WCOZ,公司企业,公司,公司,
116.14030439351683,40.081054542367546,趣行(海淀仓),柳林村东锅炉厂东院内,北京市,北京市,,公司企业;公司企业;公司企业,170000,B0FFJHVTO1,公司企业,公司企业,公司企业,
116.1241129375724,40.09904806503069,爱琴果园,聂各庄东路向西110米,北京市,北京市,,公司企业;农林牧渔基地;水果基地,170407,B0G16C1ZJY,公司企业,农林牧渔基地,水果基地,
116.11314597650394,40.10134850645749,北京金地丰源科技有限公司,苏家坨镇聂各庄村,北京市,北京市,,公司企业;公司;公司,170200,B0FFKWV0SU,公司企业,公司,公司,
116.14016919573056,40.07992739938629,北京福莱科技发展有限公司,柳林村1号,北京市,北京市,,公司企业;公司;公司,170200,B0FFI09YAM,公司企业,公司,公司,
116.12160936765045,40.103998735665726,中盛永基(北京)科技有限公司,凤凰岭路与温北路交叉口西100米,北京市,北京市,,公司企业;公司;网络科技,170206,B0FFGZW9G1,公司企业,公司,网络科技,
116.13711242522099,40.08119946552047,阜康丽洁物业管理有限责任公司柳林村项目部,柳林路与苏家坨西路交叉口北200米柳林村村委会附近,北京市,北京市,,公司企业;公司;公司,170200,B0FFL5WBX6,公司企业,公司,公司,
116.11334625675956,40.101593658346225,西山农场牛场,聂各庄路东150米,北京市,北京市,,公司企业;农林牧渔基地;其它农林牧渔基地,170400,B0FFL1R35D,公司企业,农林牧渔基地,其它农林牧渔基地,
116.13724299989305,40.07920980220788,北京海淀空后高温复合材料厂,苏家坨镇柳林村,北京市,北京市,,公司企业;工厂;工厂,170300,B000A8XP9B,公司企业,工厂,工厂,
116.11395101611454,40.10309506612428,北京信博嘉丰科技发展有限公司,聂各庄路(宏远双语艺术幼儿园东北侧约200米),北京市,北京市,,公司企业;公司企业;公司企业,170000,B0FFIYZSSH,公司企业,公司企业,公司企业,
116.12817786098856,40.06472558427014,北安河车辆基地,北清路,北京市,北京市,,公司企业;公司;公司,170200,B0FFIP0OC3,公司企业,公司,公司,
116.13241958223509,40.10200891465075,迁喜公司(苏家坨店),后沙涧路附近,北京市,北京市,,公司企业;公司;公司,170200,B0FFHR912G,公司企业,公司,公司,
116.11173546405303,40.10420912082565,北京市长建西山建筑工程公司,苏家坨镇聂各庄路24号,北京市,北京市,,公司企业;公司;建筑公司,170202,B000A882H8,公司企业,公司,建筑公司,
116.10527801512616,40.103132841955606,长懿实业集团,凤凰岭,北京市,北京市,,公司企业;公司企业;公司企业,170000,B0FFKP621D,公司企业,公司企业,公司企业,
116.11913935282163,40.09930938752813,欣见梨园,聂各庄东路北100米,北京市,北京市,,公司企业;农林牧渔基地;水果基地,170407,B0FFGXH4PQ,公司企业,农林牧渔基地,水果基地,
116.12047330793315,40.10325352242334,贝大夫农庄,苏家坨镇凤凰岭路南侧350米右转,北京市,北京市,,公司企业;农林牧渔基地;其它农林牧渔基地,170400,B0FFMATI1Q,公司企业,农林牧渔基地,其它农林牧渔基地,
116.1112093492299,40.10683849680344,北京圆浩时代商贸有限公司,台头村聂各庄路12号院-2号平房,北京市,北京市,,公司企业;公司;公司,170200,B0FFM9MEPO,公司企业,公司,公司,
116.11174547932984,40.10420612905585,北京神州中天建设有限公司,苏家坨镇家坨镇聂各庄路24号,北京市,北京市,,公司企业;公司;公司,170200,B0FFJKR0SD,公司企业,公司,公司,
116.11343801057318,40.10461550046192,麦工装(北京)服装有限北区,苏家坨镇台头村凤凰路10号,北京市,北京市,,公司企业;公司;公司,170200,B0HGCRI4SD,公司企业,公司,公司,
116.10194992971404,40.03709743025122,北京市海淀区水泥厂,军庄路25号,北京市,北京市,,公司企业;工厂;工厂,170300,B000A8XK9J,公司企业,工厂,工厂,
116.11776038098604,40.0488282370128,北京建工资源苏家坨项目部,G4501(西六环路),北京市,北京市,,公司企业;公司;公司,170200,B0FFL36EMD,公司企业,公司,公司,
116.1077663155574,40.04702500591991,北京东林旭建筑工程有限公司,S210(军庄路),北京市,北京市,,公司企业;公司企业;公司企业,170000,B0FFJ95ZA1,公司企业,公司企业,公司企业,
116.09863101812671,40.044061912284334,北控绿海能,军庄路(北京鹫峰国家森林公园东南侧约100米),北京市,北京市,,公司企业;公司企业;公司企业,170000,B0FFJ4N810,公司企业,公司企业,公司企业,
116.11412014605303,40.04982372986029,顺天吉盛果树种植园,西六环附近,北京市,北京市,,公司企业;农林牧渔基地;其它农林牧渔基地,170400,B0FFK7GTTQ,公司企业,农林牧渔基地,其它农林牧渔基地,
116.11889997520376,40.052228222484366,海淀区北安河思达羊毛衫厂,北安河南口,北京市,北京市,,公司企业;工厂;工厂,170300,B000A83FJS,公司企业,工厂,工厂,
116.1055105827567,40.05434523691175,老郑果园,大觉寺路,北京市,北京市,,公司企业;公司企业;公司企业,170000,B0FFM5P4WV,公司企业,公司企业,公司企业,
116.10701666835088,40.0523962343741,路口北京大西山旅游开发有限公司,徐各庄村村委会向西200米红绿灯路口,北京市,北京市,,公司企业;公司;公司,170200,B0FFL80TM3,公司企业,公司,公司,
116.12868346503927,40.01395991381399,民防浩天救援基地,东山贡梨园西北400米,北京市,北京市,,公司企业;公司;公司,170200,B0FFHO5ACW,公司企业,公司,公司,
116.14181409983037,40.05085885926702,北京世纪久泰真空技术有限公司,温泉路南工业大院内,北京市,北京市,,公司企业;公司;公司,170200,B0FFHMTZWH,公司企业,公司,公司,
116.10515589762223,40.00984027236108,北京紫禁宏业建材有限公司,西六环东50米,北京市,北京市,,公司企业;公司企业;公司企业,170000,B0FFKFRPNB,公司企业,公司企业,公司企业,
116.11945381239049,40.05355073429462,宝荣金宏泉种植专业合作社,大觉寺路北50米,北京市,北京市,,公司企业;农林牧渔基地;其它农林牧渔基地,170400,B000A884NZ,公司企业,农林牧渔基地,其它农林牧渔基地,
116.11543806356445,39.973681411186504,中海方州物业,隆恩寺路99号院内,北京市,北京市,,公司企业;公司;公司,170200,B0G0UZMVT0,公司企业,公司,公司,
116.11856607409798,39.96881568426256,大唐文娱网络有限公司,隆恩寺路(隆恩颐园小区东南侧),北京市,北京市,,公司企业;公司;公司,170200,B0FFMH9VXX,公司企业,公司,公司,
116.10516562411621,39.96536411644479,北京钜控科技有限公司,三家店东街蔡家府大地停车场院内,北京市,北京市,,公司企业;公司;网络科技,170206,B0FFG4OII4,公司企业,公司,网络科技,
116.11910233843263,39.96648533740423,中民万城集团有限公司,隆恩寺路与秀府北一路交叉路口往北约50米,北京市,北京市,,公司企业;公司;公司,170200,B0G0S93NW1,公司企业,公司,公司,
116.11930667140032,39.96678454207921,北京兴盛恒泰行政服务大厅,隆恩寺路69附近,北京市,北京市,,公司企业;公司;公司,170200,B0FFL54UXL,公司企业,公司,公司,
116.11913743471217,39.96623038449892,北京景西房地产开发有限公司,隆恩寺路28,北京市,北京市,,公司企业;公司企业;公司企业,170000,B0FFIYXK2J,公司企业,公司企业,公司企业,
116.11850990096421,39.961571910373856,临池文化,隆恩寺路17号院3-4底商,北京市,北京市,,公司企业;公司;公司,170200,B0FFLHAN4Z,公司企业,公司,公司,
116.09728500517004,40.00494245756878,杨坨物业,军温路12号附近,北京市,北京市,军庄镇,公司企业;公司;公司|生活服务;生活服务场所;生活服务场所,170200|070000,B000A7R0DX,公司企业,公司,公司|生活服务,生活服务场所
116.10330319742019,39.96033336735217,金博阅生活超市,三家店东街48号金博悦超市,北京市,北京市,,购物服务;超级市场;超市|公司企业;公司;公司|生活服务;生活服务场所;生活服务场所,060400|170200|070000,B0FFHB9091,购物服务,超级市场,超市|公司企业,公司
116.0925667224058,40.00008509927015,北京市政路桥,S210(三温路),北京市,北京市,军庄镇,公司企业;公司;公司,170200,B0FFMCQN3N,公司企业,公司,公司,
116.09813192181474,40.002880749944815,中国联合网络通信有限公司军庄分局,军庄路附近,北京市,北京市,军庄镇,公司企业;公司;电信公司,170208,B0FFL6D5JV,公司企业,公司,电信公司,
116.12042036989787,39.96174994327487,北京致远顺通广告图文设计,隆恩寺路18号院2号楼1层2一17底商,北京市,北京市,,公司企业;公司;广告装饰,170201,B0G02M1A63,公司企业,公司,广告装饰,
116.094202497029,39.96973442995942,河北省烟草公司廊坊市公司,常甫路与瑞丰道交叉口东南100米,北京市,北京市,,公司企业;公司;公司,170200,B0FFMEOIF3,公司企业,公司,公司,
116.1333685378579,39.96324061514925,北京科佳信,[],北京市,北京市,,公司企业;公司企业;公司企业,170000,B0FFKE9N40,公司企业,公司企业,公司企业,
116.09263077848121,39.99989210881649,养护集团第八公路工程处,S210(三温路),北京市,北京市,军庄镇,公司企业;公司;公司,170200,B0FFL75Y3L,公司企业,公司,公司,
116.1421656554614,39.975126919350004,北京百旺山盛园林绿化工程有限公司,潭峪路10号院,北京市,北京市,,公司企业;公司企业;公司企业,170000,B0G1F5NBB1,公司企业,公司企业,公司企业,
116.11148541736812,39.96173048208153,北京佳洁净环保科技有限公司,油研所路五排,北京市,北京市,,公司企业;公司;公司,170200,B0G0MZLT70,公司企业,公司,公司,
116.12085432677405,39.96063546684222,北京恒缘立兴商贸有限公司,[],北京市,北京市,,公司企业;公司;公司,170200,B0G2SXMBWP,公司企业,公司,公司,
116.11018566116672,39.960829524327345,北京龙泉乳品公司,油研所路北京工业职业技术学院西侧正南方向130米,北京市,北京市,,公司企业;公司;公司,170200,B0FFFADX7E,公司企业,公司,公司,
116.11207873688765,40.00507618617041,北京金山红运建材有限责任公司,西杨坨前街与015县道交叉口东150米,北京市,北京市,军庄镇,公司企业;公司;公司,170200,B000A7PLVX,公司企业,公司,公司,
116.13030404423269,40.00617947810081,老张家梨园,[],北京市,北京市,,公司企业;农林牧渔基地;其它农林牧渔基地,170400,B0G0DRAFF6,公司企业,农林牧渔基地,其它农林牧渔基地,
116.13332247124198,39.962919560130544,石景山区环卫中心西部场站,[],北京市,北京市,,公司企业;公司;公司,170200,B0G0DC9EL2,公司企业,公司,公司,
116.10423187449436,39.96293571989992,北京盛虹水润建筑工程有限公司,[],北京市,北京市,,公司企业;公司;建筑公司,170202,B0GK27JR79,公司企业,公司,建筑公司,
116.09325889648392,40.00144706401878,宝宜合公司,军庄中学西行150米,北京市,北京市,军庄镇,公司企业;公司;公司,170200,B0FFHW5JFD,公司企业,公司,公司,
116.09251541472659,40.00228100386257,北京新港水泥制造有限公司,军庄军温路杨坨小区西300米,北京市,北京市,军庄镇,公司企业;公司;公司,170200,B000A9V23O,公司企业,公司,公司,
116.11839270690754,39.961453793800985,北京鑫达利华五金机电设备有限公司,隆恩寺路19号院2号楼,北京市,北京市,,公司企业;公司;公司,170200,B0G3A5DVGJ,公司企业,公司,公司,
116.09572436597438,40.00138131816805,京能建设集团有限公司北京分公司,军温路12号,北京市,北京市,军庄镇,公司企业;公司;公司,170200,B0FFL90XTL,公司企业,公司,公司,
116.13503842755745,39.96365108324961,北京伊瑞特家居用品有限公司,黑石头佟家坟村西,北京市,北京市,,公司企业;公司;公司,170200,B0FFGIY2KB,公司企业,公司,公司,
116.12077516564348,39.96072937516227,北京明洋佳印图文制作有限公司,秀府南路与秀府西街交叉口南150米,北京市,北京市,,公司企业;公司;公司,170200,B0FFJFCFZ3,公司企业,公司,公司,
116.09498191184849,39.96235380339997,北卫公司,天水居大酒楼附近,北京市,北京市,,公司企业;公司企业;公司企业,170000,B0FFKJJP30,公司企业,公司企业,公司企业,
116.12282805481453,40.00807478265921,顺龙明洋商贸公司,015县道北50米,北京市,北京市,,公司企业;公司;商业贸易,170207,B000A8XKVI,公司企业,公司,商业贸易,
116.13400593616049,39.96399752590081,北京雅士安能新材料科技有限公司,潭峪路与黑石头村路交叉口西南150米,北京市,北京市,,公司企业;公司;公司,170200,B000A9VBBA,公司企业,公司,公司,
116.12719287316034,40.00908215596204,张家港洛美华菲科技有限公司,锦丰镇西港村新村部旁,北京市,北京市,,公司企业;公司;公司,170200,B0FFIYHWNS,公司企业,公司,公司,
116.0929008245235,40.0005760868385,北京路桥瑞通养护中心有限公司八处,军温路北,北京市,北京市,军庄镇,公司企业;公司;公司,170200,B0FFHDKX1R,公司企业,公司,公司,
116.10111108356003,39.95959246228072,北京西工务段门头沟桥梁车间,三家店东街旁边,北京市,北京市,,公司企业;公司企业;公司企业,170000,B0FFL1ZBVX,公司企业,公司企业,公司企业,
116.09313279437289,40.00173004602955,中国中铁股份有限公司国道109高速公路工程总承包部,S210(三温路),北京市,北京市,军庄镇,公司企业;公司;公司,170200,B0G14XFBDP,公司企业,公司,公司,
116.09527001282254,39.962973816259,中城阳光(北京)新能源科技有限公司,水闸北路21号,北京市,北京市,,公司企业;公司;公司,170200,B0FFH9D091,公司企业,公司,公司,
116.11592699907571,39.93367744235463,艾力博科技,大峪街道爱玛裕文玩交易市场裕厅2层,北京市,北京市,广宁,公司企业;公司;公司,170200,B0FFGI8JZD,公司企业,公司,公司,
116.11539403995805,39.93424991939456,裕晟顺昌,滨水公园景观大道,北京市,北京市,门头沟,公司企业;公司;公司,170200,B0G3ZSQNT9,公司企业,公司,公司,
116.11507738276555,39.93531958441844,森盛达机械,双屿路爱玛裕文玩交易广场24号芩记茶楼附近,北京市,北京市,门头沟,公司企业;公司企业;公司企业,170000,B0G2X1OP50,公司企业,公司企业,公司企业,
116.11472390389811,39.934564292142426,长富华林商贸有限公司,永堤西路与阜石路交叉路口往南约200米,北京市,北京市,广宁,公司企业;公司;公司,170200,B0G1PPIQXY,公司企业,公司,公司,
116.1151697103067,39.93394172410788,北京鑫明燕楠商贸有限公司,永堤西路(北京之巅绿海家园西北侧约200米),北京市,北京市,广宁,公司企业;公司;商业贸易,170207,B0FFL03DJJ,公司企业,公司,商业贸易,
116.11517473197665,39.93383673291442,北京京西大正商贸有限公司,永堤西路(北京之巅绿海家园北侧约150米),北京市,北京市,广宁,公司企业;公司;商业贸易,170207,B0H6MUGGET,公司企业,公司,商业贸易,
116.11598218579199,39.93294052408046,北京企合国际贸易投资有限公司,永堤西路(北京之巅绿海家园北侧),北京市,北京市,门头沟,公司企业;公司;公司,170200,B0FFKHGY6V,公司企业,公司,公司,
116.11729273912967,39.9382705868822,中国中铁电气化局集团,水闸南路与双峪路交叉路口往西北约150米,北京市,北京市,,公司企业;公司;公司,170200,B0G1P4I1NA,公司企业,公司,公司,
116.11166766304935,39.938497536700595,爱玛裕超市,爱玛裕家居购物广场建材厅B区B652号,北京市,北京市,门头沟,公司企业;公司;广告装饰|购物服务;家居建材市场;家具城|购物服务;家居建材市场;厨卫市场,170201|060602|060604,B0FFF4NA5S,公司企业,公司,广告装饰|购物服务,家居建材市场
116.11338136370736,39.937736982778034,裕达奥莱仓,河滩路与永堤西路交叉路口西侧(窗帘布艺城),北京市,北京市,门头沟,公司企业;公司;公司,170200,B0HBLM9D47,公司企业,公司,公司,
116.12144757111258,39.93623908889073,利贞广告,麻峪东街与麻峪村路交叉口西北50米,北京市,北京市,广宁,公司企业;公司;广告装饰,170201,B0G2HZORR5,公司企业,公司,广告装饰,
116.11899654172842,39.93995026478199,恒坤投资集团有限公司,双峪路23号,北京市,北京市,,公司企业;公司;公司,170200,B000A8XMBP,公司企业,公司,公司,
116.11337440944727,39.937294994307955,餐饮文化发展有限公司,河滩路与永堤西路交叉路口西南侧,北京市,北京市,门头沟,公司企业;公司;公司,170200,B0G27OFT9Y,公司企业,公司,公司,
116.12111596638692,39.93603572335195,北京市保安服务总公司石景山分公司(麻峪东街),麻峪东街33号附近,北京市,北京市,广宁,公司企业;公司;公司,170200,B000A8XMEU,公司企业,公司,公司,
116.10783336163912,39.93056108070359,北京门头沟供电公司,滨河路66号北京供电局,北京市,北京市,门头沟,公司企业;公司;公司,170200,B000A7YW2Z,公司企业,公司,公司,
116.11955677738028,39.938256926313066,北京吉兆年商贸有限公司,双峪路25号,北京市,北京市,,公司企业;公司;公司,170200,B0FFKEXFTL,公司企业,公司,公司,
116.1191438231913,39.93983442468613,麻峪工贸中心,广宁街道双峪路23号麻峪工贸,北京市,北京市,,公司企业;公司;商业贸易,170207,B000A7PYAQ,公司企业,公司,商业贸易,
116.12081023825073,39.937214335342226,北京云河天博网络科技有限公司,双峪路11号附近,北京市,北京市,广宁,公司企业;公司企业;公司企业,170000,B0FFJST2T8,公司企业,公司企业,公司企业,
116.12669196667068,39.94527209286464,北京金隅加气混凝土有限责任公司,石门路287号北京金隅,北京市,北京市,,公司企业;公司;公司,170200,B000A85RZ6,公司企业,公司,公司,
116.10733339633484,39.940898349972436,嘉事京西医药科技有限公司,双峪路43号,北京市,北京市,门头沟,公司企业;公司;医药公司,170203,B0FFFVR5LS,公司企业,公司,医药公司,
116.11081218467486,39.94029679924726,北京京西路通商贸有限公司,爱玛裕家居购物广场B060号,北京市,北京市,门头沟,公司企业;公司;商业贸易|购物服务;购物相关场所;购物相关场所,170207|060000,B0FFG74GKL,公司企业,公司,商业贸易|购物服务,购物相关场所
116.11183064322546,39.932729895754605,北京顺吉停车管理有限公司,月季园东小河滩临3号,北京市,北京市,门头沟,公司企业;公司企业;公司企业,170000,B0FFKOP01V,公司企业,公司企业,公司企业,
116.10068712598257,39.932788358914166,北京京煤集团有限责任公司,大峪街道新桥大街2号,北京市,北京市,门头沟,公司企业;公司;公司,170200,B000A00012,公司企业,公司,公司,
116.12684471631906,39.93409073124566,北京京龙汽车泵业有限公司,高井路30号,北京市,北京市,广宁,公司企业;公司;公司,170200,B000A887YN,公司企业,公司,公司,
116.11129011690943,39.93842824197949,勇顺佳艺装饰公司,双峪路爱玛裕家具购物广场西配楼204号,北京市,北京市,门头沟,公司企业;公司;公司,170200,B0FFLPUH15,公司企业,公司,公司,
116.12645862940067,39.93622814857321,冠珠陶瓷仓库,双峪路与阜石路交叉口东北50米,北京市,北京市,广宁,公司企业;公司;公司,170200,B0FFJZ7X3R,公司企业,公司,公司,
116.1175963205213,39.93785690683687,中铁电气化局集团有限公司北京市南水北调配套工程河西支线工程第十二标段项目经理部,[],北京市,北京市,,公司企业;公司;公司,170200,B0G0ZHY0FT,公司企业,公司,公司,
116.12677626833324,39.93646754836085,美巢库房,中铁六局,北京市,北京市,广宁,公司企业;公司;公司,170200,B0FFKOIHID,公司企业,公司,公司,
116.1092959811641,39.93309797084929,康依家广告,滨河居住区临镜苑2号楼底商,北京市,北京市,永定,公司企业;公司;广告装饰|生活服务;生活服务场所;生活服务场所,170201|070000,B0FFHDAVQQ,公司企业,公司,广告装饰|生活服务,生活服务场所
116.11216644444357,39.93820194943384,北京广荣顺商贸有限公司,爱玛峪家居购物广场A座A220号,北京市,北京市,门头沟,公司企业;公司;商业贸易,170207,B0G3VUE9CE,公司企业,公司,商业贸易,
116.11368816798215,39.896107988076196,京门生鲜,石龙工业区永安路7号,北京市,北京市,门头沟,公司企业;公司;公司,170200,B0G25SVJ9P,公司企业,公司,公司,
116.11756927302201,39.937858879582336,中共中铁电气化局集团有限公司南水北调配套工程河西支线工程第十二标段党支部,[],北京市,北京市,,公司企业;公司企业;公司企业,170000,B0G0Z5Y8HC,公司企业,公司企业,公司企业,
116.10939581828124,39.95104233450266,中铁三局四公司,三家店新建路25号,北京市,北京市,,公司企业;公司;建筑公司,170202,B000A7REH4,公司企业,公司,建筑公司,
116.10973338388638,39.934652221348074,北京然臣不锈钢制品有限公司,亨利美佳家具销售中心西排4号,北京市,北京市,永定,公司企业;公司;公司,170200,B0G35UVWIT,公司企业,公司,公司,
116.1265229798367,39.93454229813638,恒昆厨房餐厅制冷设备有限公司,高井路29-11号,北京市,北京市,广宁,公司企业;公司;公司|购物服务;购物相关场所;购物相关场所,170200|060000,B0FFJH5SYU,公司企业,公司,公司|购物服务,购物相关场所
116.11533800722775,39.94159857672685,中铁11号线库房,中铁11号线库房水闸南路乙23号,北京市,北京市,门头沟,公司企业;公司;公司,170200,B0HAC7W2TY,公司企业,公司,公司,
116.12477974373695,39.93943190749466,北京京西燃气热电有限公司,广宁街道双峪路1号,北京市,北京市,,公司企业;公司;公司,170200,B0FFGXJTT4,公司企业,公司,公司,
116.12738076978452,39.93476440274257,丽界工坊美业公司,高井路29号院2号楼底墒(101号),北京市,北京市,广宁,公司企业;公司;公司,170200,B0FFKSZI83,公司企业,公司,公司,
116.12668898155857,39.94510609551547,现代建材公司,高井村石门路287号,北京市,北京市,,公司企业;公司;公司,170200,B000A9V4D6,公司企业,公司,公司,
116.11419150937512,39.930956959029196,京西育盛养殖场,西六环附近,北京市,北京市,门头沟,公司企业;农林牧渔基地;其它农林牧渔基地,170400,B000A7POAG,公司企业,农林牧渔基地,其它农林牧渔基地,
116.11075753901859,39.929108202764176,北京天地人和餐饮有限公司,承泽苑7号楼底商正月十五饭店北京承泽苑,北京市,北京市,大峪村,公司企业;公司;公司,170200,B000AA1YVW,公司企业,公司,公司,
116.11109491189124,39.937809114740865,北京勇顺佳艺装饰工程有限公司,爱玛裕家具购物广场西配楼204室,北京市,北京市,门头沟,公司企业;公司;公司,170200,B0FFGW11Q3,公司企业,公司,公司,
116.10891247695648,39.932974707839406,北京京博腾达商贸有限公司,滨河绮霞苑丙1,北京市,北京市,大峪村,公司企业;公司;公司,170200,B0FFL27KOU,公司企业,公司,公司,
116.11256030113672,39.92834866552086,北京国信恒望热力有限公司,滨河居住区6号(钰龙泉北),北京市,北京市,永定,公司企业;公司;公司,170200,B000A8XBEB,公司企业,公司,公司,
116.1251586132937,39.9386944065109,北京京禹石水务有限公司,阜石路东150米,北京市,北京市,广宁,公司企业;公司;公司,170200,B0FFFAD7XO,公司企业,公司,公司,
116.107434422015,39.933897691180626,北京鸿缘科技有限公司,双峪路35号院1号25层2803号,北京市,北京市,永定,公司企业;公司;公司,170200,B0FFLIQKBG,公司企业,公司,公司,
116.11440816346837,39.92855524836098,金增林电气,双峪桥南150米,北京市,北京市,永定,公司企业;公司企业;公司企业,170000,B0FFIJZE7D,公司企业,公司企业,公司企业,
116.10715804702262,39.934091509611086,北京瑞居家具有限公司,双峪路35号院2熙旺中心B座22层B2001,北京市,北京市,门头沟,公司企业;公司;公司,170200,B0FFKYK3UM,公司企业,公司,公司,
116.1127986532225,39.92843986014808,德露苑热力公司,滨河居住区6号,北京市,北京市,永定,公司企业;公司;公司,170200,B0FFHQJD59,公司企业,公司,公司,
116.11872174082322,39.94234188273403,奥瑞嘉餐饮有限公司,双峪路65-3院,北京市,北京市,,公司企业;公司;公司,170200,B0FFH9BLZ3,公司企业,公司,公司,
116.12652986392841,39.93556426642054,中晴生物科技(北京)有限公司,阜石路高井路29号院北邻,北京市,北京市,广宁,公司企业;公司;公司,170200,B0GUZSGLLX,公司企业,公司,公司,
116.10744638176777,39.934330681527676,康利友利民医药有限公司,双峪路35号康利友利民医药有限公司,北京市,北京市,大峪村,公司企业;公司;公司,170200,B0HG67FOTM,公司企业,公司,公司,
116.13865417169941,39.924852208058695,北京国际电气工程有限责任公司,广宁路10号(北厂院内),北京市,北京市,广宁,公司企业;公司;机械电子,170204,B0FFFAD6DA,公司企业,公司,机械电子,
116.11021458665827,39.93051373864974,晶品物业,承泽苑7-6号,北京市,北京市,永定,公司企业;公司;公司,170200,B0FFFAEEWQ,公司企业,公司,公司,
116.11798937732175,39.942809109408344,北京味神食品有限公司,双峪路63号附近,北京市,北京市,,公司企业;公司企业;公司企业,170000,B0FFIQDSPX,公司企业,公司企业,公司企业,
116.10630941979974,39.93078212664633,德亿万家房地产经纪有限公司,霁月园8号楼滨河路153号-21号1层,北京市,北京市,门头沟,公司企业;公司;公司,170200,B0HBLP9O39,公司企业,公司,公司,
116.11194381661794,39.94050167851001,中弘万佳(北京)建设有限公司,永堤西路与西六环路交叉路口往东北约100米,北京市,北京市,门头沟,公司企业;公司;公司,170200,B0FFM4KQO0,公司企业,公司,公司,
116.10685969753973,39.93390233281308,北京博英拓科技有限公司,双峪路35号熙旺中心a座,北京市,北京市,永定,公司企业;公司;公司,170200,B0HG6SD1MK,公司企业,公司,公司,
116.1232676538314,39.939822059617676,中铁三局集团电务工程有限公司(北京分公司),阜石路北200米,北京市,北京市,,公司企业;公司;公司,170200,B000A8899Q,公司企业,公司,公司,
116.10561542692007,39.93203067636608,蚨艺阁广告,滨河路153-4号A1室,北京市,北京市,大峪村,公司企业;公司;广告装饰|生活服务;生活服务场所;生活服务场所,170201|070000,B000AA836M,公司企业,公司,广告装饰|生活服务,生活服务场所
116.10813823093697,39.93467711624286,浩古鼎创(北京)服装贸易有限公司,大峪街道双屿路熙旺中心B座2536,北京市,北京市,门头沟,公司企业;公司;公司,170200,B0FFL5J09A,公司企业,公司,公司,
116.1121241495589,39.940008843717685,中思智创(北京)工程技术管理有限公司,双峪路35号爱玛裕建材广场B座4层,北京市,北京市,门头沟,公司企业;公司;公司,170200,B0FFM4HJ2B,公司企业,公司,公司,
116.11118472817861,39.94026308744985,北京勇达佳艺装修工程有限公司,爱玛峪家居购物广场B区3层B885,北京市,北京市,门头沟,公司企业;公司;公司,170200,B0FFKVRT3P,公司企业,公司,公司,
116.10738329955602,39.93434564096045,晶辉房地产经纪有限公司,永定双峪环岛熙旺中心,北京市,北京市,门头沟,公司企业;公司;公司,170200,B0FFI041XX,公司企业,公司,公司,
116.10894385072,39.930386833073705,北京茹超门窗有限公司,门头沟滨河承泽苑1-1-302,北京市,北京市,门头沟,公司企业;公司企业;公司企业,170000,B0FFIMC27K,公司企业,公司企业,公司企业,
116.12201678068246,39.94315346567936,市政一高井高井项目部,[],北京市,北京市,,公司企业;公司;公司,170200,B0G1PPJ7G9,公司企业,公司,公司,
116.10715804432816,39.93411250877311,北京泽浩天科技发展有限公司,熙旺中心B座,北京市,北京市,门头沟,公司企业;公司;公司,170200,B0FFKWO4D2,公司企业,公司,公司,
116.11706712302106,39.92439691866644,江苏省建,西苑路永安小区12号楼,北京市,北京市,门头沟,公司企业;公司;建筑公司,170202,B0FFHC4K1N,公司企业,公司,建筑公司,
116.1332750192428,39.93420761588841,中电科技,高井路高井路新村35号乙,北京市,北京市,广宁,公司企业;公司;网络科技,170206,B0FFHACKVP,公司企业,公司,网络科技,
116.11195867115848,39.92618926143361,北京保利达工程设计有限责任公司,峪中路(德露苑),北京市,北京市,永定,公司企业;公司;公司,170200,B0HACUVTYK,公司企业,公司,公司,
116.1064416230971,39.93045521815896,北京金城阜业房地产经纪有限公司,大峪街道滨河西区霁月园3号楼,北京市,北京市,龙泉,生活服务;中介机构;中介机构|公司企业;公司;公司,071600|170200,B0FFL5WKNP,生活服务,中介机构,中介机构|公司企业,公司
116.10368180346448,39.935399527650475,华诚博远工程咨询有限公司,双峪路13号楼东北50米,北京市,北京市,大峪村,公司企业;公司;公司,170200,B0FFKZX6IY,公司企业,公司,公司,
116.13174579929078,39.93963118938215,大唐国际发电股份有限公司(高井东北),高井电厂路1号,北京市,北京市,广宁,公司企业;公司;公司,170200,B000A7OR3Z,公司企业,公司,公司,
116.13322464293546,39.936240461458134,郑州森杰服饰有限公司,电厂路46号华强城市广场二期三号楼505室,北京市,北京市,广宁,公司企业;公司;公司,170200,B0GRXXBDAC,公司企业,公司,公司,
116.10198979347535,39.929553997148886,易联汇华,新桥南大街28号楼,北京市,北京市,大峪村,公司企业;公司;公司|购物服务;专卖店;专营店,170200|061200,B0FFG98DPL,公司企业,公司,公司|购物服务,专卖店
116.10274912597988,39.932975188620965,快照广告复印,梨园平房52号,北京市,北京市,门头沟,公司企业;公司;广告装饰,170201,B0FFLG9N18,公司企业,公司,广告装饰,
116.10373587291205,39.935315557319576,北京成易达建筑工程有限公司,双峪路13号楼东北50米,北京市,北京市,大峪村,公司企业;公司企业;公司企业,170000,B0FFKHGPUN,公司企业,公司企业,公司企业,
116.11777235070697,39.924388623646855,北京永安兴达物业管理中心,西苑路与019县道交叉口东北50米,北京市,北京市,永定,公司企业;公司;公司,170200,B000A7R3RX,公司企业,公司,公司,
116.12380095826359,39.945754464983025,金斧机械公司,石门路287号院,北京市,北京市,,公司企业;公司企业;公司企业,170000,B0FFHS22T3,公司企业,公司企业,公司企业,
116.10715805369462,39.934039511686215,北京润诚东信知识产权代理有限公司,双峪路35号院2熙旺中心B座22层B2035,北京市,北京市,永定,公司企业;公司;公司,170200,B000AA49EH,公司企业,公司,公司,
116.10144429418077,39.93706847573724,华瑞金源,滨河路79号一层底商玻璃门,北京市,北京市,大峪村,公司企业;公司;公司,170200,B0FFL925VM,公司企业,公司,公司,
116.101358847963,39.932108639639964,京煤集团总公司,大峪街道中门寺街7号,北京市,北京市,门头沟,公司企业;公司;公司,170200,B0FFJFATXX,公司企业,公司,公司,
116.10369982749552,39.93536453780571,北京城明教育咨询有限责任公司,双峪路北150米,北京市,北京市,门头沟,公司企业;公司企业;公司企业,170000,B0FFKHT0X6,公司企业,公司企业,公司企业,
116.11603447621927,39.92353595269795,中石油昆仑燃气门头沟生产基地,X019(西苑路),北京市,北京市,门头沟,公司企业;公司;公司,170200,B0G13719KN,公司企业,公司,公司,
116.09909862109527,39.933559802898316,芳新丹鹏有限公司烟酒商店,大峪南路33号底商芳新丹鹏烟草商店,北京市,北京市,门头沟,购物服务;专卖店;烟酒专卖店|公司企业;公司;公司,061210|170200,B0FFGJR6I6,购物服务,专卖店,烟酒专卖店|公司企业,公司
116.10331392128411,39.9313985112462,北京圣点世纪装饰工程有限公司,月季园路(梨园-十七排),北京市,北京市,门头沟,公司企业;公司;公司,170200,B0HA7UXTVF,公司企业,公司,公司,
116.09969878076234,39.944123570981816,北京市门头沟烟草公司,蓝龙家园15号,北京市,北京市,门头沟,公司企业;公司;公司,170200,B000A87B10,公司企业,公司,公司,
116.09896085964718,39.93079987272073,康佑安大药房,新桥南大街49号-首层,北京市,北京市,门头沟,公司企业;公司;公司,170200,B0FFJH5QJK,公司企业,公司,公司,
116.10275482825695,39.92754440922691,京西旅投公司,国信嘉业大厦,北京市,北京市,门头沟,公司企业;公司;公司,170200,B0HGJBF72H,公司企业,公司,公司,
116.10014551866907,39.933668132934095,北京酒顺商贸有限公司,双峪路1-11号附近,北京市,北京市,门头沟,公司企业;公司;公司,170200,B0FFL81AGB,公司企业,公司,公司,
116.10806018338727,39.92644639484982,门头沟水利工程有限公司工程应急部,[],北京市,北京市,大峪村,公司企业;公司;公司,170200,B0G0R7EW3X,公司企业,公司,公司,
116.10076462653923,39.92944752113325,北京龙华实业公司,妙峰山镇大峪街道新桥南大街31号蓝涧大厦,北京市,北京市,门头沟,公司企业;公司;公司,170200,B000A1621B,公司企业,公司,公司,
116.10335359736173,39.93425441591133,十三MAN·空间设计·安居乐施工定制(门头沟店),双峪路7-3号,北京市,北京市,门头沟,公司企业;公司企业;公司企业,170000,B0G07A0TQ0,公司企业,公司企业,公司企业,
116.11017640926651,39.92366898701816,本乡良实面业有限责任公司,滨河南路3号3幢201门头沟检测场院内,北京市,北京市,永定,公司企业;公司;公司,170200,B0FFLFPO8E,公司企业,公司,公司,
116.10118557071223,39.940770228574834,艺语美佳装饰,绿岛教家园36号楼底商,北京市,北京市,大峪村,公司企业;公司;广告装饰|生活服务;生活服务场所;生活服务场所,170201|070000,B0FFG96YO3,公司企业,公司,广告装饰|生活服务,生活服务场所
116.10265113042719,39.93215117782653,双欲梨园,月季园路北200米,北京市,北京市,大峪村,公司企业;公司;公司,170200,B0FFGITQY3,公司企业,公司,公司,
116.10200022457893,39.934070820722404,北京佳美佳科技创新服务中心,双峪路5号6层,北京市,北京市,门头沟,公司企业;公司;公司,170200,B0FFM9I99T,公司企业,公司,公司,
116.10347756523274,39.93553942369225,龙欣顺达再生物资利用有限公司市场部,新桥南大街10号附近,北京市,北京市,门头沟,公司企业;公司;公司,170200,B0FFKUS7RR,公司企业,公司,公司,
116.10017052306321,39.9338091358546,北京九国科贸有限公司,双峪路1-6号附近,北京市,北京市,门头沟,公司企业;公司;公司,170200,B0FFHKKVQT,公司企业,公司,公司,
116.10151495828062,39.94022037905727,北京美鑫致远,石担路(绿岛水岸),北京市,北京市,大峪村,公司企业;公司企业;公司企业,170000,B0G23OFT44,公司企业,公司企业,公司企业,
116.09982758566855,39.930940135663,北京国久源商贸公司,新桥南大街13号院底商1东-8,北京市,北京市,门头沟,公司企业;公司;公司,170200,B0HAHZH2MQ,公司企业,公司,公司,
116.10361376741785,39.935106506335266,北京世纪城中兴建设工程有限公司,双峪路北100米,北京市,北京市,门头沟,公司企业;公司;建筑公司,170202,B0FFHK53YM,公司企业,公司,建筑公司,
116.13302817254124,39.936344170170464,广宁街道冬奥社区建设现场指挥部,[],北京市,北京市,广宁,公司企业;公司;公司,170200,B0G0YSLKAR,公司企业,公司,公司,
116.13311665463411,39.93417438545923,北京中电先科智能工程有限公司,高井路26号楼附近,北京市,北京市,广宁,公司企业;公司企业;公司企业,170000,B0FFH067LM,公司企业,公司企业,公司企业,
116.10125371589109,39.94014627947463,北京福柏坡商贸有限公司,石担路(绿岛水岸),北京市,北京市,大峪村,公司企业;公司;公司,170200,B0FFMB2U28,公司企业,公司,公司,
116.12540219479587,39.94589942772522,北京市京石大谷粮油供应站,石门路西100米,北京市,北京市,,公司企业;公司;公司,170200,B0FFHW6PL3,公司企业,公司,公司,
116.10271187457327,39.942430797331625,北京嫩源房地产开发公司,滨河路18号,北京市,北京市,门头沟,公司企业;公司;公司,170200,B0HAUZRSV0,公司企业,公司,公司,
116.1007751178731,39.94128305412332,福盛路达,石担路(绿岛水岸),北京市,北京市,大峪村,公司企业;公司;公司,170200,B0G1PUMD6Z,公司企业,公司,公司,
116.09925411110356,39.93076696139669,九国广告,门头沟新桥南大街13号院1层1南-8,北京市,北京市,门头沟,公司企业;公司;广告装饰,170201,B0H6USTERN,公司企业,公司,广告装饰,
116.10471114527842,39.9338481108314,北京华油联合燃气开发有限公司门头沟分公司,滨河路115号滨河大厦615,北京市,北京市,门头沟,公司企业;公司;公司,170200,B0FFG8H26R,公司企业,公司,公司,
116.10496659234512,39.92483660932432,北京市门头沟水利工程有限公司,新桥南大街62号,北京市,北京市,门头沟,公司企业;公司;公司,170200,B000AA13RH,公司企业,公司,公司,
116.12032498307444,39.94774638570399,北京皓宇融卉花草种植园,石门路星期六儿童成长乐园东200米,北京市,北京市,,公司企业;农林牧渔基地;其它农林牧渔基地,170400,B0FFFAD7YC,公司企业,农林牧渔基地,其它农林牧渔基地,
116.10874333056232,39.947952000390174,北京名宇装修公司,[],北京市,北京市,门头沟,公司企业;公司;公司,170200,B0G3X5DMJX,公司企业,公司,公司,
116.11819930405088,39.94628518762147,北京西工务段三家店线路车间三二线路工区,新河西路附近,北京市,北京市,,公司企业;公司;公司,170200,B0FFFADUA4,公司企业,公司,公司,
116.11210632492238,39.92280651833226,北京市华林春绿化工程公司,滨河路葡东公园南临葡东小区,北京市,北京市,门头沟,公司企业;公司;公司,170200,B000A8XCEE,公司企业,公司,公司,
116.10102137594777,39.94107315409743,北京福兵商贸有限公司,绿岛家园36号楼2层06-1,北京市,北京市,门头沟,公司企业;公司;商业贸易,170207,B0GRFRE139,公司企业,公司,商业贸易,
116.10286595839244,39.94302384330164,永定楼便民早市夜市招商部,河滩路与石担路交叉路口往东南约150米,北京市,北京市,门头沟,公司企业;公司;公司,170200,B0FFM8QM06,公司企业,公司,公司,
116.10326886174911,39.92368880152517,南院装饰公司,大峪街道新桥南大街69号南院装饰公司,北京市,北京市,门头沟,公司企业;公司;公司,170200,B0HGFX90WJ,公司企业,公司,公司,
116.10745901544948,39.92170419905161,七星长安售楼处,石龙北路15号,北京市,北京市,永定,公司企业;公司企业;公司企业,170000,B0GDDAUEZK,公司企业,公司企业,公司企业,
116.10063225036342,39.93921708362741,汽车轿车托运公司(门头沟店),石担路(绿岛家园),北京市,北京市,大峪村,公司企业;公司;公司,170200,B0G335Y377,公司企业,公司,公司,
116.10114425919224,39.94289112917887,百年传承酒业有限公司,滨河路47附近,北京市,北京市,门头沟,公司企业;公司企业;公司企业,170000,B0FFJLO343,公司企业,公司企业,公司企业,
116.10420963155201,39.92565818065948,北京富联华商贸有限公司,新桥南大街56号,北京市,北京市,大峪村,公司企业;公司;商业贸易,170207,B0FFFZJRAA,公司企业,公司,商业贸易,
116.12863439840105,39.94320073434846,兴泰工贸公司(高井分公司),石门路高井南街65号,北京市,北京市,,公司企业;公司;商业贸易,170207,B0FFFADT0H,公司企业,公司,商业贸易,
116.10026674151406,39.932783209921645,北京昊华能源股份有限公司,新桥南大街2号,北京市,北京市,龙泉,公司企业;公司;公司,170200,B0FFH7TSK4,公司企业,公司,公司,
116.10278498723673,39.94214284143431,千万家装饰公司,滨河路18号B座2单元302室,北京市,北京市,龙泉,公司企业;公司;广告装饰,170201,B0FFF29FG4,公司企业,公司,广告装饰,
116.1002036898216,39.93274218981458,北京京能招标集采中心有限责任公司,新桥南大街2号11号楼,北京市,北京市,大峪村,公司企业;公司;公司,170200,B0GU3ZHS34,公司企业,公司,公司,
116.09997104340562,39.943948667242594,蓝龙物业,蓝龙家园15号楼北京市门头沟区烟草专卖局附近,北京市,北京市,门头沟,公司企业;公司;公司,170200,B0FFL2I63T,公司企业,公司,公司,
116.10105440179869,39.94111516492884,北京宝宝爱吃餐饮管理有限公司,石担路(绿岛水岸),北京市,北京市,门头沟,公司企业;公司;公司,170200,B0GRMDY9VN,公司企业,公司,公司,
116.1129580975103,39.950313129045334,公共卫生网,[],北京市,北京市,,公司企业;公司企业;公司企业,170000,B0G25XZH6Z,公司企业,公司企业,公司企业,
116.111710856935,39.921859239243496,门头沟机动车检测场有限公司,滨河南路3号(葡东小区),北京市,北京市,门头沟,公司企业;公司;公司,170200,B0FFIY0HTU,公司企业,公司,公司,
116.09886971382315,39.93134482445347,盛世装饰工程有限公司,新桥南街京汉铂寓底商(物美旁),北京市,北京市,门头沟,公司企业;公司;公司,170200,B0FFHIXCOC,公司企业,公司,公司,
116.09719593485548,39.94275494862195,友信达,剧场东街绿岛家园1号楼110号,北京市,北京市,门头沟,购物服务;文化用品店;文化用品店|公司企业;公司;公司,060800|170200,B000A7R4WN,购物服务,文化用品店,文化用品店|公司企业,公司
116.10875845836374,39.9471130436154,北京东方聚丰金属彩钢板有限公司,龙泉三家店火车站,北京市,北京市,门头沟,公司企业;公司;公司,170200,B0FFFADXNA,公司企业,公司,公司,
116.10431345251315,39.943554520395075,北京市京水龙泉公司防汛抢险队,大峪街道滨河路12号,北京市,北京市,门头沟,公司企业;公司;公司,170200,B000A7PO2E,公司企业,公司,公司,
116.10146083010524,39.92521795745531,门头沟区液化气站,新桥南大街59号,北京市,北京市,门头沟,公司企业;公司;公司,170200,B0FFGI8AM0,公司企业,公司,公司,
116.12550610687052,39.948268465413605,北京兴盛隆恩资产管理有限公司,电建生活区,北京市,北京市,,公司企业;公司;公司,170200,B0HGA5ZQCZ,公司企业,公司,公司,
116.09949983735144,39.934542886450366,北京天人意创文化发展有限公司,新桥大街96号附近,北京市,北京市,大峪村,公司企业;公司;公司,170200,B0FFHLN5SF,公司企业,公司,公司,
116.12587888468819,39.948231937170455,北京市金中天贸易有限责任公司,石门路与黑石头路交叉路口往南约100米,北京市,北京市,,公司企业;公司;公司,170200,B0FFL34B5Z,公司企业,公司,公司,
116.10799659748703,39.9459795769339,金华豪装饰服务有限公司断桥铝门窗加工基地,水闸南路与西六环交叉口西北200米,北京市,北京市,门头沟,公司企业;公司;公司,170200,B0FFJGLFN6,公司企业,公司,公司,
116.09528781586052,39.94124567081352,瓷茗缘茶楼,河滩剧场东街甲10号,北京市,北京市,门头沟,餐饮服务;茶艺馆;茶艺馆|公司企业;公司;公司,050600|170200,B0FFF34VEI,餐饮服务,茶艺馆,茶艺馆|公司企业,公司
116.09782114897963,39.93698432082691,北京京西善和医药投资有限公司,新桥大街76号,北京市,北京市,门头沟,公司企业;公司;公司,170200,B0FFI0TEPJ,公司企业,公司,公司,
116.09686346237176,39.936753115894305,金城阜业(新桥大街),剧场东街8-16号附近,北京市,北京市,门头沟,生活服务;中介机构;中介机构|公司企业;公司;公司,071600|170200,B000A87CSF,生活服务,中介机构,中介机构|公司企业,公司
116.13648224023525,39.937429309385806,北京高井热电厂高井电力实业公司,高井路2号,北京市,北京市,广宁,公司企业;公司;公司,170200,B0FFGHBGOY,公司企业,公司,公司,
116.09611983595282,39.92977825510014,北京赫铭鑫商贸有限公司,育园路与高家园路交叉路口西南侧(峪园),北京市,北京市,门头沟,公司企业;公司;公司,170200,B0FFLA95PB,公司企业,公司,公司,
116.10519799000856,39.947219844454914,北京宝利家涂料有限公司,龙泉三家店西老店236-1号,北京市,北京市,门头沟,公司企业;公司;公司,170200,B0FFHCV1QZ,公司企业,公司,公司,
116.13091011440784,39.94581076289644,北京松涛恒业国际贸易有限公司,高井甲32号68号院,北京市,北京市,,公司企业;公司;公司,170200,B0FFGN7R25,公司企业,公司,公司,
116.13003469879143,39.94936040340432,银建公司,五里坨银建出租车电动汽车充电站,北京市,北京市,,公司企业;公司;公司,170200,B0FFI11DSC,公司企业,公司,公司,
116.09665754712327,39.94273283860142,北京腾飞顺恒公司,剧场东街8-15号附近,北京市,北京市,门头沟,公司企业;公司;公司,170200,B0FFL5X7KY,公司企业,公司,公司,
116.10412859780372,39.90961080629763,华润置地发展(北京)有限公司(门头沟PLUS365购物中心),冯石环路6号院3号楼Plus365购物中心2层L211室,北京市,北京市,门头沟,公司企业;公司;公司,170200,B0FFH0NMEB,公司企业,公司,公司,
116.09792746764684,39.942935111893526,金星广告,门头沟路(绿岛家园),北京市,北京市,门头沟,公司企业;公司;广告装饰,170201,B0G3U94DJP,公司企业,公司,广告装饰,
116.1091414664051,39.951080153716056,四公司社管中心,市三家店新建路25号中铁三局四公司社管中心,北京市,北京市,,公司企业;公司企业;公司企业,170000,B0HG0MXG6G,公司企业,公司企业,公司企业,
116.13552638071634,39.92606430160342,鑫威石钢(北京)商贸有限公司,广宁路(新世界实验幼儿园西南侧约200米),北京市,北京市,,公司企业;公司;公司,170200,B0GUM18YK7,公司企业,公司,公司,
116.11090183997999,39.928379342303295,北京国信好望物业管理有限公司滨河南区客户服务部,滨河居住区3,北京市,北京市,永定,公司企业;公司;公司,170200,B000A7P7HH,公司企业,公司,公司,
116.13568876731527,39.9260895474552,宣钢龙翔(北京)贸易有限公司,广宁路(新世界实验幼儿园西南侧约200米),北京市,北京市,,公司企业;公司;公司,170200,B0GRAZ20TH,公司企业,公司,公司,
116.09763325110833,39.942853043883666,绿海家园广告设计,剧场东街8-7号,北京市,北京市,大峪村,公司企业;公司;广告装饰,170201,B0G17HXHW3,公司企业,公司,广告装饰,
116.1088290699663,39.919660189725015,德汇工程管理(北京)有限公司,石龙北路20号院5层509室,北京市,北京市,门头沟,公司企业;公司;公司,170200,B0G2CR9QE6,公司企业,公司,公司,
116.13104497903633,39.94926181779075,金建岀租汽车七分公司,石景山城区石府路甲2号,北京市,北京市,,公司企业;公司;公司,170200,B0FFHEYMUV,公司企业,公司,公司,
116.09714877811679,39.93591520889307,西北京路桥瑞通养护中心有限公司,新桥家园2号楼,北京市,北京市,龙泉,公司企业;公司;公司,170200,B0HG66AGXE,公司企业,公司,公司,
116.10692803668458,39.947522837360204,北京荣福盛业食品有限责任公司,龙泉西老店234号,北京市,北京市,门头沟,公司企业;公司;公司,170200,B000A9Q19A,公司企业,公司,公司,
116.13851279315955,39.925069975157044,东山标段现场办公室,广宁路10号院内,北京市,北京市,广宁,公司企业;公司;公司,170200,B0GR5U2GN6,公司企业,公司,公司,
116.13853686697014,39.924959017781084,西山标段现场办公室,广宁路10号院内,北京市,北京市,广宁,公司企业;公司;公司,170200,B0GR5U39SM,公司企业,公司,公司,
116.10267406118126,39.925076473132115,中铁十八局集团北京公司门头沟项目经理部,新桥大街与高家园路交叉路口往南约200米,北京市,北京市,门头沟,公司企业;公司;公司,170200,B0FFLKHL0T,公司企业,公司,公司,
116.1386501575371,39.92488520035284,北山标段现场办公室,广宁路10号院内,北京市,北京市,广宁,公司企业;公司;公司,170200,B0GR5U3H5Z,公司企业,公司,公司,
116.11141464120736,39.92013407579059,京西鑫维康商贸有限责任公司,体北路18号(消防队往西100米),北京市,北京市,永定,公司企业;公司;商业贸易,170207,B0FFI620Z3,公司企业,公司,商业贸易,
116.09666364320312,39.93422917651506,北京永定惠民科技有限公司第一分公司,大峪南路与黑山东街交叉路口往东北约150米,北京市,北京市,门头沟,公司企业;公司;公司,170200,B0HGVDP6CA,公司企业,公司,公司,
116.09984260459329,39.946480525260405,北京禹鼎九洲科技有限公司,[],北京市,北京市,门头沟,公司企业;公司;公司,170200,B0G35OY6BJ,公司企业,公司,公司,
116.13829204595973,39.926646562338746,平范装饰公司,新立街2号西60米,北京市,北京市,广宁,公司企业;公司;广告装饰,170201,B0FFIUQBLA,公司企业,公司,广告装饰,
116.10971854484433,39.91761490140317,门头沟区体育文化中心项目部,永定镇16街区,北京市,北京市,永定,公司企业;公司;公司,170200,B0HGBMQV7I,公司企业,公司,公司,
116.14122508306286,39.937104862418764,北京天鑫吉建设工程有限公司,石门路南100米,北京市,北京市,广宁,公司企业;公司;建筑公司,170202,B0FFKS3YLH,公司企业,公司,建筑公司,
116.09416095047668,39.942678488418316,集邮公司,河滩路2号,北京市,北京市,门头沟,公司企业;公司;公司,170200,B0FFLPVILB,公司企业,公司,公司,
116.12275803360471,39.952465962339,北京长城兴盛置业有限公司,石门路东50米,北京市,北京市,,公司企业;公司;公司,170200,B0FFGY6IRU,公司企业,公司,公司,
116.09873911224972,39.94298232548072,环境国际旅行社有限公司(门头沟门市),[],北京市,北京市,大峪村,公司企业;公司;公司,170200,B0FFIA50J3,公司企业,公司,公司,
116.09455975238382,39.93824970163816,北京腾飞搬家公司(门头沟店),新桥大街甲43号楼,北京市,北京市,大峪村,公司企业;公司企业;公司企业,170000,B0FFL26O4Q,公司企业,公司企业,公司企业,
116.14122107399461,39.93709585621215,北京精诚华磊工程管理有限公司,高井路口南水塔路监理公司,北京市,北京市,广宁,公司企业;公司;建筑公司,170202,B0FFMBSYKS,公司企业,公司,建筑公司,
116.09806911989382,39.946508007090664,北京京西张张餐饮有限公司,剧场东街12号南50米,北京市,北京市,门头沟,公司企业;公司;公司,170200,B0FFL826DM,公司企业,公司,公司,
116.09802530012212,39.944836061634426,东研(北京)企业管理有限公司,桥东街18号,北京市,北京市,门头沟,公司企业;公司企业;公司企业,170000,B0FFKLU6SQ,公司企业,公司企业,公司企业,
116.09972164713209,39.945320531343626,北京租印宝办公设备租赁有限公司,桥东街与滨河路交叉口西北200米,北京市,北京市,门头沟,公司企业;公司企业;公司企业,170000,B0FFK7U86B,公司企业,公司企业,公司企业,
116.0939499673715,39.941614512866416,北京联通门头沟区分公司,新桥大街8号127室附近,北京市,北京市,门头沟,公司企业;公司;电信公司,170208,B0FFGXZFCJ,公司企业,公司,电信公司,
116.10299616128232,39.95808731265185,北京供电局门头沟供电局,新河路5号,北京市,北京市,门头沟,公司企业;公司;公司,170200,B000A7P0RL,公司企业,公司,公司,
116.09784589152972,39.94692793489018,宁安防器材有限公司,蓝龙家园一号楼底商S-01门,北京市,北京市,门头沟,公司企业;公司;公司,170200,B0FFIK3AUD,公司企业,公司,公司,
116.09788089803253,39.94708893717445,北京门警宁安防技术有限公司,蓝龙家园1号楼-S01,北京市,北京市,龙泉,公司企业;公司;公司|购物服务;专卖店;专营店,170200|061200,B0FFHC5341,公司企业,公司,公司|购物服务,专卖店
116.093958548443,39.94491338366311,门头沟区轮胎厂,城子大街132号院,北京市,北京市,门头沟,公司企业;公司;公司,170200,B0FFLC008D,公司企业,公司,公司,
116.10735071610148,39.95417384051724,管理间,[],北京市,北京市,门头沟,公司企业;公司企业;公司企业,170000,B0G3X5FAL2,公司企业,公司企业,公司企业,
116.10728362202168,39.954243795518444,福睿德,[],北京市,北京市,门头沟,公司企业;公司企业;公司企业,170000,B0G3X5FAL0,公司企业,公司企业,公司企业,
116.14112483022957,39.93708569915714,北京天蓝兴工程建设监理有限公司,高井路口南水塔路,北京市,北京市,广宁,公司企业;公司企业;公司企业,170000,B0FFJ084I2,公司企业,公司企业,公司企业,
116.09410996844817,39.94231149847523,北京翔林凯商贸有限公司,新桥大街2号,北京市,北京市,门头沟,公司企业;公司;商业贸易,170207,B0GRPUJNLQ,公司企业,公司,商业贸易,
116.1408218698004,39.92284177578643,京能热电,广宁路与阜石路交叉口西南100米,北京市,北京市,,公司企业;公司;公司,170200,B0FFHUEXC8,公司企业,公司,公司,
116.13808175473227,39.94843736824388,北京成安装饰有限公司,[],北京市,北京市,,公司企业;公司;广告装饰,170201,B0G2D6NEGZ,公司企业,公司,广告装饰,
116.10646143260551,39.94773154659717,北京韩建水利水电工程有限公司河西支线工程施工第四标段项目部,水闸南路(西老店牌楼东侧约150米),北京市,北京市,龙泉,公司企业;公司企业;公司企业,170000,B0FFMHQLIV,公司企业,公司企业,公司企业,
116.11694674026172,39.957036509315955,金色阳光广告有限公司,五里坨西街9号院18号楼1单元102室,北京市,北京市,,公司企业;公司;公司,170200,B0G2JGGPSO,公司企业,公司,公司,
116.13113322185302,39.917531209958554,东方园林门头沟项目部,石龙东路与西六环交叉口东北200米,北京市,北京市,,公司企业;公司企业;公司企业,170000,B0FFHSJAIX,公司企业,公司企业,公司企业,
116.13849074891526,39.94857900841375,筑九城(北京)建设有限公司,石府村南路,北京市,北京市,,公司企业;公司;公司,170200,B0HG0C0K5L,公司企业,公司,公司,
116.13772788143154,39.948445812069046,北京君建康捷商贸有限公司,石府路32号院北门,北京市,北京市,,公司企业;公司;公司,170200,B0H695KKPK,公司企业,公司,公司,
116.12642318848165,39.91557994008137,北京中盛鼎成机电设备有限公司,侯庄子新村七区9号,北京市,北京市,永定,公司企业;公司;公司,170200,B0G23ZBS85,公司企业,公司,公司,
116.10433545695521,39.94371152548431,北京市永定河防汛物资总库,滨河路12号,北京市,北京市,门头沟,公司企业;公司;公司,170200,B000A7R3UL,公司企业,公司,公司,
116.09408888809881,39.94284347572991,中国邮政集团公司门头沟区分公司,龙泉河滩路2号,北京市,北京市,门头沟,公司企业;公司;公司,170200,B0FFH13KVA,公司企业,公司,公司,
116.14121348059795,39.94948035776755,五州通达环保技术开发有限公司,黑石头上石府路88号,北京市,北京市,,公司企业;公司;公司,170200,B000A8XL8D,公司企业,公司,公司,
116.12557760581078,39.91416992464617,北京恒溢源建设工程有限公司,[],北京市,北京市,永定,公司企业;公司;公司,170200,B0G0DZ8UJJ,公司企业,公司,公司,
116.09480265681353,39.932344963332206,京能集团北京市热力集团有限责任公司门头沟分公司建井收费站,大峪南路34号楼附近,北京市,北京市,门头沟,公司企业;公司;公司,170200,B0FFL8EPA7,公司企业,公司,公司,
116.12975619816946,39.95626974964027,七三一二工厂,黑石头99号信箱,北京市,北京市,,公司企业;工厂;工厂,170300,B0FFG8E2V0,公司企业,工厂,工厂,
116.12472360756605,39.955261218410946,北京八方快洁清洗保洁有限公司,五里坨,北京市,北京市,,公司企业;公司;公司,170200,B0G1ZH6NL8,公司企业,公司,公司,
116.13868719717186,39.94888930767373,北京斯泰达建筑工程有限公司,高井甲32号北门,北京市,北京市,,公司企业;公司;建筑公司,170202,B0FFHUAHJ1,公司企业,公司,建筑公司,
116.1389309286868,39.94790673348947,北京通润德建筑装饰工程有限公司,石门路28号附近,北京市,北京市,,公司企业;公司;公司,170200,B0FFK02181,公司企业,公司,公司,
116.0931063375824,39.942981408327654,北京同仁堂善和医药有限公司,门头沟路1号石龙商业大厦1层东北角,北京市,北京市,门头沟,公司企业;公司;公司,170200,B0FFI8E9TR,公司企业,公司,公司,
116.10944962262742,39.95314429058408,北京西电务段三家店车间,城子街道新华路15号,北京市,北京市,,公司企业;公司;公司,170200,B000A7OTZA,公司企业,公司,公司,
116.11047498007848,39.95373701718945,北京西工务段三家店线路车间三家店线路工区,新华路附近,北京市,北京市,,公司企业;公司;公司,170200,B0FFK2YKJZ,公司企业,公司,公司,
116.13472571541698,39.95554992947949,西山机械厂,五里坨黑石头99号,北京市,北京市,,公司企业;公司企业;公司企业,170000,B0FFJ9V7BJ,公司企业,公司企业,公司企业,
116.09346153062133,39.95071312235731,北京祥龙公交客运有限公司第一分公司,城子东街1,北京市,北京市,门头沟,公司企业;公司;公司,170200,B000A87A4I,公司企业,公司,公司,
116.10923459360363,39.95107621923528,中共中铁三局集团第四工程有限公司委员会,三家店新建路25号,北京市,北京市,,政府机构及社会团体;政府机关;政府机关相关|公司企业;公司企业;公司企业,130100|170000,B000A7RAHO,政府机构及社会团体,政府机关,政府机关相关|公司企业,公司企业
116.133452637808,39.956154015486305,北京航飞宇科技有限责任公司,黑石头路99号院附近,北京市,北京市,,公司企业;公司;网络科技,170206,B0FFHB91H9,公司企业,公司,网络科技,
116.12838816076712,39.95653788270084,垸垄钰铠(北京)商贸有限公司,炮厂小区12号楼底,北京市,北京市,,公司企业;公司;公司,170200,B0FFJ5H4GK,公司企业,公司,公司,
116.11137055284601,39.9515557895603,中铁三局集团第四工程有限公司房地产管理段,城子街道三家店四局新建路27号,北京市,北京市,,公司企业;公司;公司,170200,B000A7REH5,公司企业,公司,公司,
116.11028771298145,39.953748876834695,北京铁路局北京西工务段三家店线路车间,新华路东100米,北京市,北京市,,公司企业;公司;公司,170200,B0FFFADUAC,公司企业,公司,公司,
116.11698817944644,39.922891902155605,北京市门头沟区粪便无害化处理厂,永定镇侯庄子污水处理厂南侧门头沟,北京市,北京市,永定,公司企业;工厂;工厂,170300,B000A85WPS,公司企业,工厂,工厂,
116.09550674566665,39.95067133137045,北京泾渭冠宇测绘有限公司,滨河路47号配套楼4层,北京市,北京市,门头沟,公司企业;公司;公司,170200,B000A879AN,公司企业,公司,公司,
116.09748239306165,39.956427476691374,北京市政路桥,水闸南路9号附近,北京市,北京市,门头沟,公司企业;公司;公司,170200,B0FFL87H6W,公司企业,公司,公司,
116.13558568639866,39.95620220254923,北京兴盛海畅实业有限公司,黑石头路33号,北京市,北京市,,公司企业;公司;公司,170200,B0HANZLYOU,公司企业,公司,公司,
116.09669769294824,39.95739027189482,京门专养段,水闸南路10号524室附近,北京市,北京市,门头沟,公司企业;公司;公司,170200,B0HASRA35Z,公司企业,公司,公司,
116.10561489614014,39.959555593239955,北京绿溪润谷科贸有限公司,[],北京市,北京市,,公司企业;公司;公司,170200,B0HAUAPOB9,公司企业,公司,公司,
116.1356858347576,39.95692632662268,北京中飞科仪科技有限公司,黑石头路西100米,北京市,北京市,,公司企业;公司企业;公司企业,170000,B0FFJRHQ0D,公司企业,公司企业,公司企业,
116.10372486164863,39.9119035087929,北京兰龙机动车保修有限责任公司,冯石环路(北京市门头沟区光荣院北侧约50米),北京市,北京市,门头沟,公司企业;公司;公司,170200,B0GK6OS2Q8,公司企业,公司,公司,
116.12330352026713,39.91792598396744,北京京电开光电气安装有限公司,[],北京市,北京市,永定,公司企业;公司;公司,170200,B000A8XBGK,公司企业,公司,公司,
116.108328826756,39.95538542910131,北京铁路局北京西工务段检查监控车间一工区,三家店老宿舍18号,北京市,北京市,,公司企业;公司;公司,170200,B0FFHB93QF,公司企业,公司,公司,
116.13133846303649,39.958522871106865,北京华鼎宏达商贸有限责任公司,潭峪路(炮厂小区东北侧约100米),北京市,北京市,,公司企业;公司;公司,170200,B0FFM0OO0C,公司企业,公司,公司,
116.10861077917187,39.95867049083869,北京三家店粮食收储库工会委员会,三家店东街12附近,北京市,北京市,,公司企业;公司企业;公司企业,170000,B0FFL52HTP,公司企业,公司企业,公司企业,
116.10861708818149,39.956326586770615,中国铁路北京局集团有限公司北京西工务段,城子街道三家店老宿舍八号,北京市,北京市,,公司企业;公司;公司,170200,B0FFHB8ZX7,公司企业,公司,公司,
116.10275790966732,39.9581122036441,北京门供电力工程有限公司,新河路5号(三家店老供电局),北京市,北京市,门头沟,公司企业;公司;公司,170200,B0FFG8E6C5,公司企业,公司,公司,
116.13405592779185,39.95714186797659,北京东土科技股份有限公司(五里坨工厂),炮厂路东100米,北京市,北京市,,公司企业;公司;冶金化工,170205,B0FFIAJC3W,公司企业,公司,冶金化工,
116.13898865461965,39.95905039060982,黑石头农工商联合公司(黑陈路),黑石头村,北京市,北京市,,公司企业;公司;公司,170200,B000A886J1,公司企业,公司,公司,
116.09754424541015,39.95794143171582,欧玛嘉宝安瑞吉(北京)电气设备有限公司,水闸北路与水闸南路交叉口东100米,北京市,北京市,门头沟,公司企业;公司;机械电子,170204,B0FFFAJP76,公司企业,公司,机械电子,
116.1371942640467,39.958723577912984,北京市西山试验林场黑石头分场,黑石头南街51号黑石头社区服务站(居委会)右手林场,北京市,北京市,,公司企业;农林牧渔基地;其它农林牧渔基地|公司企业;公司;公司|公司企业;工厂;工厂,170400|170200|170300,B0FFG8SNMQ,公司企业,农林牧渔基地,其它农林牧渔基地|公司企业,公司
116.11849239645414,39.89485862222995,精雕科技,上园路与莲石湖西路交汇处西200米,北京市,北京市,永定,公司企业;公司;网络科技,170206,B0FFGBO7ZI,公司企业,公司,网络科技,
116.11421356200746,39.89953729592114,北京万辉双鹤药业有限责任公司,石龙工业开发区上园路1号,北京市,北京市,永定,公司企业;公司;医药公司,170203,B000A00B87,公司企业,公司,医药公司,
116.11486297177555,39.896690006759144,九发药业,石龙工业区上园路10号,北京市,北京市,永定,公司企业;公司;医药公司,170203,B000A7PPEW,公司企业,公司,医药公司,
116.11431694430406,39.89783846351276,北京东西分析仪器有限公司,石龙工业区上园路3号,北京市,北京市,永定,公司企业;公司;公司,170200,B000A8XLWN,公司企业,公司,公司,
116.11295074349648,39.898282260012,北京意高科技有限公司,石龙开发区美安路3号,北京市,北京市,永定,公司企业;公司;网络科技,170206,B000A4FA6F,公司企业,公司,网络科技,
116.11580534117631,39.89811681633187,北京奉发凯胜科技有限公司,大台街道美安路6号,北京市,北京市,永定,公司企业;公司;网络科技,170206,B0FFG8UR0D,公司企业,公司,网络科技,
116.11495489769914,39.89844101220425,北京瑞得伊格尔科技有限公司,石龙工业区美安路5号,北京市,北京市,永定,公司企业;公司;网络科技,170206,B000A8XLBL,公司企业,公司,网络科技,
116.11589549066004,39.89812490116257,沈铁奉发科技集团,美安路6号,北京市,北京市,永定,公司企业;公司;公司,170200,B0HGFB46OK,公司企业,公司,公司,
116.11576922222609,39.898576761761525,大唐国投医药有限公司,美安路7号德山大厦1幢,北京市,北京市,永定,公司企业;公司;公司,170200,B0FFJH0TUG,公司企业,公司,公司,
116.11565622533567,39.89708072241158,洪源智能工坊,永定石龙经济开发区上园路甲10号2幢,北京市,北京市,永定,公司企业;公司;公司,170200,B0FFHSF3YM,公司企业,公司,公司,
116.11855442439854,39.895507657151285,北京精雕科技公司东区,永定镇石龙工业区永安路10号,北京市,北京市,永定,公司企业;公司;公司,170200,B0G3DG0CFE,公司企业,公司,公司,
116.11187512337018,39.89822637824032,北京宏华电器有限公司,长安街西延线美安路一号IDM智能科技园,北京市,北京市,永定,公司企业;工厂;工厂,170300,B000A7FPHM,公司企业,工厂,工厂,
116.1143322543359,39.89560357758703,精雕科技,永定镇石龙经济开发区华园路4号,北京市,北京市,永定,公司企业;公司;网络科技|购物服务;购物相关场所;购物相关场所,170206|060000,B0FFL5VDCB,公司企业,公司,网络科技|购物服务,购物相关场所
116.1163475961736,39.89542145411057,中铁电化,石龙工业区永安路甲14号,北京市,北京市,永定,公司企业;公司;公司,170200,B0G2KHS9KM,公司企业,公司,公司,
116.1119820293147,39.90020837612611,恒印机械,经济开发区泰安路6号,北京市,北京市,永定,公司企业;公司;机械电子,170204,B000A87WKW,公司企业,公司,机械电子,
116.11495489744324,39.89844301211483,蓝色星际,美安路5号B座,北京市,北京市,永定,公司企业;公司;公司,170200,B0FFFAC9I5,公司企业,公司,公司,
116.115828511497,39.8970858843408,北京航天环境工程有限公司,新城大街上园路甲10号洪源智能工坊5层,北京市,北京市,永定,公司企业;公司;公司,170200,B0FFITJ9X4,公司企业,公司,公司,
116.1157692256803,39.898549762968,北京凯恩梅格医药科技有限公司,美安路7号德山大厦,北京市,北京市,永定,公司企业;公司;公司,170200,B0HG6NCNNM,公司企业,公司,公司,
116.11980370789286,39.895368985327686,安耐吉电力设备,永安路20号石龙高科大厦1号楼,北京市,北京市,永定,公司企业;公司;公司,170200,B0G3ZDR4AR,公司企业,公司,公司,
116.11576922222609,39.898576761761525,北京百华百汇生物科技有限公司,永定石龙工业开发区美安路7号德山大厦5层,北京市,北京市,永定,公司企业;公司;公司,170200,B0FFL02V9V,公司企业,公司,公司,
116.12000106771677,39.895401197408546,国科永信科技有限公司,石龙经济开发区永安路20号1号楼11层3单元1102,北京市,北京市,永定,公司企业;公司;公司,170200,B0GKAZ2EHM,公司企业,公司,公司,
116.11574218870179,39.89848674031648,北京沙东生物技术有限公司,永定镇美安路7号德山大厦401,北京市,北京市,永定,公司企业;公司;公司,170200,B0FFHRHK6J,公司企业,公司,公司,
116.11577924787055,39.8985067743285,北京弘海科技发展有限公司,美安路7号德山大厦9F,北京市,北京市,永定,公司企业;公司;公司,170200,B0FFI8GRJE,公司企业,公司,公司,
116.11411076244882,39.896686332230026,北京嘉禾智茂北京智能科技有限公司,石龙经济开发区上原路5号,北京市,北京市,永定,公司企业;公司;网络科技,170206,B0GDT5Y2HR,公司企业,公司,网络科技,
116.11525138380348,39.8984332849587,雪莲集团,永定镇石龙工业美安路5号A座,北京市,北京市,永定,公司企业;公司;公司,170200,B0FFH13HDN,公司企业,公司,公司,
116.11978673561636,39.89490698792643,京西杂谈,石龙高科2号楼4单元2层,北京市,北京市,永定,公司企业;公司;公司,170200,B0FFLHVO7P,公司企业,公司,公司,
116.11978573441303,39.894901987073474,京西杂谈集合体,石龙高科大厦2号楼4单元2层,北京市,北京市,永定,公司企业;公司;公司,170200,B0FFLHROM9,公司企业,公司,公司,
116.11467939620523,39.89886574293668,品牌服装工厂店,上园路6号,北京市,北京市,永定,公司企业;公司企业;公司企业,170000,B0FFIQEWTJ,公司企业,公司企业,公司企业,
116.11980370789286,39.895368985327686,五月书香图书有限责任公司,永定地区永安路20号石龙高科大厦1号楼,北京市,北京市,永定,公司企业;公司;公司,170200,B0HGVKND28,公司企业,公司,公司,
116.11984079209526,39.895244031003394,北京中企导航科技有限公司,石龙经济开发区永安路20号1号楼14层2单元1401,北京市,北京市,永定,公司企业;公司;公司,170200,B0FFMFF4L9,公司企业,公司,公司,
116.12044186259337,39.895587670495324,北京洋溢鸿源科贸有限公司,石龙经济开发区永安路20号3号楼A-7405室,北京市,北京市,永定,公司企业;公司;公司,170200,B0FFMBCA9F,公司企业,公司,公司,
116.11982273589045,39.89542400337354,北京完美起点广告有限公司,永安路20号高科大厦1号楼1单元202,北京市,北京市,永定,公司企业;公司企业;公司企业,170000,B0FFJ29BU5,公司企业,公司企业,公司企业,
116.11469240792317,39.89893875145069,北京剑江制衣集团,石龙工业区上园路6号(德山大厦旁),北京市,北京市,永定,公司企业;公司;公司,170200,B0FFG8GHWY,公司企业,公司,公司,
116.11247376027748,39.90027677402955,印捷文化空间,[],北京市,北京市,永定,公司企业;公司;公司|生活服务;生活服务场所;生活服务场所,170200|070000,B0G0SU17WJ,公司企业,公司,公司|生活服务,生活服务场所
116.11849554193441,39.89376267526544,融创亿达企业孵化中心,平安路1号,北京市,北京市,永定,公司企业;公司;公司,170200,B0GRHSU0HJ,公司企业,公司,公司,
116.12077449366694,39.895525040847836,小K秀,石龙经济开发区永安路20号3号楼A-5120室,北京市,北京市,永定,公司企业;公司;公司,170200,B0FFM9YR8B,公司企业,公司,公司,
116.11488566069181,39.89941390574511,牧晨公司,经济开发区上园路4号,北京市,北京市,永定,公司企业;公司;公司,170200,B000A45D43,公司企业,公司,公司,
116.11480595365043,39.8961069811492,北京一诺先科装备技术有限公司,上园路甲10号附近,北京市,北京市,永定,公司企业;公司企业;公司企业,170000,B0FFKO02D2,公司企业,公司企业,公司企业,
116.12006919460305,39.89539427172789,北京国科建业能源科技有限公司,永安路20号1号楼11层3单元1101,北京市,北京市,永定,公司企业;公司;公司,170200,B0GKSZIYYD,公司企业,公司,公司,
116.12066432533368,39.89522293238019,北京中科越洋科技有限公司,永定镇永安路20号石龙高科大厦,北京市,北京市,永定,公司企业;公司;公司,170200,B0FFLG3P8K,公司企业,公司,公司,
116.11968755482724,39.89489588165593,安亿通消防安全技术有限公司,石龙高科大厦2号楼4单元3层,北京市,北京市,永定,公司企业;公司;公司,170200,B0FFLNARJ6,公司企业,公司,公司,
116.11391508566216,39.899553031998714,通安建设工程有限公司,门头沟区经济开发区美安路5号C座一楼,北京市,北京市,永定,公司企业;公司;公司,170200,B0FFGY6Q03,公司企业,公司,公司,
116.12078752671702,39.89545805834623,北京毕泽科技服务有限公司,永安路,北京市,北京市,永定,公司企业;公司企业;公司企业,170000,B0FFLAAO66,公司企业,公司企业,公司企业,
116.11812485412293,39.89399128335012,北京安贝安科技有限公司,北京市门头沟区平安路一号融创亿达2幢206-207。,北京市,北京市,永定,公司企业;公司企业;公司企业,170000,B0HAO5JJ4Y,公司企业,公司企业,公司企业,
116.12022590967948,39.89206659408362,北京金龙泉泵业,桥园路1号2层,北京市,北京市,永定,公司企业;公司;公司,170200,B000A7PLH1,公司企业,公司,公司,
116.11981372198073,39.89540299459493,璟尚国际建筑设计院(北京)有限公司,永安路20号北京市门头沟区永安路20号石龙高科大厦1号楼2单元302,北京市,北京市,永定,公司企业;公司;公司,170200,B0FFLBZ3LQ,公司企业,公司,公司,
116.11904649968214,39.901848889230955,北京天创至臻装饰工程有限公司,金沙西街19号院8号楼1层111室,北京市,北京市,永定,购物服务;便民商店/便利店;便民商店/便利店|公司企业;公司;公司,060200|170200,B0FFK955PI,购物服务,便民商店/便利店,便民商店/便利店|公司企业,公司
116.11536295590103,39.89539152483557,北京格兰中创液压泵有限公司,永安路12号,北京市,北京市,永定,公司企业;公司;公司,170200,B0FFHLY7AG,公司企业,公司,公司,
116.1207108075532,39.89212612491751,更读智慧空间,桥园路1号中关村人工智能文创园一层,北京市,北京市,永定,公司企业;公司;网络科技,170206,B0GKJAWRRT,公司企业,公司,网络科技,
116.12065530663631,39.89523692176774,北京中创华拓科技发展有限公司,永安路20号石龙高科大厦2号楼内,北京市,北京市,永定,公司企业;公司;公司,170200,B0G1PNH42Z,公司企业,公司,公司,
116.12075949570703,39.89528803490901,北京华信宏通商业管理有限公司,石龙经济开发区永安路20号3号楼A-2929室,北京市,北京市,永定,公司企业;公司;公司,170200,B0G2X7KCYU,公司企业,公司,公司,
116.10811172150333,39.89933257434068,石龙商务中心,泰安路与龙园路交叉口南150米,北京市,北京市,永定,公司企业;公司;公司,170200,B000A7QCI9,公司企业,公司,公司,
116.11343187283134,39.89527680422347,北京精雕科技有限公司-西区,永安路与上园路交叉路口往西南约50米,北京市,北京市,永定,公司企业;公司;公司,170200,B0FFKY051F,公司企业,公司,公司,
116.1206733289547,39.89532693764353,北京华琪伟业企业管理咨询有限公司,永安路20号3号楼A-2142室,北京市,北京市,永定,公司企业;公司;公司,170200,B0H6SGW9X1,公司企业,公司,公司,
116.12126148222356,39.89499060950747,北京昭天下教育科技有限公司,石龙经济开发区永安路20号3号楼B1-6238室,北京市,北京市,永定,公司企业;公司;公司,170200,B0FFL6MVLR,公司企业,公司,公司,
116.11838834777524,39.90162121289019,北京力天鸿鑫科技有限公司,远洋新天地6栋,北京市,北京市,永定,公司企业;公司;公司,170200,B0G0ABQWFQ,公司企业,公司,公司,
116.11967479933796,39.89279596352704,北京卉林科技有限公司,石龙经济开发区平安路5号4栋DY787号,北京市,北京市,永定,公司企业;公司;公司,170200,B0GK27IT44,公司企业,公司,公司,
116.12128854947294,39.894866645607166,北京爱万德商贸有限公司,石龙经济开发区永安路20号3号楼B1-6459室,北京市,北京市,永定,公司企业;公司;公司,170200,B0FFHHQU3A,公司企业,公司,公司,
116.1238084710557,39.894831586266115,遨博(北京)智能科技有限公司,北京市门头沟区莲石湖西路98号石龙阳光大厦（西侧）801,北京市,北京市,永定,公司企业;公司;网络科技,170206,B0FFM2NRP8,公司企业,公司,网络科技,
116.14082460086954,39.901381686758214,中铁北京工程局集团,玉带东二街161号,北京市,北京市,永定,公司企业;公司;建筑公司,170202,B0FFI1BJKQ,公司企业,公司,建筑公司,
116.1210179671212,39.895411317258784,北京楼魔方科技有限责任公司,经济开发区永安路20号3号楼A-4349室,北京市,北京市,永定,公司企业;公司;公司,170200,B0FFH3R94A,公司企业,公司,公司,
116.12090979085787,39.895192206400964,北京路桥方舟交通科技发展有限公司,石龙高科大厦3号楼7层,北京市,北京市,永定,公司企业;公司;公司,170200,B0GRUS5QCO,公司企业,公司,公司,
116.12090578419682,39.89518520225213,北京路桥诺亚方舟园林绿化有限公司,门头沟区永定镇石龙高科大厦3号楼7层,北京市,北京市,永定,公司企业;公司;公司,170200,B0GRC7CN56,公司企业,公司,公司,
116.11856567766564,39.89368075169842,北京天元陆兵汽车科技有限公司,永定镇平安路1号融创亿达创业园315号,北京市,北京市,永定,公司企业;公司;公司,170200,B0GRJSMSUV,公司企业,公司,公司,
116.11812067642809,39.90315887049485,亚琦集团,新城东街17号院5号楼,北京市,北京市,永定,公司企业;公司;公司,170200,B0FFLMI7WC,公司企业,公司,公司,
116.12006042521966,39.89345935002362,北京凝华科技有限公司,工业区平安路5号,北京市,北京市,永定,公司企业;公司;公司,170200,B0FFHI93WB,公司企业,公司,公司,
116.12119106796244,39.897190431218064,北京公共交通控股(集团)有限公司客八分公司第九车队,永安路附近,北京市,北京市,永定,公司企业;公司;公司,170200,B0FFL4GGNG,公司企业,公司,公司,
116.12275545065943,39.89432235714023,态集集团,莲石湖西路98号院7号楼13层,北京市,北京市,永定,公司企业;公司企业;公司企业,170000,B0FFKXZA7J,公司企业,公司企业,公司企业,
116.11812309080217,39.89211236739332,北京捷润科技有限公司,谭园路1号华悦大厦3层,北京市,北京市,永定,公司企业;公司;公司,170200,B0HG6DD95U,公司企业,公司,公司,
116.11782148416287,39.892701033435145,北京世纪兴业,工业区平安路2号,北京市,北京市,永定,公司企业;公司;公司,170200,B0FFFACYGR,公司企业,公司,公司,
116.11803894749808,39.89207028337369,中国化学,永定镇谭园路1号院华悦大厦,北京市,北京市,永定,公司企业;公司;公司,170200,B0FFL9ADMC,公司企业,公司,公司,
116.11199526689849,39.89850446249873,北京中建乐孚集团有限公司,长安街西延线美安路1号IDM智能科技园,北京市,北京市,永定,公司企业;公司;广告装饰,170201,B0FFLHEXD1,公司企业,公司,广告装饰,
116.12397880934638,39.89485579091995,智源创芯硬科技孵化器,石龙阳光大厦5号楼7层,北京市,北京市,永定,公司企业;公司;公司,170200,B0GR6UZ1MA,公司企业,公司,公司,
116.11200127792043,39.89848846806228,北京中建乐孚装饰工程有限公司,长安街西延线美安路1号IDM智能科技园,北京市,北京市,永定,公司企业;公司;公司,170200,B0GD371UHQ,公司企业,公司,公司,
116.11965468309616,39.893417913512465,北京世纪拓鑫精细化工有限公司,石龙经济开发区平安路5号4幢213室,北京市,北京市,永定,公司企业;公司;公司,170200,B0FFJGE7NF,公司企业,公司,公司,
116.12063751141291,39.893369986873424,中石油铁工油品销售有限公司,石龙经济开发区平安路7号院,北京市,北京市,永定,公司企业;公司;公司,170200,B0GRHSSTVB,公司企业,公司,公司,
116.11902955993718,39.89330125398742,北京华腾佳和塑胶挤出机有限公司,[],北京市,北京市,永定,公司企业;公司;公司,170200,B0HGVSNZRG,公司企业,公司,公司,
116.12398788670252,39.89439182294545,北京他山科技有限公司,莲石湖西路98号院602-4室,北京市,北京市,永定,公司企业;公司;公司,170200,B0FFKDRC2N,公司企业,公司,公司,
116.12364620836576,39.89434941295703,西山医谷(北京)科技有限公司,莲石湖西路98号院7号楼801,北京市,北京市,永定,公司企业;公司;公司,170200,B0HB65LYJM,公司企业,公司,公司,
116.11710075252223,39.90427179635064,HARUTO哈鲁托,北京长安天街商场L3-10,北京市,北京市,永定,公司企业;公司;公司,170200,B0G30HKLTK,公司企业,公司,公司,
116.11799887399569,39.89209224151525,中化学建设投资集团有限公司,谭园路华悦大厦1-2层,北京市,北京市,永定,公司企业;公司企业;公司企业,170000,B0FFJZ524Q,公司企业,公司企业,公司企业,
116.1098208123785,39.901001685164495,北京暖芯科技有限公司,泰安路7号院,北京市,北京市,永定,公司企业;公司;公司,170200,B0HABBPQI9,公司企业,公司,公司,
116.11991316312927,39.89338119385,北京神州灵山新材料有限公司,永定石龙工业区平安路5号,北京市,北京市,永定,公司企业;公司;公司,170200,B0FFG8GSGV,公司企业,公司,公司,
116.12059849929408,39.89289196558551,大源非织造公司南区,桥园路3,北京市,北京市,永定,公司企业;公司;公司,170200,B0FFF2LHP6,公司企业,公司,公司,
116.12364821453357,39.894332416136855,北京迈迪培尔信息技术有限公司,莲石湖西路98号院7号楼801-1,北京市,北京市,永定,公司企业;公司;公司,170200,B0HB65LR78,公司企业,公司,公司,
116.11989412023509,39.89344217046459,北京神州灵山叶腊石有限公司(美安路),平安路5号,北京市,北京市,永定,公司企业;公司;公司,170200,B0FFFABW5J,公司企业,公司,公司,
116.12412411070969,39.89478297042248,北京英田影视文化股份有限公司,莲石湖西路98号院5号楼2303室,北京市,北京市,永定,公司企业;公司;公司,170200,B0FFL1L2YY,公司企业,公司,公司,
116.11060828406995,39.898168394078816,歌华有线电视网络股份有限公司门头沟分公司,工业区美安路甲1号,北京市,北京市,永定,公司企业;公司;公司,170200,B000A95CC7,公司企业,公司,公司,
116.12006461857774,39.89200442114939,北京明创开元信息技术有限公司,石龙经济开发区桥园路1号1幢1层110室,北京市,北京市,永定,公司企业;公司;公司,170200,B0FFMBBHWX,公司企业,公司,公司,
116.11866489415031,39.893375868724064,中铁三局北京轨道交通11号线西段工程轨道及安装工程项目经理部,永定镇平安路1号,北京市,北京市,永定,公司企业;公司;公司,170200,B0GK5AAI72,公司企业,公司,公司,
116.11790969407434,39.89227114259296,北京方向华信电子有限公司,石龙科技园谭园路1号院华悦大厦5层,北京市,北京市,永定,公司企业;公司企业;公司企业,170000,B0FFIR1O5U,公司企业,公司企业,公司企业,
116.12096300641947,39.89428930668413,北京科星瑞特电磁兼容工程技术有限公司,桥园路5号,北京市,北京市,永定,公司企业;公司企业;公司企业,170000,B0FFIA7URM,公司企业,公司企业,公司企业,
116.1059557576889,39.901383149910735,北京华尔盾生物技术有限公司,门头沟区经济开发区泰安路1号,北京市,北京市,永定,公司企业;公司;公司,170200,B000A87VZT,公司企业,公司,公司,
116.1211240787339,39.903949057486784,明乐游文化发展有限公司,永定镇金沙西街10号院华润悦景湾3号楼,北京市,北京市,永定,公司企业;公司;公司,170200,B0HGV6LRF9,公司企业,公司,公司,
116.12400593096274,39.89432884765628,北京博雅特照明科技有限责任公司,莲石湖西路与桥园路交叉路口往东南约200米,北京市,北京市,永定,公司企业;公司;公司,170200,B0FFL2L5G6,公司企业,公司,公司,
116.12446140438875,39.89782324511637,北京京能地质工程公司特种工程技术分公司,莲石湖西路(电建·金地华宸东南侧约200米),北京市,北京市,永定,公司企业;公司;公司,170200,B0GKVH4CSG,公司企业,公司,公司,
116.12224430932743,39.90329936211298,北京泰科博瑞科技有限公司,金沙西街10号院5号楼11层1112,北京市,北京市,永定,公司企业;公司;公司,170200,B0FFLA1D1E,公司企业,公司,公司,
116.12005660387534,39.892003412482715,图林科技(北京)有限责任公司,中关村(京西)人工智能科技园·智能文创园2楼204,北京市,北京市,永定,公司企业;公司;商业贸易,170207,B0GRTCFP0B,公司企业,公司,商业贸易,
116.11054686377089,39.900770232213745,北京联和万方体育科技有限公司,泰安路7号院1单元2层,北京市,北京市,永定,公司企业;公司;公司,170200,B0G0LSGV78,公司企业,公司,公司,
116.10901342628024,39.8953703631333,优胜然生物,永定镇永安路6号,北京市,北京市,永定,公司企业;公司;公司,170200,B0FFHR0D2M,公司企业,公司,公司,
116.12271322943134,39.90325091020652,北京奕琳国际贸易有限公司,金沙西街10号院5号楼7层710,北京市,北京市,永定,公司企业;公司;公司,170200,B0GR3CKD78,公司企业,公司,公司,
116.12050231631274,39.89291585840062,北京大源非织造股份有限公司(桥园路),石龙经济开发区桥园路3号,北京市,北京市,永定,公司企业;公司;公司,170200,B0FFHB8ZI6,公司企业,公司,公司,
116.12419324064454,39.89485605116865,欧思徕(北京)智能科技有限公司,莲石湖西路98号院5号楼4层,北京市,北京市,永定,公司企业;公司;公司,170200,B0FFH1ILJD,公司企业,公司,公司,
116.1186113571143,39.90466631077058,远洋新天地售楼处,泰安路北50米,北京市,北京市,永定,公司企业;公司;广告装饰,170201,B0FFH178PN,公司企业,公司,广告装饰,
116.12210184935998,39.90474213480104,暖视觉,华润悦景湾1号楼1106室,北京市,北京市,永定,公司企业;公司;公司,170200,B0FFLGWKJC,公司企业,公司,公司,
116.11543771987232,39.89037482375965,北京圣洁菲商贸有限公司,惠润家园七地块3号楼,北京市,北京市,永定,公司企业;公司企业;公司企业,170000,B0G2OZFYXS,公司企业,公司企业,公司企业,
116.1100019572335,39.90184378015647,北京鑫晟恒亿科技有限公司,雅安路6号利德衡大厦C座801,北京市,北京市,永定,公司企业;公司;公司,170200,B0FFLJHW3Y,公司企业,公司,公司,
116.12551594639079,39.8948056893221,北京嘉景生物科技有限责任公司,莲石湖西路98号院新华阳光大厦北楼中单元502号,北京市,北京市,永定,公司企业;公司;公司,170200,B0FFM6910Q,公司企业,公司,公司,
116.13423686520076,39.89026290168474,北京碧水源环境科技有限公司,019县道东50米,北京市,北京市,永定,公司企业;公司;网络科技,170206,B000A886TI,公司企业,公司,网络科技,
116.1240049621519,39.894068858293885,北京九鼎图业科技有限公司,莲石湖西路98号院7号楼605室,北京市,北京市,永定,公司企业;公司企业;公司企业,170000,B0FFHWG2OR,公司企业,公司企业,公司企业,
116.11803594487864,39.89204928127504,中国共产党中化学建设投资集团有限公司委员会,新城大街与平安路交叉路口往东南约150米,北京市,北京市,永定,公司企业;公司企业;公司企业,170000,B0HA19GL0X,公司企业,公司企业,公司企业,
116.12391475132385,39.89430273852209,北京奥特易电子科技有限责任公司,莲石湖西路98号院7号楼602,北京市,北京市,永定,公司企业;公司;公司,170200,B0FFIDBGSO,公司企业,公司,公司,
116.12508715602233,39.894084186046875,北京奥特尼克科技有限公司,莲石湖西路98号院8号楼,北京市,北京市,永定,公司企业;公司;公司,170200,B0FFGZ0JM2,公司企业,公司,公司,
116.12366041321707,39.89296449308711,北京态集科技文化产业集团有限公司,桥园路与平安路交叉路口往东约200米,北京市,北京市,永定,公司企业;公司;公司,170200,B0FFL4NZCY,公司企业,公司,公司,
116.10975107148552,39.89821875816369,北京市热力集团有限责任公司门头沟分公司,永定镇石龙经济开发区龙园路10号,北京市,北京市,永定,公司企业;公司企业;公司企业,170000,B0FFKEFJJV,公司企业,公司企业,公司企业,
116.12186740088924,39.904711866770796,德圣建设管理集团有限公司,金沙西街10号院2号楼20层2004室,北京市,北京市,永定,公司企业;公司;公司,170200,B0GRMC049Q,公司企业,公司,公司,
116.11052570345576,39.90178817143254,北京中晟泰科环境科技发展有限公司,雅安路6号利德衡大厦A座5层,北京市,北京市,永定,公司企业;公司;公司,170200,B0FFLKMOJJ,公司企业,公司,公司,
116.10704092958753,39.90262474399512,格兰力士机电技术有限责任公司,经济工业区平安路7号,北京市,北京市,永定,公司企业;公司;机械电子,170204,B000A95CKN,公司企业,公司,机械电子,
116.10783215708852,39.90090432158618,北京金地超硬材料公司,工业区龙园路甲5号,北京市,北京市,永定,公司企业;公司;公司,170200,B000A7PKRB,公司企业,公司,公司,
116.10753856974169,39.902545060333075,格兰液压,[],北京市,北京市,永定,公司企业;公司;公司,170200,B0G0DHAPVQ,公司企业,公司,公司,
116.11042655614469,39.90183809483952,北京沃尔德斯水务科技有限公司,永定镇雅安路6号利德衡大厦A座6层,北京市,北京市,永定,公司企业;公司;公司,170200,B0FFI01FEW,公司企业,公司,公司,
116.10783817817855,39.900800330090384,天启星公司,龙园路甲5号附近,北京市,北京市,永定,公司企业;公司企业;公司企业,170000,B0FFIUJP5R,公司企业,公司企业,公司企业,
116.10790492808967,39.90343025805001,北京无极液压工程有限公司,工业区龙园路1号,北京市,北京市,永定,公司企业;公司;公司,170200,B000A7UN39,公司企业,公司,公司,
116.11005502755653,39.901874817721804,北控水务建设发展有限公司,永定镇北京利德衡环保工程有限公司,北京市,北京市,永定,公司企业;公司企业;公司企业,170000,B0FFHOJD3M,公司企业,公司企业,公司企业,
116.10799141129485,39.90053144201458,北京赛威防火材料有限公司,龙园路甲5号,北京市,北京市,永定,公司企业;公司;公司,170200,B000A7Q92N,公司企业,公司,公司,
116.11080016568756,39.90124340328381,北京京西昊霖文化科技集团有限责任公司,雅安路6号A座4层,北京市,北京市,永定,公司企业;公司;公司,170200,B0FFHX7JER,公司企业,公司,公司,
116.10664397919393,39.89837968911815,北京星网船电科技有限公司,石龙经济开发区美安路甲2号,北京市,北京市,永定,公司企业;公司企业;公司企业,170000,B0FFJAZ8U5,公司企业,公司企业,公司企业,
116.12194053587666,39.90475794860521,国昇设计有限责任公司北京分公司,金沙西街10号院2号楼20层2005室,北京市,北京市,永定,公司企业;公司;公司,170200,B0GRMSXD7O,公司企业,公司,公司,
116.10825957374692,39.90200155447443,北京东方大源非织造布有限公司,石龙工业区龙园路6号,北京市,北京市,永定,公司企业;公司;公司,170200,B000A7E2BI,公司企业,公司,公司,
116.11461283486058,39.886760236952526,御香源餐饮管理有限公司,永定镇上园路南口981车站,北京市,北京市,永定,公司企业;公司;公司|餐饮服务;中餐厅;中餐厅,170200|050100,B0FFKTZIF6,公司企业,公司,公司|餐饮服务,中餐厅
116.10342649991595,39.90440968660732,金城阜业地产(丽景店),丽景长安一期1号楼底商,北京市,北京市,永定,生活服务;中介机构;中介机构|公司企业;公司;公司,071600|170200,B0FFKUJLHP,生活服务,中介机构,中介机构|公司企业,公司
116.10773858197722,39.90445510536894,FIRMACO,[],北京市,北京市,永定,公司企业;公司;公司,170200,B0G0S71LUA,公司企业,公司,公司,
116.10810254115499,39.90064850996074,北京亿成精彩广告有限公司,永定镇石龙工业开发区龙园路甲5号,北京市,北京市,永定,公司企业;公司;广告装饰,170201,B0FFHC4ZW9,公司企业,公司,广告装饰,
116.10633591086335,39.90377626696574,灵坤公司,石龙工业区龙园路甲五号灵坤公司,北京市,北京市,永定,公司企业;公司;公司,170200,B0HB2YTKEW,公司企业,公司,公司,
116.10632689719709,39.903797260720914,石龙工业区精雕科技有限公司,石龙工业区永安路十号精雕科技,北京市,北京市,永定,公司企业;公司;公司,170200,B0H6MNEGG2,公司企业,公司,公司,
116.10693257214652,39.904358601428264,zpark,金安路与龙园路交叉路口往西南约50米,北京市,北京市,永定,公司企业;公司;公司,170200,B0G3DR3A4T,公司企业,公司,公司,
116.1075193423524,39.904129978806296,中建三局公司直属经理部,石龙东路3号维科宾馆,北京市,北京市,永定,公司企业;公司;公司,170200,B0HB3G6J7N,公司企业,公司,公司,
116.10580058683446,39.90126906597006,北京亚东生物制药有限公司,石龙西路58号东南80米,北京市,北京市,永定,公司企业;公司;公司,170200,B0G0POHVXS,公司企业,公司,公司,
116.10570844644553,39.901510002974064,门头沟宇通锁业有限公司,石龙南路甲12号开锁换锁,北京市,北京市,永定,公司企业;公司企业;公司企业,170000,B0FFJGFHKV,公司企业,公司企业,公司企业,
116.11755112734693,39.907454107334424,北京一味餐饮管理有限公司,曹各庄34号院5号楼111室,北京市,北京市,永定,公司企业;公司;公司,170200,B0HGN4KA5Q,公司企业,公司,公司,
116.11804990535315,39.908217579377556,爱炼工厂,曹各庄路32号院4-7,北京市,北京市,永定,公司企业;公司企业;公司企业,170000,B0FFMC7FI9,公司企业,公司企业,公司企业,
116.10832766625896,39.901978600933546,北京大源非织造有限公司(雅安路),永定镇石龙工业区龙园路6号,北京市,北京市,永定,公司企业;公司;公司,170200,B0FFI202FP,公司企业,公司,公司,
116.13096795861736,39.9009526844638,翡翠长安中航建设项目部,[],北京市,北京市,永定,公司企业;公司;公司,170200,B0HAPCU2HR,公司企业,公司,公司,
116.10518689003771,39.901075731958784,北京华尔倍生物技术有限公司,石担路与泰安路交叉路口往东北约100米,北京市,北京市,永定,公司企业;公司;公司,170200,B0FFLC6UDU,公司企业,公司,公司,
116.10745624753086,39.904241933779794,北京城建兴云房地产有限公司,永定镇石龙经济开发区石龙东路三号北京维科宾馆10层,北京市,北京市,永定,公司企业;公司;公司,170200,B0FFJ9PWOH,公司企业,公司,公司,
116.11622980720676,39.907869793286466,北京市城捷建设集团有限公司,永定镇曹各庄路34号院2号楼503室,北京市,北京市,永定,公司企业;公司;公司,170200,B0FFMHJAV8,公司企业,公司,公司,
116.10802040116835,39.90090544452026,北京亿成盛源彩色印刷有限公司(龙园路),永定镇石龙工业开发区龙园路甲5号,北京市,北京市,永定,公司企业;公司;公司,170200,B0FFI01D0M,公司企业,公司,公司,
116.12261662119762,39.90653765459352,中建二局门头沟项目办公区,石龙东路北150米,北京市,北京市,永定,公司企业;公司企业;公司企业,170000,B0FFI7HTLS,公司企业,公司企业,公司企业,
116.10766373638263,39.902496142678366,北京林克曼数控技术有限公司(生产基地),石龙工业区龙园路3号,北京市,北京市,永定,公司企业;公司;公司,170200,B0FFFAKE8Z,公司企业,公司,公司,
116.10368861071724,39.8901264538697,合图智造,永定镇京西紫金新园一区3号楼,北京市,北京市,永定,公司企业;公司;公司,170200,B0HG6UG31F,公司企业,公司,公司,
116.10046942776592,39.89766475658248,京盛源,何各庄中街10号院6号楼一层110,北京市,北京市,永定,公司企业;公司;公司,170200,B0H64DIOAK,公司企业,公司,公司,
116.11338001077428,39.88573620119837,华铁股份西区,龙林路栗园庄路南公交站牌西行300米路南,北京市,北京市,永定,公司企业;公司;公司,170200,B0FFHD80VD,公司企业,公司,公司,
116.10481572947752,39.906804282242476,北京亨美利嘉企业,永定镇冯村商业街A区通道5层,北京市,北京市,永定,公司企业;公司;公司,170200,B0G35XYM0P,公司企业,公司,公司,
116.1303524616242,39.90184878381289,北京兄弟碰碰乐台球俱乐部管理有限公司,龙兴路15号院10号楼1至2层102,北京市,北京市,永定,公司企业;公司;公司,170200,B0H63L8CCF,公司企业,公司,公司,
116.11400301288492,39.88555675075622,中冶置业门头沟公司,京昆路与龙林路交叉口东南150米,北京市,北京市,永定,公司企业;公司企业;公司企业,170000,B0FFHRLHKP,公司企业,公司企业,公司企业,
116.11445574345271,39.885495155585325,卓创和信建筑材料有限公司总部,永定镇栗园庄公交站西行300米,北京市,北京市,永定,公司企业;公司;公司,170200,B0FFL4OFNG,公司企业,公司,公司,
116.10483572747144,39.906998284514046,北京柏康永兴商贸有限公司,永定镇冯村商业街1015一2号,北京市,北京市,门头沟,公司企业;公司;公司,170200,B0FFKCOHPX,公司企业,公司,公司,
116.10488475831889,39.90719530216457,北京平安康利瘢家有限公司,石龙北路51号,北京市,北京市,永定,公司企业;公司;公司,170200,B0G3MDX9UC,公司企业,公司,公司,
116.13389734685163,39.895921139431955,北京博瑞旺达科技有限公司,永定镇梧桐嘉苑知秋园9号楼2单元304室,北京市,北京市,永定,公司企业;公司;公司,170200,B0FFJ1KPAC,公司企业,公司,公司,
116.10640153753285,39.907318152434776,北京辰友汽车服务有限责任公司,石龙北路56-2号,北京市,北京市,永定,公司企业;公司;公司,170200,B0HBT74RPA,公司企业,公司,公司,
116.10360970577227,39.904339777437016,凤凰印迹(北京)国际文化有限公司,石担路,北京市,北京市,永定,公司企业;公司;公司,170200,B0FFM1VJ1C,公司企业,公司,公司,
116.10811254244891,39.90074051249976,中矿资源勘探股份有限公司门头沟基地,石龙工业区龙园路甲5号,北京市,北京市,永定,公司企业;公司;公司,170200,B000A9VAUL,公司企业,公司,公司,
116.12029782549455,39.8859339584271,中信科佳信电气技术研究院有限公司,龙林路与108国道交叉口北150米,北京市,北京市,永定,公司企业;公司;公司,170200,B0FFHC5PBQ,公司企业,公司,公司,
116.10149381061011,39.90221093969563,北京军威宇诚建筑工程有限公司,永定镇何各庄中街6号院2号楼1单元1201,北京市,北京市,永定,公司企业;公司;公司,170200,B0FFL77ZJX,公司企业,公司,公司,
116.10047382074626,39.89462789512556,北京鲁班匠心建设有限责任公司,冯石环路414号院1号楼三单元103室,北京市,北京市,永定,公司企业;公司;公司,170200,B0H6FK09RX,公司企业,公司,公司,
116.10147388062339,39.8937053124107,北京英宝特科技发展有限公司第二分公司,[],北京市,北京市,永定,公司企业;公司;公司,170200,B0HA2AP20J,公司企业,公司,公司,
116.09943629825064,39.89151669190676,养护集团八公路处项目中心,[],北京市,北京市,永定,公司企业;公司;公司,170200,B0G2RGH4M8,公司企业,公司,公司,
116.10739473449655,39.90763874788384,北京青龙泉生态农业专业合作社,[],北京市,北京市,永定,公司企业;农林牧渔基地;其它农林牧渔基地,170400,B0HACZWE6K,公司企业,农林牧渔基地,其它农林牧渔基地,
116.10525688441288,39.90956540207682,北京华雪华峰餐饮有限公司,石龙北路37号附近,北京市,北京市,门头沟,公司企业;公司;公司,170200,B0FFL35Q6V,公司企业,公司,公司,
116.13785464657256,39.897680098816714,北京梧桐楷然餐饮有限公司,龙兴南二路8-1-105,北京市,北京市,永定,公司企业;公司;公司,170200,B0FFJWVSNA,公司企业,公司,公司,
116.09881676564954,39.89159550333917,养护集团八工程处,永定石龙南路65号,北京市,北京市,永定,公司企业;公司;公司,170200,B0FFHBBVCW,公司企业,公司,公司,
116.10522985745796,39.909530388752586,北京王掌柜餐饮服务有限公司,石担路与冯石环路交叉路口往西南约50米,北京市,北京市,门头沟,公司企业;公司;公司,170200,B0FFLBZ1A6,公司企业,公司,公司,
116.13834690480874,39.89733888928902,北京梧桐伊尚洗衣有限公司,龙兴南二路的8号院1号楼1层101号,北京市,北京市,永定,公司企业;公司;公司,170200,B0H69SIDYB,公司企业,公司,公司,
116.1386977746988,39.89733844494815,超为科技(北京)有限公司,白庄子路与龙兴南二路交叉口西南100米,北京市,北京市,永定,公司企业;公司企业;公司企业,170000,B0FFKL2YU9,公司企业,公司企业,公司企业,
116.13838877242402,39.89919787259329,北京雪莉洛亚商贸有限公司,龙兴南二路5号院2号楼6层331,北京市,北京市,永定,公司企业;公司;公司,170200,B0GRLCNOCJ,公司企业,公司,公司,
116.13869866724272,39.898202407769666,北京杰康泰旺商贸有限公司,龙兴南二路5号院4号楼709,北京市,北京市,永定,公司企业;公司;公司,170200,B0HGJZH49B,公司企业,公司,公司,
116.13885636789252,39.89577076734478,70后餐饮文化发展有限公司,莲石湖西路附近,北京市,北京市,永定,公司企业;公司;公司,170200,B0FFL4LO7V,公司企业,公司,公司,
116.09698371448003,39.90428548239254,中铁十四局集团有限公司,冯雅路(丽景长安西侧),北京市,北京市,永定,公司企业;公司;公司,170200,B0FFKWTFQI,公司企业,公司,公司,
116.139060221453,39.900923862365175,北京源汇建设工程有限公司,龙兴南一路3号院泷悦·长安牛津园8-101,北京市,北京市,永定,公司企业;公司;建筑公司,170202,B0FFMEBU50,公司企业,公司,建筑公司,
116.13160188082702,39.88927810990579,北京博承康健康科技有限公司,卧龙岗村村委会院内,北京市,北京市,永定,公司企业;公司;公司,170200,B000A8XBN4,公司企业,公司,公司,
116.13655753291013,39.89723510082688,北京华硕天成园林绿化有限公司,龙兴南二路8号院2号,北京市,北京市,永定,公司企业;公司;公司,170200,B0FFIUQ6D0,公司企业,公司,公司,
116.13872277930285,39.8977914643868,北京京徽鼎力建筑工程有限公司,龙兴南二路五号院四号楼906室,北京市,北京市,永定,公司企业;公司;建筑公司,170202,B0FFLDCRCD,公司企业,公司,建筑公司,
116.13894740953853,39.89722784676724,北京菲涵实验室设备有限公司,玉带街与龙兴南二路交叉口,北京市,北京市,永定,公司企业;公司;公司,170200,B0FFM9G5H9,公司企业,公司,公司,
116.09651637136847,39.88874809019281,灯箱广告图文快照,石门营新区A3底商灯箱广告图文快照,北京市,北京市,永定,公司企业;公司;广告装饰,170201,B0G0BNZ3GA,公司企业,公司,广告装饰,
116.13882011018082,39.8970906503736,北京中涛天达建设集团有限公司,玉带街与龙兴南二路交叉路口南侧(栖凤园),北京市,北京市,永定,公司企业;公司;公司,170200,B0FFL3N8A4,公司企业,公司,公司,
116.09694530801795,39.90723834650823,华润物业,永定冯石环路10号院,北京市,北京市,门头沟,公司企业;公司;公司,170200,B0G2B5AKCZ,公司企业,公司,公司,
116.09570110799514,39.894281695714504,北京云峰犬业,[],北京市,北京市,永定,公司企业;农林牧渔基地;其它农林牧渔基地,170400,B0HA4HRIRM,公司企业,农林牧渔基地,其它农林牧渔基地,
116.10066917565761,39.885450391271654,北京万鹏装饰有限公司,石门营B4小区18号楼1单元101室,北京市,北京市,永定,公司企业;公司;公司,170200,B0FFHCPDMN,公司企业,公司,公司,
116.09378694541186,39.90211713017273,中国建业有限责任公司,,北京市,北京市,永定,公司企业;公司企业;公司企业,170000,B0HGNRMV5V,公司企业,公司企业,公司企业,
116.1385291377976,39.899059100855105,北京美乡规划设计有限公司京西总部,梧桐汇5号院2号楼8层,北京市,北京市,永定,公司企业;公司;公司,170200,B0HGNZMBSG,公司企业,公司,公司,
116.13851909691057,39.89918507935954,中铁二十五局集团京津冀区域指挥部,龙兴南二路5号院2号楼12层,北京市,北京市,永定,公司企业;公司企业;公司企业,170000,B0FFKT1JNV,公司企业,公司企业,公司企业,
116.13684103922901,39.89079883127549,奥俐易公司门头沟废油脂处理中心,卧龙岗村东300米,北京市,北京市,永定,公司企业;公司;公司,170200,B0FFF9P8PA,公司企业,公司,公司,
116.09380867220908,39.88873973784019,北京地铁石门营车辆段,[],北京市,北京市,永定,公司企业;公司;公司,170200,B0HGN5LRU7,公司企业,公司,公司,
116.09976690790857,39.888998913908495,北京通利华电电力工程有限公司门头沟分公司,石园北路与紫金北路交叉口西北150米,北京市,北京市,永定,公司企业;公司企业;公司企业,170000,B0FFJQWJ2F,公司企业,公司企业,公司企业,
116.0965614243239,39.88858210647703,北京悦民物业管理有限责任公司,永定镇石门营村村委会1号,北京市,北京市,永定,公司企业;公司;公司,170200,B0G279FXXM,公司企业,公司,公司,
116.13864104236549,39.886239864783704,北京海平通达公司,卧龙岗村南街20号,北京市,北京市,,公司企业;公司;公司,170200,B0FFHUJWEC,公司企业,公司,公司,
116.1386313993228,39.89899726566709,中铁二十二局集团电气化工程有限公司,龙兴南二路7号院,北京市,北京市,永定,公司企业;公司;公司,170200,B0FFGIDO1P,公司企业,公司,公司,
116.09523765617993,39.88767093484149,北京燕京都物业管理有限公司门头沟分公司,石龙南路与石园中路交叉路口往南约100米,北京市,北京市,永定,公司企业;公司;公司,170200,B0FFKZWEQE,公司企业,公司,公司,
116.09474340454162,39.88724889392166,北京浩霖通信技术有限公司(门头沟商贸分公司),大峪门头沟石门营新区14楼102号,北京市,北京市,永定,公司企业;公司;公司,170200,B0FFH17FSU,公司企业,公司,公司,
116.1708367440929,40.13316226323825,天宜上佳高新材料股份有限公司,辛力屯路与白水洼路交叉口南700米,北京市,北京市,,公司企业;工厂;工厂|购物服务;购物相关场所;购物相关场所,170300|060000,B0FFF3J3QR,公司企业,工厂,工厂|购物服务,购物相关场所
116.1642807087256,40.13707665101444,东方智华家具有限公司,上庄镇西辛力屯村,北京市,北京市,,公司企业;公司;公司,170200,B0FFIXSK2N,公司企业,公司,公司,
116.16525151935747,40.13660751080163,北京曙光网络科技有限公司,辛力屯村225号,北京市,北京市,,公司企业;公司;公司,170200,B0H6NDELJL,公司企业,公司,公司,
116.17041967250024,40.13235356474965,延丰谷生态农场,辛力屯路,北京市,北京市,,公司企业;农林牧渔基地;农场,170402,B0FFG37N46,公司企业,农林牧渔基地,农场,
116.16570513449786,40.12615034500771,北京中育种猪有限责任公司,沙阳路南100米大北农发展学院附近,北京市,北京市,阳坊村,公司企业;公司;公司|公司企业;农林牧渔基地;其它农林牧渔基地,170200|170400,B000A881FD,公司企业,公司,公司|公司企业,农林牧渔基地
116.15950020780298,40.1369037641702,北京京昌恒久种植园,上庄镇西辛力屯村白水哇路往西钉子路口右转100米,北京市,北京市,阳坊村,公司企业;公司企业;公司企业,170000,B0FFL4ZCGM,公司企业,公司企业,公司企业,
116.16631161555777,40.12801230763214,北京景浩未来科技有限公司,上庄镇沙阳路与前章村路交叉口西三百米路北,北京市,北京市,阳坊村,公司企业;公司企业;公司企业,170000,B0FFL697I3,公司企业,公司企业,公司企业,
116.17195704708746,40.12406718522053,北京联智兴达科技有限公司,上庄镇前章村359号,北京市,北京市,,公司企业;公司;网络科技,170206,B000A881FE,公司企业,公司,网络科技,
116.15988274280168,40.1411730504727,昌平金太阳农场,金太阳农场(阳东路南400米),北京市,北京市,阳坊村,公司企业;公司企业;公司企业,170000,B0FFKRLZO0,公司企业,公司企业,公司企业,
116.15515526476659,40.134975952124215,核心网络设备仓库,东贯市村同心街7号,北京市,北京市,阳坊村,公司企业;公司;公司,170200,B0G30SI7U8,公司企业,公司,公司,
116.15473180050927,40.13720696274085,天工星河,东贯市村东贯东路甲1号,北京市,北京市,阳坊村,公司企业;公司企业;公司企业,170000,B0FFHFIG5S,公司企业,公司企业,公司企业,
116.17163794954226,40.125656449887565,晟馨农场,沙阳路与辛力屯路交叉口西北50米,北京市,北京市,,公司企业;公司企业;公司企业,170000,B0FFJEDPPY,公司企业,公司企业,公司企业,
116.15355470999542,40.127977701590765,北京万孛力医疗器械有限公司,阳坊镇东贯市村南3号,北京市,北京市,阳坊村,公司企业;公司;医药公司,170203,B0FFGARKEH,公司企业,公司,医药公司,
116.15499905576571,40.13320283726575,北京高财兴旺塑料包装厂,东贯市东路与白水洼路交叉口西150米,北京市,北京市,阳坊村,公司企业;公司;冶金化工,170205,B0FFHU0NPQ,公司企业,公司,冶金化工,
116.17646710603987,40.12807411872273,北京北控碧都水环境管理有限公司,后章村305号(新篮球厂西北角2层独栋),北京市,北京市,,公司企业;公司;公司,170200,B0GRTRF3DV,公司企业,公司,公司,
116.15410705681987,40.13726082076604,金源通印刷有限责任公司,东贯市村东路甲一号院,北京市,北京市,阳坊村,公司企业;公司;公司,170200,B0FFH0W5GW,公司企业,公司,公司,
116.15574406224111,40.13376414505,伊光祥辉清真食品有限公司昌平分公司,东贯市东路与白水洼路交叉口西北100米,北京市,北京市,阳坊村,公司企业;公司;公司,170200,B0FFJKHCQY,公司企业,公司,公司,
116.18200895673769,40.13798013390927,瑞禾农场,白水洼路,北京市,北京市,,公司企业;农林牧渔基地;其它农林牧渔基地,170400,B0GU3LK88T,公司企业,农林牧渔基地,其它农林牧渔基地,
116.15585334925571,40.141743560535595,许氏集团,东贯市东路旁,北京市,北京市,阳坊村,公司企业;公司企业;公司企业,170000,B0FFKLFK2N,公司企业,公司企业,公司企业,
116.15707686937627,40.125317378483835,耐氏中国北方服务中心,北京阳光之城酒店东(沙阳路南),北京市,北京市,阳坊村,公司企业;公司;公司,170200,B0FFL5CLZ8,公司企业,公司,公司,
116.15611693858838,40.12722344152283,得利斯北京基地,阳坊镇东贯市村南工业区临1号,北京市,北京市,阳坊村,公司企业;公司;公司,170200,B0FFFPZ5GL,公司企业,公司,公司,
116.15517902099845,40.13740475910507,中科兆阳(北京)光暖科技有限公司,东贯市村同心街18号,北京市,北京市,阳坊村,公司企业;公司企业;公司企业,170000,B0FFHTQJ9D,公司企业,公司企业,公司企业,
116.1543651003249,40.126867274781645,班迪酷红酒,极东未来产业园东区东门,北京市,北京市,阳坊村,公司企业;公司;商业贸易,170207,B0GRH7Z69I,公司企业,公司,商业贸易,
116.16690578333517,40.147786470836735,鑫鑫合源,016县道东150米,北京市,北京市,,公司企业;农林牧渔基地;其它农林牧渔基地,170400,B0FFG96UUS,公司企业,农林牧渔基地,其它农林牧渔基地,
116.15713904548848,40.12530349416084,北京耐维思科技有限公司,阳坊镇工业园东区1号,北京市,北京市,阳坊村,公司企业;公司;公司,170200,B0FFJOFT3V,公司企业,公司,公司,
116.15273602488296,40.131274914222,北京可好康乐医药有限公司,东贯市东路,北京市,北京市,阳坊村,公司企业;公司;公司,170200,B0FFLC0KNB,公司企业,公司,公司,
116.15652231537834,40.12532035887377,北京朗睿科技有限公司,阳坊镇极东未来产业园东区9号院,北京市,北京市,阳坊村,公司企业;公司企业;公司企业,170000,B0FFK2YAZI,公司企业,公司企业,公司企业,
116.15710796739982,40.12523244340518,北京星之川科技有限公司,阳坊镇极东未来产业园东区1号,北京市,北京市,阳坊村,公司企业;公司;公司,170200,B0GRAM3GNG,公司企业,公司,公司,
116.15646615807547,40.12532125568843,红门(北京)京红谷实业,沙阳路工业东区9号院,北京市,北京市,阳坊村,公司企业;公司企业;公司企业,170000,B0FFKJWA25,公司企业,公司企业,公司企业,
116.15297611289387,40.1279476577843,北京毅为科技有限公司,阳坊镇沙阳路极东未来产业园东区6号,北京市,北京市,阳坊村,公司企业;公司;公司,170200,B0FFLGA955,公司企业,公司,公司,
116.15315867603418,40.12749002980213,北京极东远洋工贸公司,阳坊镇沙阳路南桥东150米,北京市,北京市,阳坊村,公司企业;公司;公司,170200,B0FFLIUNTQ,公司企业,公司,公司,
116.1580465843548,40.12537516057776,北京艾·蔓特工贸有限公司,阳坊镇工业东区1号附近,北京市,北京市,阳坊村,公司企业;公司企业;公司企业,170000,B0FFJTQXQF,公司企业,公司企业,公司企业,
116.15800747712261,40.12535409029471,北京佳宁电器技术有限公司,阳坊镇极东未来产业园东区1号,北京市,北京市,阳坊村,公司企业;公司企业;公司企业,170000,B0FFJQOF4X,公司企业,公司企业,公司企业,
116.15700868742285,40.12524525957885,北京永创时代科技有限公司,阳坊镇阳坊工业区东区一号院1号楼208室,北京市,北京市,阳坊村,公司企业;公司;公司,170200,B0GKRD9FCP,公司企业,公司,公司,
116.17255674592074,40.12393130809151,佳瑞优拓商贸(北京)有限公司,前章村路与沙阳路交叉口东南150米华佳美购物中心2层,北京市,北京市,,公司企业;公司;广告装饰,170201,B0G17ZTCBI,公司企业,公司,广告装饰,
116.15482238974445,40.12673012004866,北京联志触控科技有限公司,阳坊镇极东未来产业园,北京市,北京市,阳坊村,公司企业;公司;公司,170200,B0HGALZCPO,公司企业,公司,公司,
116.16306719405577,40.14553153449537,北京常氏装饰集团(昌平公司),八口村绿林胡同10号,北京市,北京市,,公司企业;公司;广告装饰,170201,B0G0V7MGIZ,公司企业,公司,广告装饰,
116.15243674563926,40.12699577266448,奇安信集团京北基地,阳坊镇工业园区E座,北京市,北京市,阳坊村,公司企业;公司;公司,170200,B0FFKYJUNL,公司企业,公司,公司,
116.16788706484755,40.12021695160012,北京富海兴盛机械加工厂,前章村西路东150米,北京市,北京市,,公司企业;公司;机械电子,170204,B0FFKU4IS7,公司企业,公司,机械电子,
116.15713804216524,40.125307491951936,北京蓝宇互动科技有限公司,阳坊镇极东未来产业园东区一号,北京市,北京市,阳坊村,公司企业;公司;公司,170200,B0FFLH9BQA,公司企业,公司,公司,
116.15813478218443,40.125768287732626,北京市鹏达雅洁卫生用品有限公司,阳坊工业区东区1号,北京市,北京市,阳坊村,公司企业;公司;公司,170200,B0FFGOFH4D,公司企业,公司,公司,
116.16620310714556,40.121727672894636,北京翠湖农业科技有限公司,前章村西路,北京市,北京市,,公司企业;农林牧渔基地;其它农林牧渔基地,170400,B0FFM34PTR,公司企业,农林牧渔基地,其它农林牧渔基地,
116.15428201391941,40.125735226965254,苏试创博环境可靠性技术有限公司,东贯市村阳坊工业园东区10号,北京市,北京市,阳坊村,公司企业;公司;公司|科教文化服务;科研机构;科研机构,170200|141300,B0FFG1G8V2,公司企业,公司,公司|科教文化服务,科研机构
116.15143233396775,40.13207649595463,海波纳源科技(北京)有限公司,东贯市村富民街46号,北京市,北京市,阳坊村,公司企业;公司;公司,170200,B0FFKOE354,公司企业,公司,公司,
116.18431461136106,40.14180979128771,北京海谱气体有限公司,白水洼村西北,北京市,北京市,,公司企业;公司;公司,170200,B0FFFRCDOP,公司企业,公司,公司,
116.15234463323368,40.125887708048275,阳光之城管理有限公司,东贯市村南甲8号北京阳光之城酒店,北京市,北京市,阳坊村,公司企业;公司;公司,170200,B0FFK93JVP,公司企业,公司,公司,
116.15309171285871,40.12575106776432,航天激光公司,东贯市村南200米阳光之城养老院院内,北京市,北京市,阳坊村,公司企业;公司;公司,170200,B0FFHIF89W,公司企业,公司,公司,
116.15508004361752,40.14290002965843,北京昌阳君兰(草莓)种植园,阳坊镇八口村西阳坊镇农服中心路口往南200米,北京市,北京市,阳坊村,公司企业;农林牧渔基地;其它农林牧渔基地,170400,B0FFGCN618,公司企业,农林牧渔基地,其它农林牧渔基地,
116.1864186902526,40.14524606196101,千味樱樱桃育种中心,上庄镇双塔村南侧,北京市,北京市,,公司企业;农林牧渔基地;其它农林牧渔基地,170400,B0FFFDOK06,公司企业,农林牧渔基地,其它农林牧渔基地,
116.171966521378,40.12053851636136,艾特农场,前章村路艾特农场,北京市,北京市,,公司企业;公司企业;公司企业,170000,B0FFLBZ8R9,公司企业,公司企业,公司企业,
116.17613163494798,40.12447183501154,上庄镇花卉基地综合展销中心(暂停营业),上庄镇沙阳路,北京市,北京市,,公司企业;农林牧渔基地;花卉苗圃基地,170408,B000A881FL,公司企业,农林牧渔基地,花卉苗圃基地,
116.1675511142432,40.12022032401956,北京富海兴盛科贸有限公司,上庄镇前章村487号,北京市,北京市,,公司企业;公司;商业贸易,170207,B0FFGOE7KW,公司企业,公司,商业贸易,
116.1696529005178,40.12141213971456,北京萍敬之缘服装服饰有限公司,上庄镇前章西路绣花厂001号,北京市,北京市,,公司企业;公司;公司,170200,B0H63S9W7S,公司企业,公司,公司,
116.17249958298441,40.147587904534014,北京绿普方圆花卉科技有限公司,昌平福禄寿养老院东200米,北京市,北京市,,公司企业;公司;公司,170200,B0FFG70BOA,公司企业,公司,公司,
116.1830523895329,40.12499719649784,北京跃通水泥制品有限公司,上庄镇后章村村东1号院,北京市,北京市,,公司企业;工厂;工厂,170300,B000A881QP,公司企业,工厂,工厂,
116.18274971995083,40.123908763292405,金龙库房,[],北京市,北京市,,公司企业;公司;公司,170200,B0GK1ZY3RG,公司企业,公司,公司,
116.1548896079993,40.12648626489594,众合创业科技发展有限责任公司,阳坊镇阳坊东贯市工业园8号,北京市,北京市,阳坊村,公司企业;公司;公司,170200,B000A9Q2WW,公司企业,公司,公司,
116.18199653568216,40.141042807362254,域生态少林禅农院自助农场,上庄镇双塔南路,北京市,北京市,,公司企业;农林牧渔基地;其它农林牧渔基地,170400,B0GU6SAEVV,公司企业,农林牧渔基地,其它农林牧渔基地,
116.16713504012904,40.11940861785628,北京奇鸿服装服饰有限公司,上庄镇前章村西路,北京市,北京市,,公司企业;公司;公司,170200,B0GDF7WGNY,公司企业,公司,公司,
116.14621978347968,40.1356179953794,玉翅通达信鸽公棚,梨园街东150米,北京市,北京市,阳坊村,公司企业;公司企业;公司企业,170000,B0FFJOQSEF,公司企业,公司企业,公司企业,
116.15454662226857,40.12673161752976,麦德欧科技(北京)有限公司制造和验证中心,阳坊镇极东未来产业园东区东门,北京市,北京市,阳坊村,公司企业;工厂;工厂,170300,B0GRPULJHE,公司企业,工厂,工厂,
116.17348979386503,40.12048233857492,亚辉世鼎信息科技北京有限公司,前章村31号院,北京市,北京市,,公司企业;公司;公司,170200,B0G3U51HBQ,公司企业,公司,公司,
116.15232136713678,40.1274695214973,极东,阳坊镇南桥东100米,北京市,北京市,阳坊村,公司企业;公司;公司,170200,B0FFHG5TQ5,公司企业,公司,公司,
116.17214399525889,40.120727828591185,北京华海峰消防器材维修有限责任公司,前章村142号,北京市,北京市,,公司企业;公司;公司,170200,B0GKUDGA8B,公司企业,公司,公司,
116.14657804496399,40.133217844124275,北京广盈实创商贸有限公司,阳坊东街西100米,北京市,北京市,阳坊村,公司企业;公司;公司,170200,B0FFI00PWA,公司企业,公司,公司,
116.17169095095963,40.15044410441071,小刘有机蔬菜园,辛庄花棚工业园区东生态园,北京市,北京市,,公司企业;农林牧渔基地;其它农林牧渔基地,170400,B0HGGHU57X,公司企业,农林牧渔基地,其它农林牧渔基地,
116.18854934828306,40.128068337377066,北京清大农研科技有限公司,沙阳路上地兴达(集团)有限公司西北侧400米处,北京市,北京市,,公司企业;公司;公司,170200,B0FFHSRL1L,公司企业,公司,公司,
116.14359005253016,40.13407267108836,北京北钨科技有限公司,阳坊镇西贯市19号院,北京市,北京市,阳坊村,公司企业;公司;公司,170200,B0FFL3XMMB,公司企业,公司,公司,
116.18898446854303,40.13588632222345,北京都市绿吉种植中心,白水洼村(北京都市绿吉种植中心),北京市,北京市,,公司企业;农林牧渔基地;其它农林牧渔基地,170400,B0G15SP5VH,公司企业,农林牧渔基地,其它农林牧渔基地,
116.14707355889371,40.12391356352672,北京精润慧海科技发展有限公司,阳坊镇南桥北向南500米路东1号院,北京市,北京市,阳坊村,公司企业;公司;网络科技,170206,B0FFFNPTRL,公司企业,公司,网络科技,
116.19104838290515,40.14601170108461,北京阳光丽和教育科技有限公司,上庄路(西闸村公园西侧约250米),北京市,北京市,,公司企业;公司;公司,170200,B0FFKVJL61,公司企业,公司,公司,
116.1917727634317,40.14931452815238,晴雨网络工作室,上庄镇双塔村145号,北京市,北京市,,公司企业;公司企业;公司企业,170000,B0H6DA7I6B,公司企业,公司企业,公司企业,
116.18743767182445,40.118778301579546,北京科曼好易洁科技有限公司,纳兰园西路59号,北京市,北京市,,公司企业;公司;公司,170200,B0GUB7PQ3H,公司企业,公司,公司,
116.17733147497309,40.11240206652888,北京海泰鑫贸易公司,前章村西路与前章村路交叉口东南150米,北京市,北京市,,公司企业;公司;商业贸易,170207,B0FFKUCI9Y,公司企业,公司,商业贸易,
116.17730340240163,40.11236501861389,东方绿锦园林工程有限公司,前章村路与前章村西路交叉路口往东南约100米,北京市,北京市,,公司企业;公司;公司,170200,B0FFLCE1LX,公司企业,公司,公司,
116.17732245623156,40.1123540541409,润丰园林绿化工程有限公司,前章村路与前章村西路交叉路口往东南约100米,北京市,北京市,,公司企业;公司;公司,170200,B0FFL9CPX3,公司企业,公司,公司,
116.18464316796201,40.11262604363567,北京市温泉星华种植部,八家路(康达物流东北侧约200米),北京市,北京市,,公司企业;公司;公司,170200,B0G3SXXYOS,公司企业,公司,公司,
116.18129033097603,40.11184722649453,净土农场,八家南路与八家路交叉路口南侧,北京市,北京市,,公司企业;公司企业;公司企业,170000,B0G1Z43HN8,公司企业,公司企业,公司企业,
116.19239958821404,40.147096768602836,北京金卫伟业保安服务有限公司,上庄路(西闸村公园西北侧约100米),北京市,北京市,,公司企业;公司;公司,170200,B0FFL4Q95P,公司企业,公司,公司,
116.19239958378351,40.14713176494029,北京鸿运天下企业管理有限公司,上庄路(西闸村公园西北侧约100米),北京市,北京市,,公司企业;公司;公司,170200,B0FFL6AZ6H,公司企业,公司,公司,
116.19238153604826,40.1471587332299,北京众合时代保洁服务有限公司,上庄路(西闸村公园西北侧约150米),北京市,北京市,,公司企业;公司;公司,170200,B0FFL4QNOY,公司企业,公司,公司,
116.14584821807621,40.116690083100245,北京公交集团后沙金涧场站,S218(温阳路),北京市,北京市,,公司企业;公司;公司,170200,B0FFL9Q1AI,公司企业,公司,公司,
116.14339803616537,40.11467209793393,北京鑫润网络有限公司,苏家坨镇后沙涧一区69号,北京市,北京市,,公司企业;公司;公司,170200,B0HG9DR5F9,公司企业,公司,公司,
116.14442302706844,40.15128632791242,金秋伟业,阳坊村上八十地,北京市,北京市,,公司企业;农林牧渔基地;其它农林牧渔基地,170400,B0G1K526VQ,公司企业,农林牧渔基地,其它农林牧渔基地,
116.18385597371602,40.113534600060085,河南金卉园林绿化工程有限公司,八家路与八家南路交叉路口往东北约200米,北京市,北京市,,公司企业;公司;公司,170200,B0FFMA5S9Y,公司企业,公司,公司,
116.1547741236855,40.15908873846184,梨开城市,四家庄村西马坊路,北京市,北京市,,公司企业;农林牧渔基地;其它农林牧渔基地,170400,B0HAD9GILC,公司企业,农林牧渔基地,其它农林牧渔基地,
116.15457462270707,40.15866342286838,北京元泰达环保科技有限公司,西马坊路南50米,北京市,北京市,,公司企业;公司;公司,170200,B0FFHU9UUW,公司企业,公司,公司,
116.17330628073329,40.11259767437057,北京丰易行科技有限公司(果蔬供应基地),前章村264号,北京市,北京市,,公司企业;农林牧渔基地;其它农林牧渔基地,170400,B0FFLHLHUZ,公司企业,农林牧渔基地,其它农林牧渔基地,
116.14565268726003,40.11678773948647,北京公共交通控股(集团)有限公司第四客运分公司第七车队,S218(温阳路),北京市,北京市,,公司企业;公司;公司,170200,B0FFIKJQBI,公司企业,公司,公司,
116.15011937627828,40.15840243703682,益林顺通吉利停车场管理有限公司,西马坊路南50米,北京市,北京市,,公司企业;公司;公司,170200,B0FFIL6VXF,公司企业,公司,公司,
116.16758987139819,40.0836062439728,日新美舍装修公司,苏家坨苏一二村稻香湖酒店稻香湖西路,北京市,北京市,,公司企业;公司;公司,170200,B0FFHI500V,公司企业,公司,公司,
116.16740830555263,40.08401987645559,苏家坨镇王振种植园,苏家坨东路与稻香湖西路交叉路口西侧,北京市,北京市,,公司企业;农林牧渔基地;其它农林牧渔基地,170400,B0FFM9F1GN,公司企业,农林牧渔基地,其它农林牧渔基地,
116.16826870873251,40.08424646721666,北京市海淀区苏家坨镇周春林养殖场,苏家坨东路与稻香湖西路交叉路口东侧,北京市,北京市,,公司企业;农林牧渔基地;其它农林牧渔基地,170400,B0GUPKWPCV,公司企业,农林牧渔基地,其它农林牧渔基地,
116.167811761226,40.081535799455665,北京世纪浩业仓库,苏家坨东路苏三四村一号院,北京市,北京市,,公司企业;公司企业;公司企业,170000,B0FFL81PQU,公司企业,公司企业,公司企业,
116.1667591914525,40.07832804837018,北京嘉和制衣厂,苏家坨路(中心市场南侧约200米),北京市,北京市,,公司企业;工厂;工厂,170300,B0FFFXKID9,公司企业,工厂,工厂,
116.17628019150148,40.091733758691156,北京稻香湖酒店管理有限公司,稻香湖公园内,北京市,北京市,,公司企业;公司;公司,170200,B0FFICDMGL,公司企业,公司,公司,
116.17932135251336,40.08529872586514,华信中安,苏家坨稻香湖路16号,北京市,北京市,,公司企业;公司;公司,170200,B0FFID43SM,公司企业,公司,公司,
116.16829502991659,40.066520669471224,北分瑞利分析仪器(集团)有限责任公司,北清路160号,北京市,北京市,,公司企业;公司;公司,170200,B000A7CCML,公司企业,公司,公司,
116.17524822045455,40.0768178997661,国开数据中心,苏家坨镇翠湖北环路8号,北京市,北京市,,公司企业;公司;公司,170200,B0FFHP7IUQ,公司企业,公司,公司,
116.15418199136548,40.08451532249199,北京鋆炅科技有限公司,渴望餐厅,北京市,北京市,,公司企业;公司;公司,170200,B0FFLEX81T,公司企业,公司,公司,
116.15839672649066,40.07700455789726,北京市政路桥,苏家坨路21附近,北京市,北京市,,公司企业;公司;公司,170200,B0G22O0FJ8,公司企业,公司,公司,
116.17571753831805,40.09249367508302,北京深潜稻香湖中心艇库,稻香湖路(稻香湖温泉馆),北京市,北京市,,公司企业;公司;公司,170200,B0G3ZPMXD1,公司企业,公司,公司,
116.17925209483361,40.08584456338601,北京金雀未来科技有限责任公司库房,苏家坨镇稻香湖路16号,北京市,北京市,,公司企业;公司企业;公司企业,170000,B0FFIV0W47,公司企业,公司企业,公司企业,
116.15410081311698,40.08414620045693,北京兆格气体科技有限公司,温阳路附近,北京市,北京市,,公司企业;公司;公司,170200,B0FFGH2P46,公司企业,公司,公司,
116.15367238183025,40.08605829042806,北京力平包装,渴望餐厅（西小营店）东200米左转第五个院,北京市,北京市,,公司企业;公司企业;公司企业,170000,B0G05ZJTH9,公司企业,公司企业,公司企业,
116.1533646137902,40.08539977884636,北京育仁科技发展有限公司,西小营村温阳路稻香垂钓园东北侧,北京市,北京市,,公司企业;公司;公司,170200,B0FFH5SHF9,公司企业,公司,公司,
116.17340779466916,40.09499724545668,老六号渔池,稻香湖北路与稻香湖路交叉口东南100米,北京市,北京市,,公司企业;农林牧渔基地;其它农林牧渔基地,170400,B0FFGJ2WJU,公司企业,农林牧渔基地,其它农林牧渔基地,
116.1521905593461,40.08394676138648,中海良物业,苏家坨镇西小营村北侧平房,北京市,北京市,,公司企业;公司;公司,170200,B0GKTCPCZX,公司企业,公司,公司,
116.18244478551613,40.10112512619535,北京中青旅翠湖湿地公园有限公司,前章村路与南沙河西路交叉口西北200米,北京市,北京市,,公司企业;公司;公司,170200,B000A3FBF5,公司企业,公司,公司,
116.15413186590088,40.08440823880223,北京万顺鸿达家具租赁有限公司,稻香垂钓园东100米,北京市,北京市,,公司企业;公司;公司,170200,B0GU51U7JS,公司企业,公司,公司,
